"NAME","STREET","POST_CODE","CITY","LONGITUDE","LATITUDE","HUMIDITY_AVG","PRESSURE_AVG","TEMPERATURE_AVG","PM10_AVG","PM25_AVG","TIMESTAMP"
"SZKO?A PODSTAWOWA IM. MARIANA FALSKIEGO W KRASZEWICACH","UL. SZKOLNA","63-522","KRASZEWICE","18.22403","51.51563","95.12","1015.11","8.61","32.86","20.2","2025-04-28 21:00:00.0"
"SZKO?A PODSTAWOWA WE WRZ?SOWICACH","UL. SZKOLNA","32-040","WRZ?SOWICE","19.94282","49.96103","45.628571428571426","985.8142857142857","16.357142857142858","8.828571428571427","7.8999999999999995","2025-04-28 21:00:00.0"
"PUBLICZNA SZKO?A PODSTAWOWA NR 2 IM. KAZIMIERZA MALCZEWSKIEGO W STRZELCACH OPOLSKICH","UL. WAWRZY?CA ?WIERZEGO","47-100","STRZELCE OPOLSKIE","18.314889","50.503431","54.666666666666664","1040.2","15.966666666666667","1.0","0.5766666666666667","2025-04-28 21:00:00.0"
"ZESP?? SZK?? NR 1 W PSZCZYNIE","UL. KAZIMIERZA WIELKIEGO","43-200","PSZCZYNA","18.9457058","49.965883","58.6","1002.5333333333333","17.266666666666666","4.5","2.4433333333333334","2025-04-28 21:00:00.0"
"ZESP?? SZK?? IM. POWSTA?C?W WIELKOPOLSKICH W JANKOWIE PRZYGODZKIM","SZKOLNA","63-421","JANK?W PRZYGODZKI","17.7889069","51.596172","51.0","1009.0","16.533333333333335","26.933333333333334","16.156666666666666","2025-04-28 21:00:00.0"
"SZKO?A PODSTAWOWA NR 7 IM. ?O?NIERZY WRZE?NIA W ?WIKLICACH","UL. M?CZENNIK?W O?WI?CIMSKICH","43-229","?WIKLICE","18.989839","49.971937","54.4","993.8000000000001","17.53333333333333","10.233333333333333","5.423333333333333","2025-04-28 21:00:00.0"
"SZKO?A PODSTAWOWA NR 12 W STUDZIONCE","UL. JORDANA","43-245","STUDZIONKA","18.774985","49.9603559","54.36666666666667","1001.1999999999999","18.466666666666665","8.799999999999999","3.92","2025-04-28 21:00:00.0"
"ZESP?? SZKOLNO-PRZEDSZKOLNY W PIASKU","SZKOLNA","43-211","PIASEK","18.94634","50.00955","41.4","1001.7666666666668","17.599999999999998","20.599999999999998","9.716666666666667","2025-04-28 21:00:00.0"
"ZESP?? SZKOLNO-PRZEDSZKOLNY W ??CE","FITELBERGA","43-241","??KA","18.906757","49.9582444","36.833333333333336","999.6333333333333","19.366666666666667","8.733333333333334","5.2","2025-04-28 21:00:00.0"
"SZKO?A PODSTAWOWA NR 3 W LUBONIU","ARMII POZNA?","62-030","LUBO?","16.8968","52.3481","43.63333333333333","1008.8666666666667","17.099999999999998","12.833333333333334","6.636666666666667","2025-04-28 21:00:00.0"
"SPECJALNY O?RODEK WYCHOWAWCZY NR 1 W OSTROWCU ?WI?TOKRZYSKIM","SZKOLNA","27-400","OSTROWIEC ?WI?TOKRZYSKI","21.418144","50.9312","91.96999999999998","995.09","5.0","44.02","25.100000000000005","2025-04-28 21:00:00.0"
"ZESP?? SZK?? PONADGIMNAZJALNYCH CENTRUM KSZTA?CENIA USTAWICZNEGO W PRZYGODZICACH","PTR","63-421","PRZYGODZICE","17.822685","51.59023","45.199999999999996","1017.3333333333334","13.200000000000001","3.866666666666667","2.3266666666666667","2025-04-28 21:00:00.0"
"LICEUM OG?LNOKSZTA?C?CE IM. W?ADYS?AWA JAGIE??Y W ODOLANOWIE","KROTOSZY?SKA","63-430","ODOLAN?W","17.66024","51.58063","43.53333333333333","1008.1666666666666","15.866666666666667","37.46666666666667","21.256666666666664","2025-04-28 21:00:00.0"
"ZESP?? SZK?? W PIOTROWIE","","62-814","PIOTR?W","18.05485","51.81570","38.63333333333333","1010.1666666666666","16.3","11.366666666666667","6.803333333333334","2025-04-28 21:00:00.0"
"SZKO?A PODSTAWOWA W CZARNYMLESIE","","63-421","CZARNYLAS","17.762604","51.508366","66.33333333333333","1005.6","14.833333333333334","23.933333333333334","13.033333333333333","2025-04-28 21:00:00.0"
"SZKO?A PODSTAWOWA NR 2 IM. AUGUSTA HR. CIESZKOWSKIEGO W LUBONIU","?ABIKOWSKA","62-030","LUBO?","16.878431","52.346672","39.46666666666667","1016.8666666666667","17.966666666666665","7.7","3.24","2025-04-28 21:00:00.0"
"SZKO?A PODSTAWOWA IM. POWSTA?C?W WIELKOPOLSKICH W DORUCHOWIE","KALISKA","63-505","DORUCH?W","18.0786","51.4189","95.31","1015.31","8.56","32.76","18.92","2025-04-28 21:00:00.0"
"SZKO?A PODSTAWOWA IM. MIKO?AJA KOPERNIKA W BUKOWCU","SZKOLNA","95-006","BUKOWIEC","19.6757","51.6918","51.26666666666667","994.9666666666667","15.633333333333333","8.633333333333333","4.86","2025-04-28 21:00:00.0"
"SZKO?A PODSTAWOWA IM. MARII KONOPNICKIEJ W KOTLINIE","MARII KONOPNICKIEJ","63-220","KOTLIN","17.645437","51.91866","49.5","1007.0666666666666","14.166666666666666","3.3000000000000003","1.84","2025-04-28 21:00:00.0"
"SZKO?A PODSTAWOWA NR 2 W OTMUCHOWIE","KALINOWA","48-385","OTMUCH?W","17.213","50.46535","65.13333333333333","1003.1666666666666","15.333333333333334","22.8","12.936666666666667","2025-04-28 21:00:00.0"
"SZKO?A PODSTAWOWA IM. BOHATER?W POWSTA? ?L?SKICH W KA?KOWIE","","48-364","KA?K?W","17.185241","50.40420","96.33999999999999","1010.98","8.55","31.05","18.64","2025-04-28 21:00:00.0"
"SZKO?A PODSTAWOWA W MACIEJOWICACH","","48-385","MACIEJOWICE","17.13497","50.4998","58.9","989.9333333333334","15.299999999999999","14.0","6.93","2025-04-28 21:00:00.0"
"TEST SZKO?A","ul Testowa","00-000","TESTCITY","-157.52969778504766","1.8586845937815497","89.69","992.4699999999999","7.760000000000001","50.169999999999995","30.320000000000004","2025-04-28 21:00:00.0"
"ZESP?? EDUKACYJNY W KONOTOPIE","PL. POWSTA?C?W WIELKOPOLSKICH","67-416","KONOTOP","15.9031","51.93023","44.833333333333336","1015.7666666666668","20.266666666666666","23.733333333333334","13.836666666666668","2025-04-28 21:00:00.0"
"PRZEDSZKOLE NR 6 W BOCHNI","MUROWIANKA","32-700","BOCHNIA","20.4415","49.96533","66.43333333333334","1019.0333333333333","15.4","3.4333333333333336","1.96","2025-04-28 21:00:00.0"
"PUBLICZNA SZKO?A PODSTAWOWA W SZYMISZOWIE","SZKOLNA","47-161","SZYMISZ?W","18.21983","50.53656","49.666666666666664","1001.4333333333334","14.433333333333332","5.8","3.15","2025-04-28 21:00:00.0"
"PUBLICZNA SZKO?A PODSTAWOWA W ROZMIERCE","SZKOLNA","47-171","ROZMIERKA","18.26905","50.560720","96.32","995.88","5.98","47.13","29.899999999999995","2025-04-28 21:00:00.0"
"PUBLICZNA SZKO?A PODSTAWOWA W DZIEWKOWICACH","STRZELECKA","47-100","DZIEWKOWICE","18.34475","50.51530","96.32","995.88","5.98","47.13","29.899999999999995","2025-04-28 21:00:00.0"
"SZKO?A PODSTAWOWA IM. OR?A BIA?EGO W KUROWICACH FILIA W WOLI RAKOWEJ","SZKOLNA","95-006","WOLA RAKOWA","19.61157","51.67447","49.666666666666664","1001.4","14.166666666666666","1.5666666666666667","0.7666666666666666","2025-04-28 21:00:00.0"
"SZKO?A PODSTAWOWA IM. KS. JANA TWARDOWSKIEGO WE W?ADYS?AWOWIE","KALISKA","62-610","W?ADYS?AW?W","18.4688","52.10134","92.51","1014.7000000000002","8.83","28.05","16.66","2025-04-28 21:00:00.0"
"SZKO?A PODSTAWOWA NR 8 IM. J?ZEFA WESZKI W RUDO?TOWICACH","KRZYWO?","43-220","RUDO?TOWICE","19.00171","49.95711","1.0","997.9","16.2","2.1333333333333333","1.16","2025-04-28 21:00:00.0"
"ZESP?? SZKOLNO-PRZEDSZKOLNY W WI?LE WIELKIEJ","HODOWC?W","43-243","WIS?A WIELKA","18.85320","49.95291","48.199999999999996","997.7333333333332","17.166666666666668","1.9666666666666668","1.1466666666666667","2025-04-28 21:00:00.0"
"SZKO?A PODSTAWOWA IM. MARKA PRAWEGO W JEMIELNICY","SZKOLNA","47-133","JEMIELNICA","18.380122","50.548993","40.233333333333334","990.2666666666668","16.833333333333332","17.033333333333335","10.673333333333332","2025-04-28 21:00:00.0"
"SZKO?A PODSTAWOWA NR 2 IM. ?W. JADWIGI ?L?SKIEJ W PSZCZYNIE","KATOWICKA","43-200","PSZCZYNA","18.947994","49.992568","42.73333333333333","1001.8666666666667","19.433333333333334","5.333333333333333","3.06","2025-04-28 21:00:00.0"
"ZESP?? SZK?? SPECJALNYCH W OSTROWCU ?WI?TOKRZYSKIM","I?ZECKA","27-400","OSTROWIEC ?WI?TOKRZYSKI","21.386931","50.942931","92.61","994.75","5.04","40.73","23.77","2025-04-28 21:00:00.0"
"SZKO?A PODSTAWOWA NR 6 IM. KORNELA MAKUSZY?SKIEGO W CZARKOWIE","POWSTA?C?W ?L?SKICH","43-211","CZARK?W","18.909560","50.011713","42.666666666666664","999.1333333333333","17.266666666666666","8.433333333333332","5.163333333333333","2025-04-28 21:00:00.0"
"ZESP?? SZKOLNO-PRZEDSZKOLNY W JANKOWICACH","BAZIOWA","43-215","JANKOWICE","18.989423","50.002529","71.1","992.12","0.24","68.37","39.28","2025-04-28 21:00:00.0"
"SZKO?A PODSTAWOWA NR 4 IM. J?ZEFA PUKOWCA W PSZCZYNIE","ZYGMUNTA KRASI?SKIEGO","43-200","PSZCZYNA","18.961125","49.971182","45.46666666666667","996.5666666666666","16.766666666666666","3.6666666666666665","2.0966666666666667","2025-04-28 21:00:00.0"
"SZKO?A PODSTAWOWA IM. ARKADEGO FIEDLERA W RASZKOWIE Z SIEDZIB? W POGRZYBOWIE","POGRZYB?W","63-440","POGRZYB?W","17.723099","51.713966","48.70000000000001","1018.2000000000002","22.899999999999995","6.0","3.5","2025-04-28 21:00:00.0"
"ZESP?? SZK?? W OTMUCHOWIE","KRAKOWSKA","48-385","OTMUCH?W","17.167634","50.4705","96.33999999999999","1010.98","8.55","31.05","18.64","2025-04-28 21:00:00.0"
"SZKO?A PODSTAWOWA NR 6?IM. IGNACEGO ?UKASZEWICZA W CZECHOWICACH-DZIEDZICACH","UL. ?UKASIEWICZA","43-502","CZECHWICE-DZIEDZICE","19.016493","49.899404","51.166666666666664","969.6","15.866666666666665","6.3999999999999995","3.9133333333333336","2025-04-28 21:00:00.0"
"SZKO?A PODSTAWOWA NR 4 IM. GUSTAWA MORCINKA W S?UPSKU","UL. LESZCZY?SKIEGO","76-200","S?UPSK","17.005017","54.475286","48.26666666666667","1018.9333333333334","13.133333333333333","11.100000000000001","5.8500000000000005","2025-04-28 21:00:00.0"
"SZKO?A PODSTAWOWA W KLESZCZOWIE","UL. SZKOLNA","44-164","KLESZCZ?W","18.527510","50.344057","53.93333333333334","996.2333333333332","17.7","7.833333333333333","3.883333333333333","2025-04-28 21:00:00.0"
"SZKO?A PODSTAWOWA NR 5 IM. GRYFIT?W W S?UPSKU","UL. HUBALCZYK?W","76-200","S?UPSK","17.062723","54.455744","45.199999999999996","1017.3333333333334","13.200000000000001","3.866666666666667","2.3266666666666667","2025-04-28 21:00:00.0"
"ZESP?? SZKOLNO-PRZEDSZKOLNY W POT?PIE","UL. TARNOG?RSKA","42-693","POT?PA","18.662519","50.565309","97.16000000000001","997.19","5.87","39.37","22.63","2025-04-28 21:00:00.0"
"SZKO?A PODSTAWOWA NR 3 IM. JANA PAW?A II W PSZCZYNIE","UL. STAROMIEJSKA","43-200","PSZCZYNA","18.92452","49.98849","45.90833333333333","993.475","15.591666666666667","42.55833333333333","34.65","2025-04-28 21:00:00.0"
"SZKO?A PODSTAWOWA IM. MIKO?AJA REJA W GORZYCZKACH","UL. WIEJSKA","44-350","GORZYCZKI","18.399689","49.944774","53.166666666666664","994.4666666666667","16.533333333333335","3.1","2.013333333333333","2025-04-28 21:00:00.0"
"SZKO?A PODSTAWOWA NR 6 IM. LUDWIKA WARY?SKIEGO W S?UPSKU","UL. STARZY?SKIEGO","76-200","S?UPSK","17.023811","54.465980","40.03333333333333","1022.7666666666668","14.966666666666669","8.799999999999999","4.543333333333334","2025-04-28 21:00:00.0"
"SZKO?A PODSTAWOWA IM. JANA BRZECHWY W KOBI?RZE","UL. TUWIMA","43-210","KOBI?R","18.930274","50.060752","99.90000000000002","996.8666666666667","16.433333333333334","21.333333333333332","10.799999999999999","2025-04-28 21:00:00.0"
"SZKO?A PODSTAWOWA W PONISZOWICACH","UL. GLIWICKA","44-172","PONISZOWICE","18.458674","50.409220","63.53333333333333","994.8000000000001","17.5","1.6666666666666667","0.9199999999999999","2025-04-28 21:00:00.0"
"SZKO?A PODSTAWOWA IM. OR?A BIA?EGO W SOKO?OWICACH","SOKO?OWICE","56-400","SOKO?OWICE","17.4469","51.245","77.98","1009.18","9.68","10.979999999999999","6.150000000000001","2025-04-28 21:00:00.0"
"SZKO?A PODSTAWOWA W LIGOCIE POLSKIEJ","LIGOTA POLSKA","56-400","LIGOTA POLSKA","17.542356","51.239942","99.90000000000002","1002.0666666666666","16.266666666666666","5.1000000000000005","3.1633333333333336","2025-04-28 21:00:00.0"
"SZKO?A PODSTAWOWA IM. UNICEF W LIGOCIE MA?EJ","LIGOTA MA?A","56-400","LIGOTA MA?A","17.365476","51.142467","62.633333333333326","980.9333333333334","12.9","13.866666666666667","7.823333333333333","2025-04-28 21:00:00.0"
"SZKO?A PODSTAWOWA WE WSZECH?WI?TEM","WSZECH?WI?TE","56-400","WSZECH?WI?TE","17.484968","51.191751","62.666666666666664","1003.0","20.400000000000002","1.6333333333333335","0.9199999999999999","2025-04-28 21:00:00.0"
"SZKO?A PODSTAWOWA GMINY OLE?NICA W OLE?NICY","WILE?SKA","56-400","OLE?NICA","17.41034","51.2095","99.90000000000002","993.7000000000002","19.8","0.0","0.0","2025-04-28 21:00:00.0"
"SZKO?A PODSTAWOWA NR 19 W BRZE?CACH","POKOJU","43-200","BRZE?CE","18.832539","49.984943","37.800000000000004","997.7333333333332","16.766666666666666","11.233333333333334","6.303333333333334","2025-04-28 21:00:00.0"
"ZESP?? SZKOLNO-PRZEDSZKOLNY W RADOSTOWIE ?REDNIM","RADOST?W ?REDNI","59-800","RADOST?W ?REDNI","15.36293","51.12153","71.33333333333333","996.4","18.033333333333335","0.20000000000000004","0.16666666666666666","2025-04-28 21:00:00.0"
"ZESP?? SZKOLNO-PRZEDSZKOLNY W KO?CIELNIKU","KO?CIELNIK","59-800","KO?CIELNIK","15.29682","51.08393","91.58","1020.33","11.1","28.070000000000004","14.81","2025-04-28 21:00:00.0"
"SZKO?A PODSTAWOWA NR 2 IM. BOLES?AWA CHROBREGO W MIASTKU","KUJAWSKA","77-200","MIASTKO","16.97385","53.99424","94.40000000000002","1015.89","7.64","15.39","8.33","2025-04-28 21:00:00.0"
"ZESP?? SZK?? OG?LNOKSZTA?C?CYCH I TECHNICZNYCH W MIASTKU","M?ODZIE?OWA","77-200","MIASTKO","16.97198","54.00061","93.3","1016.63","6.400000000000001","12.979999999999999","7.62","2025-04-28 21:00:00.0"
"SZKO?A PODSTAWOWA IM. POLSKICH ODKRYWC?W I PODR??NIK?W W KOBIERZYCACH","PARKOWA","55-040","KOBIERZYCE","16.933169","50.971851","52.43333333333334","996.4666666666667","12.799999999999999","6.6000000000000005","3.9266666666666663","2025-04-28 21:00:00.0"
"SZKO?A PODSTAWOWA W PUSTKOWIE WILCZKOWSKIM","K?ODZKA","55-040","PUSTK?W WILCZKOWSKI","16.881039","50.906166","99.90000000000002","1005.1666666666666","16.833333333333332","0.26666666666666666","0.14333333333333334","2025-04-28 21:00:00.0"
"SZKO?A PODSTAWOWA IM. UNICEF W BIELANACH WROC?AWSKICH","AKACJOWA","55-040","BIELANY WROC?AWSKIE","16.971022","51.038120","18.3","1011.6999999999999","17.766666666666666","6.566666666666666","3.69","2025-04-28 21:00:00.0"
"SZKO?A PODSTAWOWA IM. JANUSZA KORCZAKA W WYSOKIEJ","CHABROWA","52-200","WYSOKA","17.007729","51.047504","99.90000000000002","1004.5","19.733333333333334","6.033333333333332","3.473333333333333","2025-04-28 21:00:00.0"
"SZKO?A PODSTAWOWA IM. ROMUALDA TRAUGUTTA W PUSTKOWIE ?URAWSKIM","KOLEJOWA","55-040","PUSTK?W ?URAWSKI","16.859465","50.958878","99.90000000000002","1003.9333333333334","17.8","5.066666666666666","2.6766666666666663","2025-04-28 21:00:00.0"
"SZKO?A PODSTAWOWA IM. ABP. ANTONIEGO JULIANA NOWOWIEJSKIEGO W S?UPNIE","KO?CIELNA","09-472","S?UPNO","19.84527","52.5041","82.51","1015.35","6.61","71.98","43.72","2025-04-28 21:00:00.0"
"SZKO?A PODSTAWOWA NR 1 IM. MARII KONOPNICKIEJ W ZESPOLE SZK?? OG?LNOKSZTA?C?CYCH NR 1 IM. MARII KONOPNICKIEJ W PRUSZCZU GDA?SKIM","NIEMCEWICZA","83-000","PRUSZCZ GDA?SKI","18.650575","54.261512","49.5","1031.5333333333335","12.833333333333334","11.5","6.126666666666666","2025-04-28 21:00:00.0"
"SZKO?A PODSTAWOWA NR 2 IM. MIKO?AJA KOPERNIKA W PRUSZCZU GDA?SKIM","TYSI?CLECIA","83-000","PRUSZCZ GDA?SKI","18.628278","54.260787","49.96666666666666","1024.6000000000001","13.0","4.466666666666667","2.5233333333333334","2025-04-28 21:00:00.0"
"SZKO?A PODSTAWOWA NR 3 IM. JANA MATEJKI W PRUSZCZU GDA?SKIM","MATEJKI","83-000","PRUSZCZ GDA?SKI","18.636981","54.255547","49.199999999999996","1026.6333333333332","12.366666666666667","5.666666666666667","3.0733333333333337","2025-04-28 21:00:00.0"
"SZKO?A PODSTAWOWA NR 4 IM. IGNACEGO JANA PADEREWSKIEGO W PRUSZCZU GDA?SKIM","KASPROWICZA","83-000","PRUSZCZ GDA?SKI","18.670231","54.263405","54.666666666666664","1026.1333333333332","12.700000000000001","6.533333333333334","3.5700000000000003","2025-04-28 21:00:00.0"
"SZKO?A PODSTAWOWA NR 13 W WI?LE MA?EJ","SOKOLA","43-243","WIS?A MA?A","18.793987","49.93368","53.03333333333333","1002.1","18.400000000000002","0.19999999999999998","0.12666666666666668","2025-04-28 21:00:00.0"
"ZESP?? SZKOLNO-PRZEDSZKOLNY W STUDZIENICACH","?W. JANA PAW?A II 74","43-215","STUDZIENICE","18.983576","50.016514","49.666666666666664","1006.2333333333332","17.166666666666668","5.333333333333333","3.203333333333333","2025-04-28 21:00:00.0"
"SZKO?A PODSTAWOWA IM. JANUSZA KORCZAKA W SUSZCU","SZKOLNA","43-267","SUSZEC","18.79149","50.03719","48.56666666666666","987.2599999999999","18.566666666666666","2.2666666666666666","1.24","2025-04-28 21:00:00.0"
"SZKO?A PODSTAWOWA NR 11 W POR?BIE","SZKOLNA","43-200","POR?BA","18.876488","49.984417","39.96666666666667","996.3333333333334","17.833333333333332","2.533333333333333","1.32","2025-04-28 21:00:00.0"
"SZKO?A PODSTAWOWA IM. MIKO?AJA KOPERNIKA W WYSOCKU MA?YM","KO?CIELNA","63-421","WYSOCKO MA?E","17.84109","51.61033","53.93333333333334","1002.6","15.366666666666667","23.166666666666668","13.803333333333333","2025-04-28 21:00:00.0"
"SZKO?A PODSTAWOWA NR 3 IM. JULIANA TUWIMA W NOWEJ SOLI","BOTANICZNA","67-100","NOWA S?L","15.71186","51.82115","86.7","1003.4","13.0","9.7","6.19","2025-04-28 21:00:00.0"
"ZESP?? SZK?? W JANKOWIE PIERWSZYM","JANK?W PIERWSZY","62-814","JANK?W PIERWSZY","17.987951","51.902107","27.8","1005.9333333333334","21.733333333333334","23.333333333333332","13.973333333333334","2025-04-28 21:00:00.0"
"ZESP?? SZKOLNO-PRZEDSZKOLNY W MESZNIE","MESZNO","48-385","MESZNO","17.15378","50.43684","96.83999999999999","1010.56","8.08","31.83","18.77","2025-04-28 21:00:00.0"
"SZKO?A PODSTAWOWA IM. 16. PU?KU U?AN?W WIELKOPOLSKICH W GRUPIE","SZKOLNA","86-134","GRUPA","18.643229","53.506348","97.5","1024.45","7.099999999999999","28.179999999999996","15.99","2025-04-28 21:00:00.0"
"SZKO?A PODSTAWOWA IM. OR?A BIA?EGO W KUROWICACH","SZKOLNA","95-006","KUROWICE","19.6897942","51.6648927","52.6","1001.8000000000001","15.766666666666666","6.8999999999999995","4.246666666666667","2025-04-28 21:00:00.0"
"SZKO?A PODSTAWOWA IM. POWSTA?C?W WIELKOPOLSKICH W BUDZYNIU","ROGOZI?SKA","64-840","BUDZY?","16.983885","52.8847","62.73333333333333","1017.4333333333334","15.166666666666666","17.84","10.17","2025-04-28 21:00:00.0"
"SZKO?A PODSTAWOWA W SWORNEGACIACH","SZKOLNA","89-608","SWORNEGACIE","17.503073","53.86227","91.12","1026.63","8.15","38.25","22.929999999999996","2025-04-28 21:00:00.0"
"SZKO?A PODSTAWOWA IM. OR?A BIA?EGO W RASZ?WCE","1 MAJA","59-307","RASZ?WKA","16.18346","51.30514","72.06","1008.2800000000001","12.589999999999998","15.089999999999998","8.21","2025-04-28 21:00:00.0"
"SZKO?A PODSTAWOWA IM. TADEUSZA KO?CIUSZKI W MUNINIE","3-GO MAJA","37-514","MUNINA","22.725977","49.997936","5.0","1000.9666666666667","16.2","5.2","3.233333333333333","2025-04-28 21:00:00.0"
"SZKO?A PODSTAWOWA IM. ALEKSANDRA FREDRY W SUROCHOWIE","SUROCH?W","37-500","SUROCH?W","22.7635","50.02385","80.6","1003.64","4.61","32.46","19.26","2025-04-28 21:00:00.0"
"SZKO?A PODSTAWOWA IM. LOTNIK?W ALIANCKICH W I?OWEJ","PIASKOWA","68-120","I?OWA","15.20461","51.50227","79.35","1009.21","14.410000000000002","10.44","6.47","2025-04-28 21:00:00.0"
"ZESP?? SZKOLNO-PRZEDSZKOLNY W BO?EJOWICACH","BO?EJOWICE","59-700","BO?EJOWICE","15.541525","51.244331","75.13","1018.85","11.44","34.17","20.59","2025-04-28 21:00:00.0"
"ZESP?? SZKOLNO-PRZEDSZKOLNY W BRZE?NIKU","BRZE?NIK","59-700","BRZE?NIK","15.467881","51.243537","99.90000000000002","1003.9666666666667","18.333333333333332","3.233333333333333","1.7133333333333336","2025-04-28 21:00:00.0"
"SZKO?A PODSTAWOWA W D?BROWIE BOLES?AWIECKIEJ","D?BROWA BOLES?AWIECKA","59-700","D?BROWA BOLES?AWIECKA","15.57337","51.325929","56.133333333333326","1006.6666666666666","9.799999999999999","5.766666666666667","3.1166666666666667","2025-04-28 21:00:00.0"
"ZESP?? SZKOLNO-PRZEDSZKOLNY W KRA?NIKU DOLNYM","KRA?NIK DOLNY","59-700","KRA?NIK DOLNY","15.607869","51.307800","99.90000000000002","1003.4666666666667","18.5","8.633333333333335","5.276666666666666","2025-04-28 21:00:00.0"
"ZESP?? SZKOLNO-PRZEDSZKOLNY W ?ELISZOWIE","?ELISZ?W","59-700","?ELISZ?W","15.636493","51.188462","35.1","1004.6333333333333","16.5","3.233333333333333","1.8066666666666666","2025-04-28 21:00:00.0"
"SZKO?A PODSTAWOWA IM. MARII SK?ODOWSKIEJ-CURIE W KAW?CZYNIE","KAW?CZYN","62-704","KAW?CZYN","18.53126","51.90873","91.88","1014.65","8.93","28.28","16.42","2025-04-28 21:00:00.0"
"PUBLICZNA SZKO?A PODSTAWOWA IM. MARII KONOPNICKIEJ W JORDANOWIE ?L?SKIM","WROC?AWSKA","55-065","JORDAN?W ?L?SKI","16.8656","50.8654","38.733333333333334","1019.6333333333333","15.933333333333332","19.033333333333335","10.176666666666668","2025-04-28 21:00:00.0"
"SZKO?A PODSTAWOWA IM. JANA PAW?A II W RUDNEJ","PIASKOWA","59-305","RUDNA","16.26114","51.51127","58.93333333333334","1014.4","13.833333333333334","6.7","4.086666666666667","2025-04-28 21:00:00.0"
"SZKO?A PODSTAWOWA IM. BOHATER?W WESTERPLATTE W CHOBIENI","SZKOLNA","59-305","CHOBIENIA","16.44566","51.54124","70.66666666666667","1015.5333333333333","13.5","4.8999999999999995","3.17","2025-04-28 21:00:00.0"
"SZKO?A PODSTAWOWA NR 3 IM. W?ADYS?AWA BRONIEWSKIEGO W ?WIEBODZICACH","?WIDNICKA","58-160","?WIEBODZICE","16.322191","50.859905","72.16666666666667","992.3666666666667","14.266666666666666","4.166666666666667","2.236666666666667","2025-04-28 21:00:00.0"
"PUBLICZNA SZKO?A PODSTAWOWA NR 5 IM. W?ADYS?AWA BRONIEWSKIEGO W NOWEJ SOLI","WALKI M?ODYCH","67-100","NOWA S?L","15.72476","51.78292","46.699999999999996","1015.3666666666667","19.166666666666668","3.9","2.1933333333333334","2025-04-28 21:00:00.0"
"ZESP?? EDUKACYJNY W KOLSKU","PIASTOWSKA","67-415","KOLSKO","15.961961","51.960693","88.33999999999999","1020.57","9.94","37.83","22.350000000000005","2025-04-28 21:00:00.0"
"SZKO?A PODSTAWOWA NR 3 IM. MARII KONOPNICKIEJ W KOLE","TORU?SKA","62-600","KO?O","18.63092","52.201656","93.89","1013.89","6.34","27.41","15.15","2025-04-28 21:00:00.0"
"SZKO?A PODSTAWOWA IM. JANA PAW?A II W MIKORZYNIE","MIKORZYN","63-600","MIKORZYN","18.026148","51.36473","95.31","1015.31","8.56","32.76","18.92","2025-04-28 21:00:00.0"
"SZKO?A PODSTAWOWA NR 1 IM. BOHATER?W WESTERPLATTE W K?PNIE","HENRYKA SIENKIEWICZA","63-600","K?PNO","17.987194","51.27619","56.300000000000004","1012.4666666666667","16.733333333333334","11.033333333333333","6.03","2025-04-28 21:00:00.0"
"SZKO?A PODSTAWOWA IM. JANA PAW?A II W LIPNICY WIELKIEJ","LIPNICA WIELKA","33-323","LIPNICA WIELKA","20.86532","49.70755","94.0","985.0","16.9","28.3","15.62","2025-04-28 21:00:00.0"
"SZKO?A PODSTAWOWA IM. PREZYDENTA GABRIELA NARUTOWICZA W CZ?STKOWIE MAZOWIECKIM","CZ?STK?W MAZOWIECKI","05-152","CZ?STK?W MAZOWIECKI","20.746943","52.39131","49.833333333333336","1014.0333333333333","14.566666666666668","41.666666666666664","23.25","2025-04-28 21:00:00.0"
"SZKO?A PODSTAWOWA IM. PIERRE""A DE COUBERTINA W BUDACH SIENNICKICH","BUDY SIENNICKIE","05-190","BUDY SIENNICKIE","20.787657","52.544962","65.86","1019.44","7.57","71.71","43.4","2025-04-28 21:00:00.0"
"SZKO?A PODSTAWOWA IM. JANA BRZECHWY W SZKLARACH G?RNYCH","SZKLARY G?RNE","59-335","SZKLARY G?RNE","16.08945","51.44225","99.90000000000002","1005.5666666666666","18.766666666666666","1.3666666666666665","0.7999999999999999","2025-04-28 21:00:00.0"
"SAMORZ?DOWA SZKO?A PODSTAWOWA W G?RNYCH GR?DACH","G?RNE GR?DY","62-310","G?RNE GR?DY","17.74012","52.11447","50.93333333333334","1010.2800000000001","14.6","7.433333333333334","4.233333333333333","2025-04-28 21:00:00.0"
"SZKO?A PODSTAWOWA IM. KRZYSZTOFA KAMILA BACZY?SKIEGO W CI??ENIU","WOLNO?CI","62-404","CI??E?","17.816093","52.21152","68.23333333333333","1013.2666666666668","16.466666666666665","11.166666666666666","6.153333333333333","2025-04-28 21:00:00.0"
"SZKO?A PODSTAWOWA NR 1 IM. STRAJKU DZIECI KO?MI?SKICH 1906/1907 W KO?MINIE WIELKOPOLSKIM","GLINKI","63-720","KO?MIN WIELKOPOLSKI","17.45651","51.82566","37.266666666666666","1012.7666666666668","19.466666666666665","29.76666666666667","18.01","2025-04-28 21:00:00.0"
"SZKO?A PODSTAWOWA NR 6 IM. JANA PAW?A II W STAROGARDZIE GDA?SKIM","BP. DOMINIKA","83-250","STAROGARD GDA?SKI","18.491356","53.98333","43.800000000000004","1013.6333333333333","13.733333333333334","6.7","3.5833333333333335","2025-04-28 21:00:00.0"
"SZKO?A PODSTAWOWA NR 4 IM. JANUSZA KORCZAKA W CHOJNOWIE","JANA KILI?SKIEGO","59-225","CHOJN?W","15.9396","51.26856","99.90000000000002","1009.0","27.7","10.0","4.47","2025-04-28 21:00:00.0"
"ZESP?? SZK?? TECHNICZNYCH W KOLE","KOLEJOWA","62-600","KO?O","18.62956","52.2088","92.77","1013.1","8.54","28.83","16.58","2025-04-28 21:00:00.0"
"PUBLICZNA SZKO?A PODSTAWOWA NR 2 IM. KAZIMIERZA PU?ASKIEGO W WARCE","POLNA","05-660","WARKA","21.188357","51.78638","45.1","1010.2333333333332","16.433333333333334","11.200000000000001","7.34","2025-04-28 21:00:00.0"
"SZKO?A PODSTAWOWA NR 2 IM. STEFANA STARZY?SKIEGO W NASIELSKU","KO?CIUSZKI","05-190","NASIELSK","20.801001","52.589717","29.666666666666668","1012.0","12.6","22.766666666666666","12.676666666666668","2025-04-28 21:00:00.0"
"ZESP?? SZKOLNO-PRZEDSZKOLNY W KAZUNIU NOWYM","G??WNA","05-152","KAZU? NOWY","20.68265","52.419853","58.23333333333333","1024.0333333333333","11.6","2.0","1.1866666666666668","2025-04-28 21:00:00.0"
"SZKO?A PODSTAWOWA IM. MIKO?AJA KOPERNIKA W CIEKSYNIE","MARSZ. J?ZEFA PI?SUDSKIEGO","05-192","CIEKSYN","20.666605","52.572132","66.26","1019.2400000000001","7.599999999999999","69.42","40.92","2025-04-28 21:00:00.0"
"SZKO?A PODSTAWOWA NR 5 IM MIKO?AJA KOPERNIKA W CZECHOWICACH-DZIEDZICACH","KLASZTORNA","43-502","CZECHOWICE-DZIEDZICE","19.003326","49.908154","29.8","997.7000000000002","31.8","23.0","11.76","2025-04-28 21:00:00.0"
"SZKO?A PODSTAWOWA IM. KS. J?ZEFA LONDZINA W ZABRZEGU","KAROLA PYTLA","43-516","ZABRZEG","18.9401","49.91564","76.5","984.0666666666666","8.733333333333334","8.299999999999999","5.023333333333333","2025-04-28 21:00:00.0"
"GMINNE PRZEDSZKOLE W NOWEJ WSI","UL. G??WNA","05-806","NOWA WIE?","20.793608032839607","52.14079879793492","48.56666666666666","1018.9333333333334","12.666666666666666","4.433333333333334","2.723333333333333","2025-04-28 21:00:00.0"
"SZKO?A PODSTAWOWA IM. JANA PAW?A II W MICHA?OWICACH","UL. SZKOLNA","05-816","MICHA?OWICE","20.8894743996203","52.16806240949327","43.93333333333334","1017.1333333333333","13.5","1.8666666666666665","1.1133333333333333","2025-04-28 21:00:00.0"
"SZKO?A PODSTAWOWA IM. MARII D?BROWSKIEJ W KOMOROWIE","UL. M. D?BROWSKIEJ","05-806","KOMOR?W","20.814969926602924","52.14696671968943","44.166666666666664","1017.4","14.0","6.933333333333334","4.056666666666667","2025-04-28 21:00:00.0"
"SZKO?A PODSTAWOWA IM. MIKO?AJA KOPERNIKA W NOWEJ WSI","UL. G??WNA","05-806","NOWA WIE?","20.80065871311049","52.134787344746286","48.56666666666666","1018.9333333333334","12.666666666666666","4.433333333333334","2.723333333333333","2025-04-28 21:00:00.0"
"GMINNE PRZEDSZKOLE W MICHA?OWICACH","UL. SZKOLNA","05-816","MICHA?OWICE","20.8908240883606","52.16924425690457","43.93333333333334","1017.1333333333333","13.5","1.8666666666666665","1.1133333333333333","2025-04-28 21:00:00.0"
"ZESP?? SZKOLNO-PRZEDSZKOLNY W SMO?DZINIE","BOHATER?W WARSZAWY","76-214","SMO?DZINO","17.217509899999996","54.66198055959346","99.90000000000002","1023.3666666666668","12.533333333333333","1.8","0.9866666666666667","2025-04-28 21:00:00.0"
"ZESP?? SZKOLNO- PRZEDSZKOLNY W?DOBRZYKOWICACH","UL. SUKCESU","55-002","DOBRZYKOWICE","17.185415","51.092059","46.5","1000.5666666666666","15.0","10.633333333333333","5.783333333333334","2025-04-28 21:00:00.0"
"SZKO?A PODSTAWOWA IM. PIAST?W ?L?SKICH W CHRZ?STAWIE WIELKIEJ","UL. WROC?AWSKA","55-003","CZERNICA","17.292154","51.092542","42.4","1006.4","13.733333333333334","5.7","4.3066666666666675","2025-04-28 21:00:00.0"
"ZESP?? SZKOLNO-PRZEDSZKOLNY IM. PAPIE?A JANA PAW?A II W CZERNICY","UL. ?W. BRATA ALBERTA ADAMA CHMIELOWSKIEGO?","55-003","CZERNICA","17.248533"," 51.0473805","40.53333333333333","1013.6333333333333","14.533333333333333","2.1999999999999997","0.6533333333333333","2025-04-28 21:00:00.0"
"SZKO?A PODSTAWOWA IM. JANUSZA KORCZAKA W RATOWICACH","UL. WROC?AWSKA","55-003","CZERNICA","17.266850"," 51.033897","39.43333333333334","995.7666666666668","14.9","20.966666666666665","10.993333333333334","2025-04-28 21:00:00.0"
"SZKO?A PODSTAWOWA IM. BOLES?AW KRZYWOUSTEGO W KAMIE?CU WROC?AWSKIM","UL. KOLEJOWA","55-002","KAMIENIEC WROC?AWSKI","17.173628"," 51.077638","61.93333333333334","1000.1999999999999","14.0","6.0","3.063333333333333","2025-04-28 21:00:00.0"
"SZKO?A PODSTAWOWA NR 4 IM. JANA MEJSTERA W S?OMCZYNIE","WILANOWSKA","05-520","KONSTANCIN-JEZIORNA","21.15329336951058","52.060898677662806","57.70000000000001","1008.0","5.900000000000001","5.599999999999999","3.43","2025-04-28 21:00:00.0"
"PUBLICZNA SZKO?A PODSTAWOWA W TOMASZOWIE","LE?NA","68-114","TOMASZ?W","15.404658513741197","51.622513710796575","19.0","1003.9333333333334","17.7","3.4","1.9433333333333334","2025-04-28 21:00:00.0"
"SZKO?A PODSTAWOWA NR 29 W LUBLINIE","WAJDELOTY","20-604","LUBLIN","22.5237824136724","51.2433286093504","37.449999999999996","1000.0","14.166666666666666","5.833333333333333","4.833333333333333","2025-04-28 21:00:00.0"
"SZKO?A PODSTAWOWA W SZKODNEJ","","39-126","SZKODNA","21.6475593266686","49.9841839576423","65.34444444444445","986.6444444444446","10.977777777777778","4.711111111111111","4.677777777777778","2025-04-28 21:00:00.0"
"SZKO?A PODSTAWOWA IM. MARII KONOPNICKIEJ W BUDACH G?OGOWSKICH","BUDY G?OGOWSKIE","36-060","BUDY G?OGOWSKIE","21.9052064322315","50.1600258408686","38.516666666666666","996.8333333333334","13.375","24.583333333333332","17.666666666666668","2025-04-28 21:00:00.0"
"SZKO?A PODSTAWOWA W KL?CZANACH","B?DZIEMY?L, KLECZANY","39-127","KL?CZANY","21.7805870168847","50.0725485846066","37.666666666666664","998.0","13.033333333333333","11.166666666666666","8.75","2025-04-28 21:00:00.0"
"SZKO?A PODSTAWOWA IM. ?W. JADWIGI KR?LOWEJ W SIETESZY","SIETESZ","37-206","SIETESZ","22.3548248494236","49.9901875306008","31.541666666666668","993.0","17.0","26.5","18.5","2025-04-28 21:00:00.0"
"PUBLICZNA SZKO?A PODSTAWOWA W BACH?RCU","BACH?RZEC","37-750","BACH?RZEC","22.334908846237","49.82477572297","41.975","994.6666666666666","14.049999999999999","23.75","16.25","2025-04-28 21:00:00.0"
"SZKO?A PODSTAWOWA NR 3 IM. JANA PAW?A II W ROPCZYCACH","3 MAJA","39-100","ROPCZYCE","21.5832672438671","50.0389694490123","39.30833333333333","999.0","13.583333333333334","14.666666666666666","10.333333333333334","2025-04-28 21:00:00.0"
"SZKO?A PODSTAWOWA NR 10 IM. OR?A BIA?EGO W SOSNOWCU","REYMONTA","41-200","SOSNOWIEC","19.1269172651723","50.2878010895257","33.199999999999996","993.0","18.108333333333334","13.25","10.333333333333334","2025-04-28 21:00:00.0"
"SZKO?A PODSTAWOWA NR 89 IM. KORNELA MAKUSZY?SKIEGO W KRAKOWIE","OS. PIAST?W","31-624","KRAK?W","20.0188257572655","50.1000269916206","39.18333333333333","995.6666666666666","17.025000000000002","6.25","5.416666666666667","2025-04-28 21:00:00.0"
"SZKO?A PODSTAWOWA NR 2  IM. KAZIMIERZA BRODZI?SKIEGO W BOCHNI","ORACKA","32-700","BOCHNIA","20.4250867479996","49.9702658831946","75.2","996.0","7.7","24.0","18.0","2025-04-28 21:00:00.0"
"SZKO?A PODSTAWOWA NR 1 IM. W?ADYS?AWA JAGIE??Y W OSIEKU","G??WNA","32-608","OSIEK","19.2631410879493","49.9511789367323","53.59166666666667","994.6666666666666","14.25","7.75","6.0","2025-04-28 21:00:00.0"
"SZKO?A PODSTAWOWA IM. KAZIMIERZA G?RSKIEGO W ?OZINIE","MILICKA","55-095","?OZINA","17.180298682797538","51.23388117656271","64.23333333333333","1006.5","13.700000000000001","20.2","10.143333333333333","2025-04-28 21:00:00.0"
"PRZEDSZKOLE W KIE?CZOWIE","WROC?AWSKA","55-093","KIE?CZ?W","17.19065006929958","51.1371047031024","52.9","1004.6","14.033333333333333","5.766666666666667","3.263333333333333","2025-04-28 21:00:00.0"
"SZKO?A PODSTAWOWA W LISZYNIE","UL. WAWRZY?CA SIKORY","09-408","LISZYNO","19.817459454245913","52.49033616836436","82.51","1015.35","6.61","71.98","43.72","2025-04-28 21:00:00.0"
"PRZEDSZKOLE W BLIZNEM JASI?SKIEGO","UL. TADEUSZA KO?CIUSZKI","05-082","BLIZNE JASI?SKIEGO","20.881159640505192","52.2438730196329","42.46666666666667","1019.8666666666667","13.633333333333333","5.433333333333334","2.5733333333333337","2025-04-28 21:00:00.0"
"ZESP?? SZK?? W PRUDNIKU","UL. D?BROWSKIEGO","48-200","PRUDNIK","17.571637628835184","50.32109542835716","70.83333333333333","996.6999999999999","15.933333333333332","7.033333333333334","4.033333333333333","2025-04-28 21:00:00.0"
"PRZEDSZKOLE ,,MI? USZATEK"" W OSTROROGU","UL. WRONIECKA","64-560","OSTROR?G","16.446531842328756","52.62862454862175","99.90000000000002","1012.0666666666666","16.2","15.266666666666666","9.136666666666667","2025-04-28 21:00:00.0"
"SZKO?A PODSTAWOWA NR 2 IM. GUSTAWA MORCINKA W TOSZKU","UL. WILKOWICKA","44-180","TOSZEK","18.527405971163624","50.454108128948924","74.36666666666666","998.4333333333334","14.566666666666668","33.96666666666667","19.91","2025-04-28 21:00:00.0"
"PUBLICZNA SZKO?A PODSTAWOWA IM. JANA PAW?A II W ROSZOWICKIM LESIE","UL. SZKOLNA","47-253","ROSZOWICKI LAS","18.21990066","50.26168468","48.38333333333333","1001.025","17.058333333333334","8.683333333333334","7.45","2025-04-28 21:00:00.0"
"SZKO?A PODSTAWOWA IM. KS. JANA TWARDOWSKIEGO W RACIMIERZU","UL. NIEPODLEG?O?CI","72-111","RACIMIERZ","14.65747308","53.7423708","44.68","1020.8799999999999","15.88","19.3","16.119999999999997","2025-04-28 21:00:00.0"
"I KATOLICKIE SPO?ECZNE LICEUM OG?LNOKSZTA?CACE IM.?W.BRATA ALBERTA CHMIELOWSKIEGO W PU?AWACH","UL. STANIS?AWA EUSTACHIEWICZA","24-100","PU?AWY","21.95614207","51.41935824","40.28333333333333","1006.1750000000001","15.174999999999999","8.675","8.625","2025-04-28 21:00:00.0"
"TECHNIKUM NR 4 W ZESPOLE SZK?? TECHNICZNYCH IM.M. SK?ODOWSKIEJ-CURIE W PU?AWACH","UL. WOJSKA POLSKIEGO","24-100","PU?AWY","21.97667461","51.41823622","42.141666666666666","1005.375","13.833333333333334","9.725","7.766666666666667","2025-04-28 21:00:00.0"
"SZKO?A PODSTAWOWA NR 2 IM. KRZYSZTOFA KAMILA BACZY?SKIEGO W PU?AWACH","AL. MA?A","24-100","PU?AWY","21.96276919","51.41579363","41.06666666666667","1005.4166666666666","14.424999999999999","6.125","4.966666666666667","2025-04-28 21:00:00.0"
"SZKO?A PODSTAWOWA IM. HANSA CHRISTIANA ANDERSENA W JAWIDZU","","21-077","JAWIDZ","22.72203892","51.3706852","61.03333333333333","1007.125","12.708333333333334","51.449999999999996","45.60833333333333","2025-04-28 21:00:00.0"
"SZKO?A PODSTAWOWA NR 4 IM. PAPIE?A JANA PAW?A II W ??CZNEJ","UL. JA?MINOWA","21-010","??CZNA","22.88259013","51.29206273","50.46666666666667","1002.725","12.458333333333334","6.3","5.7","2025-04-28 21:00:00.0"
"SZKO?A PODSTAWOWA IM.JOACHIMA LELEWELA W JAKUBOWICACH KONI?SKICH","UL. SZKOLNA","21-003","JAKUBOWICE KONI?SKIE","22.52628594","51.31010447","55.61666666666667","1000.1666666666666","12.375","8.608333333333333","7.833333333333333","2025-04-28 21:00:00.0"
"SZKO?A PODSTAWOWA W K?ODNICY DOLNEJ","","24-224","K?ODNICA DOLNA","22.28477957","51.06632652","69.38333333333334","998.7666666666668","11.416666666666666","8.174999999999999","7.033333333333334","2025-04-28 21:00:00.0"
"SZKO?A PODSTAWOWA NR 6 IM. IRENY SENDLEROWEJ W CHE?MIE","UL. POWSTA?C?W WARSZAWY","22-100","CHE?M","23.479142939944662","51.126339150220325 ","44.38333333333333","998.5500000000001","13.375","27.641666666666666","22.525000000000002","2025-04-28 21:00:00.0"
"SZKO?A PODSTAWOWA NR 4 IM. KORNELA MAKUSZY?SKIEGO W BIA?EJ PODLASKIEJ","UL. STANIS?AWA MONIUSZKI","21-500","BIA?A PODLASKA","23.1240646","52.03658476","36.21666666666666","1004.9083333333333","14.816666666666668","60.699999999999996","49.525","2025-04-28 21:00:00.0"
"SZKO?A PODSTAWOWA IM.KSI?DZA JANA TWARDOWSKIEGO W CZACH?WKU","UL. G??WNA","05-530","CZACH?WEK","21.0884246","51.96101922","57.0","1010.1166666666667","11.725","18.366666666666667","15.466666666666667","2025-04-28 21:00:00.0"
"LICEUM OG?LNOKSZTA?C?CE W LIPSKU","UL. ZWOLE?SKA","27-300","LIPSKO","21.65162688","51.16209825","41.775","1002.4","15.149999999999999","53.6","43.65","2025-04-28 21:00:00.0"
"TECHNIKUM NR 2 W GARWOLINIE","UL. ?O?NIERZY II ARMII WOJSKA POLSKIEGO","08-400","GARWOLIN","21.5953052","51.89704263","39.75833333333333","1006.9833333333332","14.475","10.4","8.375","2025-04-28 21:00:00.0"
"PUBLICZNA SZKO?A PODSTAWOWA IM. O. STANIS?AWA PAPCZY?SKIEGO W MARIA?SKIM PORZECZU","","08-470","MARIA?SKIE PORZECZE","21.33261521","51.88402213","44.13333333333333","1010.311111111111","12.244444444444445","10.244444444444445","8.711111111111112","2025-04-28 21:00:00.0"
"SZKO?A MUZYCZNA I ST. W GARWOLINIE","UL. JANA PAW?A II","08-400","GARWOLIN","21.61280145","51.89874672","36.68333333333333","1006.5749999999999","14.475","17.441666666666666","14.208333333333334","2025-04-28 21:00:00.0"
"SZKO?A PODSTAWOWA NR 2 W KONSTANCINIE-JEZIORNEJ","UL. STEFANA ?EROMSKIEGO","05-510","KONSTANCIN-JEZIORNA","21.12317779","52.07946519","46.39166666666667","1010.6166666666667","12.9","5.291666666666667","4.666666666666667","2025-04-28 21:00:00.0"
"TECHNIKUM NR 2 IM. EMILII PLATER W PIASECZNIE","UL. ALEJA BRZ?Z","05-501","PIASECZNO","21.02070292","52.0540252","50.25833333333333","1011.125","13.216666666666667","5.8","5.1000000000000005","2025-04-28 21:00:00.0"
"PUBLICZNA SZKO?A PODSTAWOWA IM.KORNELA MAKUSZY?SKIEGO W UGNIEWIE","UL. SZKOLNA","07-300","UGNIEWO","21.91017286","52.8032487","58.13333333333333","1007.4","11.0","25.066666666666663","24.53333333333333","2025-04-28 21:00:00.0"
"SZKO?A PODSTAWOWA NR 2 IM. FRYDERYKA CHOPINA W MALKINI G?RNEJ","UL. LE?NA","07-320","MA?KINIA G?RNA","22.05928062","52.6945031","40.666666666666664","1010.2583333333333","13.775","4.8","4.708333333333333","2025-04-28 21:00:00.0"
"SZKO?A PODSTAWOWA IM. B?OGOS?AWIONEGO OJCA STANIS?AWA PAPCZY?SKIEGO W K?TACH","UL. PU?AWSKA","05-532","K?TY","21.17263735","52.00208981","44.449999999999996","1008.6083333333335","12.983333333333334","15.141666666666666","13.058333333333335","2025-04-28 21:00:00.0"
"SZKO?A PODSTAWOWA NR 3 IM. ADAMA MICKIEWICZA W OSTRO??CE","UL. IGNACEGO JERZEGO SKOWRO?SKIEGO","07-417","OSTRO??KA","21.60307406","53.05404225","39.28","1008.6899999999999","13.84","9.180000000000001","8.440000000000001","2025-04-28 21:00:00.0"
"TECHNIKUM GASTRONOMICZNE W GDYNI","UL. MORSKA","81-222","GDYNIA","18.51581066","54.52508818","47.19166666666666","1018.7666666666668","12.641666666666666","4.066666666666666","3.6333333333333333","2025-04-28 21:00:00.0"
"SZKO?A PODSTAWOWA W Z?OTOK?OSIE","UL. TRAUGUTTA","05-504","Z?OTOK?OS","20.90784407","52.00962311","58.51666666666667","1009.25","11.775","8.125","6.866666666666667","2025-04-28 21:00:00.0"
"SZKO?A PODSTAWOWA IM. FELIKSA KAPACKIEGO W CENDROWICACH","UL. SZKOLNA","05-530","CENDROWICE","21.13239127","51.96755856","42.025","1006.7166666666667","12.941666666666668","82.22500000000001","59.13333333333333","2025-04-28 21:00:00.0"
"II LICEUM OG?LNOKSZTA?C?CE IM. EMILII PLATER W BIA?EJ PODLASKIEJ","UL. GABRIELA NARUTOWICZA","21-500","BIA?A PODLASKA","23.1217813","52.03188711","39.675000000000004","1007.6416666666668","13.725","72.39166666666667","61.375","2025-04-28 21:00:00.0"
"SZKO?A PODSTAWOWA IM. KS. JANA TWARDOWSKIEGO W GLINIE","","07-320","GLINA","21.95984362","52.6962338","43.525","1008.2333333333332","12.525","5.216666666666666","4.75","2025-04-28 21:00:00.0"
"PUBLICZNE TECHNIKUM LE?NE ZESPO?U SZK?? W TU?OWICACH","UL. ZAMKOWA","49-130","TU?OWICE","17.65698382","50.59142765","53.64166666666667","1003.8666666666667","15.933333333333332","17.283333333333335","14.166666666666666","2025-04-28 21:00:00.0"
"SZKO?A PODSTAWOWA ZESPO?U SZK?? IM. BOLES?AWA CHROBREGO W NIEMODLINIE","UL. OPOLSKA ","49-100","NIEMODLIN","17.63285173","50.64185007","50.25454545454545","1004.7818181818183","15.9","12.354545454545455","10.990909090909092","2025-04-28 21:00:00.0"
"TECHNIKUM W RYDU?TOWACH","UL. OBYWATELSKA","44-280","RYDU?TOWY","18.42658537","50.07171957","39.30833333333333","987.0416666666666","17.458333333333332","9.75","8.4","2025-04-28 21:00:00.0"
"SZKO?A PODSTAWOWA IM.KARDYNA?A STEFANA WYSZY?SKIEGO W TELATYNIE","UL. KARDYNA?A STEFANA WYSZY?SKIEGO","22-652","TELATYN","23.8446095","50.52250671","53.13333333333333","995.9916666666667","11.366666666666667","11.366666666666667","9.741666666666667","2025-04-28 21:00:00.0"
"TECHNIKUM NR 1 W ?WIDNIKU","UL. SZKOLNA","21-045","?WIDNIK","22.69752657","51.22672919","42.81666666666666","997.8583333333332","13.541666666666666","8.799999999999999","8.0","2025-04-28 21:00:00.0"
"I LICEUM OG?LNOKSZTA?C?CE IM. STEFANA CZARNIECKIEGO W CHE?MIE","UL. STEFANA CZARNIECKIEGO","22-100","CHE?M","23.477739357670377","51.134834775533534","39.949999999999996","1000.0","14.741666666666667","33.0","27.941666666666666","2025-04-28 21:00:00.0"
"SZKO?A PODSTAWOWA W O?DAKACH","","07-411","O?DAKI","21.692978","53.095518","40.06666666666667","1010.8833333333333","13.683333333333332","26.46666666666667","21.7","2025-04-28 21:00:00.0"
"SZKO?A PODSTAWOWA IM.J.WYBICKIEGO W POLNICY","","77-300","POLNICA","17.40057712","53.75198216","41.05833333333333","1005.5083333333333","14.625","11.316666666666668","9.65","2025-04-28 21:00:00.0"
"SZKO?A PODSTAWOWA W RAJKOWACH W ZESPOLE KSZTA?CENIA I WYCHOWANIA W RAJKOWACH","UL. JESIONOWA","83-130","RAJKOWY","18.7092112","53.9610738","55.208333333333336","1014.4916666666667","11.799999999999999","9.25","8.058333333333334","2025-04-28 21:00:00.0"
"LICEUM OG?LNOKSZTA?C?CE W REDZIE","UL. ??KOWA","84-240","REDA","18.3577379","54.60185","36.40833333333333","1019.7583333333333","14.825000000000001","8.941666666666666","8.025","2025-04-28 21:00:00.0"
"SZKO?A PODSTAWOWA IM. MARYNARKI WOJENNEJ RP W OSTASZEWIE","UL. KO?CIUSZKI","82-112","OSTASZEWO","18.9507202","54.2131383","49.96666666666667","1020.8555555555554","13.544444444444444","35.68888888888889","30.833333333333332","2025-04-28 21:00:00.0"
"TECHNIKUM NR 2 W BYTOWIE","UL. HIERONIMA DERDOWSKIEGO","77-100","BYT?W","17.48812443","54.16585829","35.541666666666664","1006.25","15.133333333333333","5.633333333333333","5.091666666666667","2025-04-28 21:00:00.0"
"SZKO?A PODSTAWOWA W ZIELINIE","UL. PRUDNICKA","47-370","ZIELINA","17.7989291","50.4408404","43.300000000000004","1000.4083333333333","17.775000000000002","6.158333333333334","5.2","2025-04-28 21:00:00.0"
"SZKO?A PODSTAWOWA STOWARZYSZENIA ""Z?OTY POTOK"" W ??CE PRUDNICKIEJ","UL. G?UCHO?ASKA","48-200","??KA PRUDNICKA","17.528406","50.313494","58.824999999999996","988.9333333333334","16.425","72.625","60.59166666666667","2025-04-28 21:00:00.0"
"SZKO?A PODSTAWOWA W ?UBNIE","","77-140","?UBNO","17.22653098","54.15365707","46.083333333333336","1005.0833333333334","12.383333333333333","8.2","6.783333333333334","2025-04-28 21:00:00.0"
"PUBLICZNA SZKO?A PODSTAWOWA IM. EDMUNDA DYWELSKIEGO W ZBLEWIE","UL. KASZTELA?SKA","83-210","BYTONIA","18.28590547","53.9203933","39.375","1005.6416666666668","14.741666666666667","32.05833333333333","28.3","2025-04-28 21:00:00.0"
"LICEUM OG?LNOKSZTA?C?CE W CZ?UCHOWIE","UL. JANUSZA KUSOCI?SKIEGO","77-300","CZ?UCH?W","17.36617595","53.66292375","31.541666666666668","1002.3833333333333","14.950000000000001","4.325","3.6666666666666665","2025-04-28 21:00:00.0"
"SZKO?A PODSTAWOWA NR 3 IM. MARII KONOPNICKIEJ W BIA?EJ PODLASKIEJ","UL. SPORTOWA","21-500","BIA?A PODLASKA","23.119378","52.022177","42.32222222222222","1004.5555555555555","13.3","142.73333333333332","140.86666666666667","2025-04-28 21:00:00.0"
"PUBLICZNA SZKO?A PODSTAWOWA IM. KSI?DZA JANA TWARDOWSKIEGO W JANUSZKOWICACH","UL. LESIA?SKA","47-330","JANUSZKOWICE","18.1356599","50.3898439","50.771428571428565","1001.5571428571428","17.557142857142857","14.457142857142857","12.357142857142858","2025-04-28 21:00:00.0"
"SZKO?A PODSTAWOWA IM. MARII SK?ODOWSKIEJ-CURIE W ALWERNI","UL. MARII SK?ODOWSKIEJ-CURIE","32-566","ALWERNIA","19.542471211821844","50.06505227372774","44.725","986.5583333333334","16.458333333333332","6.966666666666666","6.0","2025-04-28 21:00:00.0"
"SZKO?A PODSTAWOWA IM. MIKO?AJA KOPERNIKA W BALINIE","UL. JAWORZNICKA","32-500","BALIN","19.373681797572548","50.171073102747464 ","49.324999999999996","985.7833333333333","14.966666666666667","9.25","8.4","2025-04-28 21:00:00.0"
"TECHNIKUM NR 2 IM. BOHATER?W WESTERPLATTE W KLUCZBORKU","UL. BYCZY?SKA","46-200","KLUCZBORK","18.20597356","50.97669665","38.208333333333336","1000.3166666666666","16.566666666666666","9.566666666666666","9.408333333333333","2025-04-28 21:00:00.0"
"PUBLICZNA SZKO?A PODSTAWOWA IM.HALINY SEMENOWICZ W MOSZCZANCE","","48-200","MOSZCZANKA","17.483901","50.295686","69.80833333333332","986.1083333333332","13.741666666666667","18.341666666666665","18.066666666666666","2025-04-28 21:00:00.0"
"BRAN?OWA SZKO?A I STOPNIA W ?ASKARZEWIE","UL. KOLEJOWA","08-450","?ASKARZEW","21.599958","51.788404","49.28","1005.43","12.27","27.110000000000003","22.06","2025-04-28 21:00:00.0"
"SZKO?A PODSTAWOWA IM.?WIRKI I WIGURY W RADOCZY","UL. D?BOWA","34-100","RADOCZA","19.4703966","49.9176909","69.64444444444445","989.3888888888889","13.911111111111111","8.277777777777779","6.722222222222222","2025-04-28 21:00:00.0"
"SZKO?A PODSTAWOWA NR 5 IM. MARII KONOPNICKIEJ W CHE?MIE","UL. I PU?KU SZWOLE?ER?W","22-100","CHE?M","23.481093","51.134591","42.19166666666666","999.2416666666667","14.408333333333333","24.03333333333333","20.016666666666666","2025-04-28 21:00:00.0"
"LICEUM OG?LNOKSZTA?C?CE IM. KS. J. ST. PASIERBA W PELPLINIE","UL. SAMBORA","83-130","PELPLIN","18.6979422","53.9283135","47.50909090909091","1015.9090909090909","13.727272727272727","12.1","10.6","2025-04-28 21:00:00.0"
"TECHNIKUM W G?OG?WKU","UL. POWSTA?C?W","48-250","G?OG?WEK","17.86435","50.35349","44.90833333333333","997.7583333333333","18.116666666666667","9.216666666666667","7.658333333333332","2025-04-28 21:00:00.0"
"SZKO?A PODSTAWOWA NR 2 IM. KS. STANIS?AWA STASZICA W CHE?MIE","UL. OB?O?SKA","22-100","CHE?M","23.47575683","51.13815167","50.739999999999995","1000.3699999999999","13.25","26.99","21.759999999999998","2025-04-28 21:00:00.0"
"SZKO?A PODSTAWOWA NR 8 IM. BOLES?AWA ZYGMUNTA WIRSKIEGO W CHE?MIE","UL. PO?ANIECKA","22-100","CHE?M","23.477306","51.123224","43.43333333333334","998.7916666666666","14.183333333333332","15.625","13.116666666666667","2025-04-28 21:00:00.0"
"PUBLICZNA SZKO?A PODSTAWOWA W DZIEP??CI","","97-500","DZIEP???","19.5287876","51.0531482","46.27272727272727","991.0818181818181","15.69090909090909","20.5","16.227272727272727","2025-04-28 21:00:00.0"
"SZKO?A PODSTAWOWA NR 10 Z ODDZIA?AMI INTEGRACYJNYMI IM. WALERIANA ?UKASI?SKIEGO W ZAMO?CIU","UL. PEOWIAK?W","22-400","ZAMO??","23.256959617892495","50.72103172968299 ","51.025","996.6166666666667","13.683333333333332","8.0","6.783333333333334","2025-04-28 21:00:00.0"
"ZESP?? SZK?? GMINNYCH IM. HENRYKA SIENKIEWICZA W BOGUCICACH SZKO?A PODSTAWOWA W BOGUCICACH","","32-711","BOGUCICE","20.498337","50.057389","49.800000000000004","1001.975","15.691666666666668","4.383333333333334","3.7416666666666667","2025-04-28 21:00:00.0"
"PUBLICZNA SZKO?A PODSTAWOWA W NIEDZIELISKACH","","32-820","NIEDZIELISKA","20.632091271164818","50.09115399071606","51.220000000000006","1000.3799999999999","14.530000000000001","13.95","12.309999999999999","2025-04-28 21:00:00.0"
"TECHNIKUM W ZESPOLE SZK?? AGROBIZNESU IM.MACIEJA RATAJA W KLEMENTOWICACH","","24-170","KLEMENTOWICE","22.113069","51.362926","68.50833333333334","1002.7666666666668","11.924999999999999","5.866666666666667","3.966666666666667","2025-04-28 21:00:00.0"
"PUBLICZNA SZKO?A PODSTAWOWA IM. KAZIMIERZA RAS?AWSKIEGO W BORZECHOWIE ","","24-224","BORZECH?W-KOLONIA","22.2853918","51.09246552","60.65","998.1750000000001","12.625","7.65","6.55","2025-04-28 21:00:00.0"
"SZKO?A PODSTAWOWA NR 117 IM. KRAKOWSKIEJ KONGREGACJI KUPIECKIEJ W KRAKOWIE","UL. JANA KURCZABA","30-868","KRAK?W-PODG?RZE","20.006872057670375","50.01317838097981","53.86666666666667","997.4583333333334","15.275","9.933333333333334","9.0","2025-04-28 21:00:00.0"
"VI LICEUM OG?LNOKSZTA?C?CE IM. HUGONA KO???TAJA W LUBLINIE","UL. ADAMA MICKIEWICZA","20-466","LUBLIN","22.577994","51.216809","60.08181818181818","1002.1181818181817","13.409090909090908","12.263636363636364","11.345454545454546","2025-04-28 21:00:00.0"
"LICEUM OG?LNOKSZTA?C?CE IM. MIKO?AJA KOPERNIKA W NASIELSKU","UL. LIPOWA","05-190","NASIELSK","20.7955019","52.59533614","43.625","1010.5833333333334","14.933333333333332","62.708333333333336","52.19166666666666","2025-04-28 21:00:00.0"
"SZKO?A PODSTAWOWA IM. WINCENTEGO WITOSA W GROMNIKU","UL. WITOSA","33-180","GROMNIK","20.959304","49.840276","59.18333333333334","992.3333333333334","13.183333333333332","7.891666666666667","6.916666666666667","2025-04-28 21:00:00.0"
"AKADEMIA NAJM?ODSZYCH KRZYSZTOF GO?A? NIEPUBLICZNA SZKO?A PODSTAWOWA W KADZIDLE","UL. BRZOZOWA","07-420","KADZID?O","21.450353","53.231522","36.949999999999996","1007.725","13.766666666666666","19.391666666666666","16.808333333333334","2025-04-28 21:00:00.0"
"SZKO?A PODSTAWOWA IM. ?W. STANIS?AWA KOSTKI W AMELINIE","","06-212","AMELIN","20.92818124","52.98166409","43.25833333333333","1008.275","12.566666666666668","9.825000000000001","8.583333333333334","2025-04-28 21:00:00.0"
"SZKO?A PODSTAWOWA SPECJALNA NR 44 IM. JANA BRZECHWY W KRAKOWIE","UL. ZAK?TEK","30-076","KRAK?W","19.916426","50.076299","45.85833333333333","996.9666666666667","16.48333333333333","6.45","5.358333333333333","2025-04-28 21:00:00.0"
"SZKO?A PODSTAWOWA NR 1 IM. ?W. JADWIGI KR?LOWEJ W PODWILKU","","34-722","PODWILK","19.7397286","49.547978","60.86666666666667","943.5333333333333","12.708333333333334","4.591666666666667","4.341666666666667","2025-04-28 21:00:00.0"
"LICEUM OG?LNOKSZTA?C?CE KADET?W RZECZYPOSPOLITEJ POLSKIEJ W LIPINACH","","26-425","LIPINY","20.511418","51.54591","45.81818181818182","1004.6545454545455","13.645454545454545","4.809090909090909","4.254545454545454","2025-04-28 21:00:00.0"
"SZKO?A PODSTAWOWA NR 12 IM. JANA PAW?A II W TOMASZOWIE MAZOWIECKIM","UL. WIEJSKA","97-200","TOMASZ?W MAZOWIECKI","20.0210344","51.5251204","30.991666666666664","1001.0749999999999","17.708333333333332","17.408333333333335","14.433333333333332","2025-04-28 21:00:00.0"
"SZKO?A PODSTAWOWA NR 1 W BIA?YM BORZE","UL. DWORCOWA","78-425","BIA?Y B?R","16.84535152","53.89895274","39.175000000000004","1000.4","13.799999999999999","5.125","4.366666666666666","2025-04-28 21:00:00.0"
"SZKO?A PODSTAWOWA IM.NOBLIST?W POLSKICH W SIEMY?LU","UL. SZKOLNA","78-123","SIEMY?L","15.53351351","54.02888072","45.36666666666667","1017.975","14.808333333333332","31.25","26.908333333333335","2025-04-28 21:00:00.0"
"SZKO?A PODSTAWOWA NR 1 IM. ADAMA MICKIEWICZA W PO?CZYNIE-ZDROJU","UL. GRUNWALDZKA","78-320","PO?CZYN-ZDR?J","16.095199000000004","53.767893339499636","42.163636363636364","1011.4636363636364","15.29090909090909","63.2","55.527272727272724","2025-04-28 21:00:00.0"
"ARCHIDIECEZJALNA SZKO?A MUZYCZNA II ST. IM. KS. KARD. FRANCISZKA MACHARSKIEGO W KRAKOWIE","UL. PROSTA","30-814","KRAK?W-PODG?RZE","19.988467","50.020869","36.55","995.85","20.47","6.26","5.24","2025-04-28 21:00:00.0"
"SZKO?A PODSTAWOWA Z ODDZIA?AMI INTEGRACYJNYMI NR 30 IM. KAZIMIERZA PU?ASKIEGO W KRAKOWIE","UL. KONFEDERACKA","30-306","KRAK?W-PODG?RZE","19.927626","50.048977","41.016666666666666","997.7083333333334","18.508333333333333","7.0","5.716666666666666","2025-04-28 21:00:00.0"
"SPO?ECZNA SZKO?A PODSTAWOWA NR 2 SPO?ECZNEGO TOWARZYSTWA O?WIATOWEGO W TARNOWIE","UL. JANA MATEJKI","33-100","TARN?W","20.98127883","50.01473267","40.30833333333333","998.5749999999999","16.525000000000002","8.866666666666667","7.616666666666667","2025-04-28 21:00:00.0"
"XII LICEUM OG?LNOKSZTA?C?CE W ZESPOLE SZK?? MECHANICZNO-ELEKTRYCZNYCH W TARNOWIE","UL. J?ZEFA SZUJSKIEGO","33-100","TARN?W","20.975575","50.015268","39.5875","998.5625","16.6625","9.2125","7.975","2025-04-28 21:00:00.0"
"TECHNIKUM NR 1 W ZESPOLE SZK?? TECHNICZNYCH IM.IGNACEGO MO?CICKIEGO W TARNOWIE","UL. EUGENIUSZA KWIATKOWSKIEGO","33-101","TARN?W","20.9172948","50.01387361","40.775","999.15","16.158333333333335","8.1","7.058333333333334","2025-04-28 21:00:00.0"
"SZKO?A PODSTAWOWA IM. JANA TWARDOWSKIEGO W BAR?OMINIE","UL. SZKOLNA","84-242","BAR?OMINO","18.09937753","54.53266693","49.94444444444444","1007.811111111111","12.088888888888889","2.5777777777777775","2.2111111111111112","2025-04-28 21:00:00.0"
"SZKO?A PODSTAWOWA W ZESPOLE SZK?? IM.M?CZENNIK?W MARSZU ?MIERCI KL STUTTHOF W GARCZEGORZU","","84-351","GARCZEGORZE","17.72784195","54.59420501","46.410000000000004","1014.3199999999999","12.3","18.82","16.36","2025-04-28 21:00:00.0"
"PUBLICZNA SZKO?A PODSTAWOWA NR 1 IM.BOHATER?W WESTERPLATTE W PRUDNIKU","UL. PODG?RNA","48-200","PRUDNIK","17.595989","50.32052","55.41818181818182","992.1363636363636","16.436363636363637","27.6","24.05454545454546","2025-04-28 21:00:00.0"
"ZESP?? SZK?? GMINNYCH IM. MIKO?AJA KOPERNIKA W GAW?OWIE SZKO?A PODSTAWOWA Z ODDZIA?AMI SPORTOWYMI W GAW?OWIE","","32-711","GAW??W","20.463199","50.026547","49.85833333333333","999.6416666666668","15.35","31.758333333333336","27.866666666666664","2025-04-28 21:00:00.0"
"SZKO?A PODSTAWOWA SPECJALNA W GR?JCU","UL. POLNA","05-600","GR?JEC","20.863021","51.862928","42.525","1003.5166666666668","14.016666666666666","8.525","7.033333333333334","2025-04-28 21:00:00.0"
"PUBLICZNA SZKO?A PODSTAWOWA W SUCHEJ","UL. SZLACHECKA","26-800","SUCHA","20.953664","51.617246","50.06666666666666","1006.6916666666666","11.858333333333334","6.558333333333334","5.958333333333333","2025-04-28 21:00:00.0"
"TECHNIKUM W WARCE","UL. OBWODOWA","05-660","WARKA","21.182782","51.79066","38.99166666666667","1007.8916666666665","15.191666666666668","15.058333333333332","12.433333333333332","2025-04-28 21:00:00.0"
"SZKO?A PODSTAWOWA NR 4 W RYDU?TOWACH","UL. STRZELC?W BYTOMSKICH","44-280","RYDU?TOWY","18.417777","50.06633209","53.03333333333333","988.8583333333332","16.233333333333334","7.883333333333333","6.925000000000001","2025-04-28 21:00:00.0"
"PUBLICZNA SZKO?A PODSTAWOWA NR 1 IM. BOLES?AWA KRZYWOUSTEGO W KO?UCHOWIE","UL. CHOPINA","67-120","KO?UCH?W","15.5962077","51.7425702","35.9","1009.05","18.2","49.2","41.2","2025-04-28 21:00:00.0"
"PUBLICZNA SZKO?A PODSTAWOWA NR 1 IM. KOMISJI EDUKACJI NARODOWEJ W BIA?OBRZEGACH","UL. RZEMIE?LNICZA","26-800","BIA?OBRZEGI","20.9533613","51.64505952","34.958333333333336","1006.8416666666667","-40.0","8.383333333333333","8.058333333333334","2025-04-28 21:00:00.0"
"TECHNIKUM IM. ZES?A?C?W SYBIRU W BRODNICY","UL. KARBOWSKA","87-300","BRODNICA","19.4065091","53.2579165","37.300000000000004","1016.3333333333334","16.483333333333334","22.441666666666666","18.983333333333334","2025-04-28 21:00:00.0"
"PUBLICZNA SZKO?A PODSTAWOWA W GNIEWOSZOWIE","UL. KONOPNICKIEJ","26-920","GNIEWOSZ?W","21.8112","51.471874","51.13333333333333","1006.4250000000001","13.933333333333332","32.975","26.866666666666664","2025-04-28 21:00:00.0"
"PUBLICZNA SZKO?A PODSTAWOWA W GOSZCZYNIE","UL. ARMII KRAJOWEJ","05-610","GOSZCZYN","20.85589777","51.73236675","52.1","1003.5749999999999","14.133333333333333","13.65","11.158333333333333","2025-04-28 21:00:00.0"
"LICEUM OG?LNOKSZTA?C?CE W TARCZYNIE","UL. KS. CZES?AWA OSZKIELA","05-555","TARCZYN","20.83477","51.98106","44.80833333333334","1005.8166666666666","15.241666666666667","26.691666666666666","21.858333333333334","2025-04-28 21:00:00.0"
"SZKO?A PODSTAWOWA IM. B?OGOS?AWIONEGO KS. JERZEGO POPIE?USZKI W NIECZAJNIE G?RNEJ","","33-205","NIECZAJNA G?RNA","21.052364","50.180347","52.625","999.5416666666666","14.200000000000001","10.658333333333333","8.916666666666666","2025-04-28 21:00:00.0"
"SZKO?A PODSTAWOWA NR 86 IM. POWSTA?C?W ?L?SKICH W KRAKOWIE","OS. OSIEDLE JAGIELLO?SKIE","31-833","KRAK?W-NOWA HUTA","20.027067","50.084753","49.47","995.85","16.78","9.6","7.94","2025-04-28 21:00:00.0"
"SZKO?A PODSTAWOWA IM. BATALIONU ""BARBARA"" AK W PAW?ZOWIE","","33-103","PAW?Z?W","20.98588298","50.07066136","35.96","994.3399999999999","17.54","5.68","5.04","2025-04-28 21:00:00.0"
"PUBLICZNA SZKO?A PODSTAWOWA IM. JANA PAW?A II W RAJBROCIE","","32-725","RAJBROT","20.48706815","49.82154633","61.725","982.7416666666667","12.741666666666667","12.308333333333332","10.608333333333333","2025-04-28 21:00:00.0"
"SZKO?A PODSTAWOWA IM. POWSTA?C?W STYCZNIOWYCH W DALIKOWIE","UL. ??CZYCKA","99-205","DALIK?W","19.10104737","51.8835744","40.858333333333334","1004.6583333333333","15.0","8.391666666666667","7.033333333333334","2025-04-28 21:00:00.0"
"PUBLICZNA SZKO?A PODSTAWOWA W JAWORZU G?RNYM","","39-223","JAWORZE G?RNE","21.354123","49.94549","48.4","994.7416666666667","13.716666666666667","3.858333333333334","3.2916666666666665","2025-04-28 21:00:00.0"
"SZKO?A PODSTAWOWA NR 234 IM. JULIANA TUWIMA W WARSZAWIE","UL. ESPERANTO","01-049","WARSZAWA","20.980951","52.244004","32.391666666666666","1008.5833333333334","15.950000000000001","6.6000000000000005","6.55","2025-04-28 21:00:00.0"
"XI LICEUM OG?LNOKSZTA?C?CE IM. MIKO?AJA REJA W WARSZAWIE","PL. PLAC STANIS?AWA MA?ACHOWSKIEGO","00-063","WARSZAWA","21.01075177068874","52.238891020514885 ","28.991666666666664","1008.6166666666667","17.266666666666666","3.4499999999999997","3.283333333333333","2025-04-28 21:00:00.0"
"SZKO?A PODSTAWOWA IM. ?W. JADWIGI KR?LOWEJ POLSKI W LISIEJ G?RZE","UL. SZKOLNA","33-140","LISIA G?RA","21.04434023989556","50.081408096695185 ","37.0","992.875","17.075","12.9","11.299999999999999","2025-04-28 21:00:00.0"
"SZKO?A PODSTAWOWA NR 89 IM. TADEUSZA MAZOWIECKIEGO W GDA?SKU","UL. SZYPR?W","80-335","GDA?SK","18.5764229","54.422398","58.175000000000004","1021.6750000000001","11.775","9.041666666666666","7.758333333333333","2025-04-28 21:00:00.0"
"SZKO?A PODSTAWOWA NR 82 IM. PROF. JANA CZOCHRALSKIEGO W GDA?SKU","UL. RADAROWA","80-298","GDA?SK","18.4834117","54.3881906","42.800000000000004","1003.5083333333333","13.916666666666666","33.983333333333334","27.175","2025-04-28 21:00:00.0"
"SZKO?A TECHNICZNA BYDGOSKIEGO ZAK?ADU DOSKONALENIA ZAWODOWEGO W CHOJNICACH","UL. KO?CIERSKA","89-600","CHOJNICE","17.57105185","53.69729052","32.50833333333333","1000.5500000000001","15.658333333333333","9.275","8.299999999999999","2025-04-28 21:00:00.0"
"PRYWATNA SZKO?A PODSTAWOWA ""NAJA SZKO?A"" W WEJHEROWIE","UL. PRZEMYS?OWA","84-200","WEJHEROWO","18.21802095","54.61295281","38.5","1017.6750000000001","14.358333333333334","9.891666666666667","8.883333333333333","2025-04-28 21:00:00.0"
"ZESP?? PLAC?WEK O?WIATOWYCH SZKO?A PODSTAWOWA IM. J?ZEFA BEMA W WOLI FILIPOWSKIEJ","UL. SZKOLNA","32-065","WOLA FILIPOWSKA","19.5849512","50.1324622","55.46666666666667","990.025","16.633333333333333","10.958333333333334","9.616666666666667","2025-04-28 21:00:00.0"
"SZKO?A PODSTAWOWA W NOWYCH ?UBKACH","","09-454","NOWE ?UBKI","20.0336032","52.5782308","61.3","1005.5","11.3","11.2","9.3","2025-04-28 21:00:00.0"
"SZKO?A PODSTAWOWA IM. KPR. FELIKSA IGNACEGO GRABOWSKIEGO W ZESPOLE PLAC?WEK O?WIATOWYCH W BODZANOWIE","UL. WYSZOGRODZKA","09-470","CHODKOWO-DZIA?KI","20.0374191","52.4989335","0.0","990.0","0.5","21.833333333333332","18.833333333333332","2025-04-28 21:00:00.0"
"SZKO?A PODSTAWOWA NR 36 IM. JULIANA TUWIMA W ZABRZU","PL. PLAC WARSZAWSKI","41-800","ZABRZE","18.78893235","50.30422484","39.59166666666667","991.6666666666666","17.758333333333333","9.6","8.041666666666666","2025-04-28 21:00:00.0"
"III LICEUM OG?LNOKSZTA?C?CE Z ODDZIA?AMI DWUJ?ZYCZNYMI W ZABRZU","UL. HENRYKA SIENKIEWICZA","41-800","ZABRZE","18.7957049","50.29655227","39.041666666666664","989.475","17.983333333333334","11.583333333333334","9.625","2025-04-28 21:00:00.0"
"SZKO?A PODSTAWOWA NR 48 W ZABRZU W CENTRUM KSZTA?CENIA OG?LNEGO I ZAWODOWEGO W ZABRZU","UL. ZWROTNICZA","41-807","ZABRZE","18.76624","50.343641","50.5","992.1166666666667","16.0","7.116666666666667","5.916666666666667","2025-04-28 21:00:00.0"
"BRAN?OWA SZKO?A I STOPNIA NR 6 W ZABRZU W ZABRZA?SKIM CENTRUM KSZTA?CENIA OG?LNEGO I ZAWODOWEGO W ZABRZU","UL. MARSZA?KA J?ZEFA PI?SUDSKIEGO","41-800","ZABRZE","18.76296398","50.29894695","44.5","993.1583333333333","16.941666666666666","17.141666666666666","13.858333333333334","2025-04-28 21:00:00.0"
"IV LICEUM OG?LNOKSZTA?C?CE IM. MIKO?AJA REJA W ZABRZU","UL. GEN. W?ADYS?AWA ANDERSA","41-808","ZABRZE","18.795194","50.369265","53.4","989.4181818181819","15.672727272727274","5.618181818181818","4.663636363636363","2025-04-28 21:00:00.0"
"SZKO?A PODSTAWOWA NR 41 IM. W?ADYS?AWA BRONIEWSKIEGO W GLIWICACH","UL. KORMORAN?W","44-100","GLIWICE","18.6561","50.274791","40.36666666666667","992.6999999999999","17.466666666666665","6.566666666666666","5.5","2025-04-28 21:00:00.0"
"SZKO?A PODSTAWOWA NR 7 IM. ADAMA MICKIEWICZA W GLIWICACH","UL. TARNOG?RSKA","44-100","GLIWICE","18.684621","50.306626","40.80833333333333","992.6833333333334","18.025000000000002","12.625","10.416666666666666","2025-04-28 21:00:00.0"
"MIEJSKA SZKO?A PODSTAWOWA Z ODDZIA?AMI INTEGRACYJNYMI NR 2 IM. KAROLA MIARKI W KNUROWIE","UL. WILSONA","44-190","KNUR?W","18.664685","50.223275","44.43333333333334","993.5083333333333","17.150000000000002","9.258333333333333","7.841666666666666","2025-04-28 21:00:00.0"
"SZKO?A PODSTAWOWA IM. MARGARETHY KAMPRAD W JAROSTACH","UL. LE?NA","97-310","JAROSTY","19.68775849","51.45636536","44.8125","998.3874999999999","15.4625","19.9125","19.7625","2025-04-28 21:00:00.0"
"SZKO?A PODSTAWOWA IM. DR HENRYKA JORDANA W KSAWEROWIE","UL. ZACHODNIA","95-054","KSAWER?W","19.39486431","51.68227822","39.50833333333333","999.2166666666667","15.983333333333334","9.275","7.691666666666666","2025-04-28 21:00:00.0"
"BRAN?OWA SZKO?A I STOPNIA NR 1 W OPOCZNIE","UL. WOJCIECHA KOSSAKA","26-300","OPOCZNO","20.27237638","51.37764127","34.19166666666667","999.0833333333334","16.05","8.625","7.083333333333333","2025-04-28 21:00:00.0"
"SZKO?A PODSTAWOWA NR 157 IM. IGNACEGO JANA PADEREWSKIEGO W KRAKOWIE","UL. LUDWIKA RYDYGIERA","30-695","KRAK?W-PODG?RZE","20.00607","50.006338","49.40833333333333","993.9499999999999","17.375","13.924999999999999","11.516666666666667","2025-04-28 21:00:00.0"
"I LICEUM OG?LNOKSZTA?C?CE IM. J?DRZEJA ?NIADECKIEGO W PABIANICACH","UL. STANIS?AWA MONIUSZKI","95-200","PABIANICE","19.32977177","51.65677453","35.21666666666667","998.75","16.400000000000002","9.133333333333335","7.433333333333334","2025-04-28 21:00:00.0"
"SZKO?A PODSTAWOWA IM.MARII KONOPNICKIEJ W ROZTOCE","","34-606","ROZTOKA","20.4571424","49.6263815","70.25","960.0666666666666","10.441666666666666","31.383333333333336","24.458333333333332","2025-04-28 21:00:00.0"
"PUBLICZNA SZKO?A PODSTAWOWA W STOBIECKU SZLACHECKIM","","97-561","STOBIECKO SZLACHECKIE","19.38629184","51.10621326","50.48333333333333","994.6083333333332","14.424999999999999","14.033333333333333","13.9","2025-04-28 21:00:00.0"
"SZKO?A PODSTAWOWA IM. JANA PAW?A II W USTKOWIE","","98-290","USTK?W","18.600692","51.766123","45.74166666666667","1006.0666666666666","14.575000000000001","10.049999999999999","8.433333333333334","2025-04-28 21:00:00.0"
"SZKO?A PODSTAWOWA NR 60 IM. STANIS?AWA WYSPIA?SKIEGO W KRAKOWIE","UL. KAZIMIERZA ODNOWICIELA","31-481","KRAK?W-?R?DMIE?CIE","19.970521","50.088055","44.625","996.0916666666667","17.016666666666666","5.658333333333334","4.808333333333334","2025-04-28 21:00:00.0"
"SZKO?A PODSTAWOWA IM. MARSZA?KA J?ZEFA PI?SUDSKIEGO W WARTKOWICACH","UL. LEGION?W POLSKICH","99-220","WARTKOWICE","19.00434298","51.97577194","49.06666666666666","1008.5","14.391666666666666","11.491666666666667","9.633333333333335","2025-04-28 21:00:00.0"
"SZKO?A PODSTAWOWA NR 2 IM. KONSTYTUCJI 3-GO MAJA W M?CINIE","","34-654","M?CINA","20.5404381","49.7016283","56.0","965.9250000000001","12.466666666666667","10.700000000000001","9.216666666666667","2025-04-28 21:00:00.0"
"BRAN?OWA SZKO?A I STOPNIA NR 2 W GORLICACH","UL. J?ZEFA MICHALUSA","38-300","GORLICE","21.173963","49.66959","58.9","989.46","12.78","7.719999999999999","6.779999999999999","2025-04-28 21:00:00.0"
"SZKO?A PODSTAWOWA NR 2 IM HENRYKA SIENKIEWICZA W PRZYSZOWEJ","","34-604","PRZYSZOWA","20.4806341","49.6603381","76.17272727272727","967.6454545454545","9.636363636363637","12.990909090909092","12.054545454545455","2025-04-28 21:00:00.0"
"SZKO?A PODSTAWOWA NR 1 Z ODDZIA?AMI INTEGRACYJNYMI W RACIBORZU","UL. CECYLII","47-400","RACIB?RZ","18.2321525","50.0999982","43.26666666666667","999.7333333333332","18.099999999999998","6.8","5.7749999999999995","2025-04-28 21:00:00.0"
"SZKO?A PODSTAWOWA IM. BOHATER?W WESTERPLATTE W BIE?KOWICACH","UL. SZKOLNA","47-451","BIE?KOWICE","18.2107215","50.0252972","43.275","996.975","18.483333333333334","38.84166666666667","32.0","2025-04-28 21:00:00.0"
"SZKO?A PODSTAWOWA IM. ?W. STANIS?AWA KOSTKI W NOWEJ WSI SZLACHECKIEJ","UL. SZKOLNA","32-060","NOWA WIE? SZLACHECKA","19.6970908","50.026212","46.85","992.1","17.083333333333332","10.924999999999999","10.141666666666667","2025-04-28 21:00:00.0"
"SZKO?A PODSTAWOWA NR 3 IM. MARII D?BROWSKIEJ W RESZLU","UL. MARII KONOPNICKIEJ","11-440","RESZEL","21.1486175","54.052554","43.05384615384616","1008.9384615384616","13.669230769230769","14.492307692307692","11.753846153846155","2025-04-28 21:00:00.0"
"SZKO?A PODSTAWOWA NR 1 IM. MIKO?AJA KOPERNIKA W W?GORZEWIE","UL. PIONIER?W","11-600","W?GORZEWO","21.7379192","54.2136049","44.88333333333333","1006.2916666666666","14.016666666666666","17.7","14.666666666666666","2025-04-28 21:00:00.0"
"ZESP?? SZK?? GMINNYCH IM. HENRYKA SIENKIEWICZA W STANIS?AWICACH SZKO?A PODSTAWOWA W STANIS?AWICACH","","32-015","STANIS?AWICE","20.350192","49.982029","53.725","998.2583333333333","15.225","15.033333333333333","13.216666666666667","2025-04-28 21:00:00.0"
"TECHNIKUM NR 3 W ZESPOLE SZK?? NR 3 IM. KS. PROF. J?ZEFA TISCHNERA W BOCHNI","UL. KRAKOWSKA","32-700","BOCHNIA","20.421654","49.965508","50.56666666666666","995.775","15.475000000000001","5.933333333333334","4.983333333333333","2025-04-28 21:00:00.0"
"SZKO?A PODSTAWOWA NR 94 W ?ODZI","UL. ZACISZE","90-228","??D?-?R?DMIE?CIE","19.47642378","51.77789288","33.88333333333333","996.275","16.575","8.458333333333334","7.141666666666667","2025-04-28 21:00:00.0"
"SZKO?A PODSTAWOWA NR 1 IM. STEFANA ?EROMSKIEGO W ?UROMINIE","UL. WYZWOLENIA","09-300","?UROMIN","19.911175","53.071036","40.3375","1006.3125","14.65","15.7375","15.3375","2025-04-28 21:00:00.0"
"TECHNIKUM IM. WINCENTEGO WITOSA W STUDZIE?CU","","09-200","STUDZIENIEC","19.640243","52.877888","55.69166666666667","1009.975","12.450000000000001","7.558333333333334","6.541666666666667","2025-04-28 21:00:00.0"
"SZKO?A PODSTAWOWA W SYPITKACH","","19-314","SYPITKI","22.5643375","53.7876812","43.11666666666667","1005.875","11.950000000000001","3.091666666666667","2.8083333333333336","2025-04-28 21:00:00.0"
"SZKO?A PODSTAWOWA IM. TADEUSZA KO?CIUSZKI W ZBROS?AWICACH","UL. WOLNO?CI","42-674","ZBROS?AWICE","18.74511","50.415455","59.18333333333334","991.75","15.225","12.166666666666666","10.558333333333334","2025-04-28 21:00:00.0"
"SZKO?A PODSTAWOWA NR 4 Z ODDZIA?AMI SPORTOWYMI I MISTRZOSTWA SPORTOWEGO W ?ORACH","UL. BORY?SKA","44-240","?ORY","18.687221","50.039349","32.6","988.7083333333334","18.758333333333333","5.733333333333333","5.066666666666666","2025-04-28 21:00:00.0"
"SZKO?A PODSTAWOWA NR 10 IM. MARII SK?ODOWSKIEJ-CURIE W ZDU?SKIEJ WOLI","UL. ZIELONA","98-220","ZDU?SKA WOLA","18.95037552","51.60020179","41.725","1000.6750000000001","15.058333333333332","8.908333333333333","7.366666666666667","2025-04-28 21:00:00.0"
"SZKO?A PODSTAWOWA NR 4 IM.FRANCISZKA STUSKA W ORZESZU JA?KOWICACH","UL. STUSKA","43-180","ORZESZE","18.746978","50.145788","58.19166666666666","989.3000000000001","15.058333333333332","11.408333333333333","11.258333333333333","2025-04-28 21:00:00.0"
"SZKO?A PODSTAWOWA NR 2 IM. JANA WYPLERA W RUDZIE ?L?SKIEJ","UL. GWARECKA","41-705","RUDA ?L?SKA","18.89349369757705","50.267719400613906 ","43.416666666666664","993.8416666666667","17.308333333333334","14.691666666666665","13.266666666666666","2025-04-28 21:00:00.0"
"IV LICEUM OG?LNOKSZTA?C?CE IM. ORL?T LWOWSKICH W GLIWICACH","UL. KOZIELSKA","44-100","GLIWICE","18.654651","50.298038","44.09090909090909","995.5454545454545","17.28181818181818","11.736363636363636","9.427272727272728","2025-04-28 21:00:00.0"
"SZKO?A PODSTAWOWA NR 3 I. BOHATER?W POWSTANIA WARSZAWSKIEGO Z ODDZIA?AMI INTEGRACYJNYMI W PIASTOWIE","UL. ALEJA TYSI?CLECIA","05-820","PIAST?W","20.841563186509138","52.178313490439706","42.725","1011.7916666666666","14.216666666666667","10.941666666666668","9.716666666666667","2025-04-28 21:00:00.0"
"SZKO?A PODSTAWOWA NR 16 IM. JANUSZA KORCZAKA W RUDZIE ?L?SKIEJ","UL. KUKU?CZA","41-710","RUDA ?L?SKA","18.88033","50.268433","43.13333333333333","991.5166666666668","17.224999999999998","21.924999999999997","17.775","2025-04-28 21:00:00.0"
"SZKO?A PODSTAWOWA IM.STEFANA CZARNIECKIEGO W RAC?AWICACH","","38-323","RAC?AWICE","21.127689745801828","50.06979323518478","54.85","987.725","13.308333333333332","8.008333333333333","7.325","2025-04-28 21:00:00.0"
"SZKO?A PODSTAWOWA IM. W?ADYS?AWA BRONIEWSKIEGO W SZCZEJKOWICACH","UL. WIEJSKA","44-246","SZCZEJKOWICE","18.679024","50.095496","50.88333333333333","989.9","15.333333333333334","7.8999999999999995","7.433333333333334","2025-04-28 21:00:00.0"
"SZKO?A PODSTAWOWA IM. FRANCISZKA RDUCHA W BE?KU","UL. SZYMOCHY","44-237","BE?K","18.712687","50.134061","68.27499999999999","991.6833333333334","13.975","4.641666666666667","3.9250000000000003","2025-04-28 21:00:00.0"
"SZKO?A PODSTAWOWA W ZBICZNIE","","87-305","ZBICZNO","19.374579","53.3339494","34.03333333333333","1012.4166666666666","17.066666666666666","16.849999999999998","12.1","2025-04-28 21:00:00.0"
"SZKO?A PODSTAWOWA W PONIATOWIE","UL. SZKOLNA","09-300","PONIATOWO","19.864252","53.041259","45.77272727272727","1006.6","13.19090909090909","22.327272727272728","18.59090909090909","2025-04-28 21:00:00.0"
"SZKO?A PODSTAWOWA IM. ZIEMI WARMI?SKIEJ W PIENI??NIE","UL. ORNECKA","14-520","PIENI??NO","20.1287545","54.2359313","50.583333333333336","1010.6916666666667","12.008333333333333","7.783333333333334","6.6000000000000005","2025-04-28 21:00:00.0"
"SZKO?A PODSTAWOWA NR 5 IM. POLSKICH OLIMPIJCZYK?W W ?WIECIU","UL. WOJSKA POLSKIEGO","86-105","?WIECIE","18.404523109363243","53.4022885304552","39.083333333333336","1018.1","15.991666666666667","7.2","6.066666666666666","2025-04-28 21:00:00.0"
"TECHNIKUM NR 2 W K?TRZYNIE","UL. POZNA?SKA","11-400","K?TRZYN","21.3575617","54.0772049","47.78333333333333","1013.1999999999999","11.166666666666666","17.266666666666666","14.066666666666665","2025-04-28 21:00:00.0"
"I LICEUM OG?LNOKSZTA?C?CE IM. WOJCIECHA K?TRZY?SKIEGO W K?TRZYNIE","UL. POWSTA?C?W WARSZAWY","11-400","K?TRZYN","21.3725281","54.0774004","37.483333333333334","1008.375","14.208333333333334","20.650000000000002","16.641666666666666","2025-04-28 21:00:00.0"
"SZKO?A PODSTAWOWA NR 3 IM. HENRYKA SIENKIEWICZA W E?KU","UL. GRODZIE?SKA","19-300","E?K","22.3468805","53.832444","38.38333333333333","1003.9916666666667","13.041666666666666","4.208333333333333","3.75","2025-04-28 21:00:00.0"
"SZKO?A PODSTAWOWA NR 13 Z ODDZIA?AMI SPORTOWYMI I MISTRZOSTWA SPORTOWEGO IM. POLSKICH OLIMPIJCZYK?W W ?ORACH","OS. OSIEDLE PAWLIKOWSKIEGO","44-240","?ORY","18.68289226","50.03250482","37.4","988.925","17.9","7.475","6.275","2025-04-28 21:00:00.0"
"PRYWATNA SZKO?A PODSTAWOWA W KRAKOWIE","UL. PODG?RKI TYNIECKIE","30-398","KRAK?W-PODG?RZE","19.84421916","50.01213341","57.65555555555555","996.0444444444444","14.233333333333333","4.655555555555555","4.077777777777778","2025-04-28 21:00:00.0"
"PUBLICZNA SZKO?A PODSTAWOWA W D?UGOWOLI","","27-300","D?UGOWOLA PIERWSZA","21.621011","51.096311","56.18181818181818","1030.2","13.445454545454545","8.209090909090909","6.7272727272727275","2025-04-28 21:00:00.0"
"PUBLICZNA SZKO?A PODSTAWOWA IM KARDYNA?A STEFANA WYSZY?SKIEGO W G?OSKOWIE","","08-412","G?OSK?W","21.693825","51.932915","39.07272727272727","1004.4454545454545","12.954545454545455","22.745454545454546","19.118181818181817","2025-04-28 21:00:00.0"
"SZKO?A PODSTAWOWA NR 5 IM I. J. PADEREWSKIEGO W PRUSZKOWIE","UL. JANA D?UGOSZA","05-804","PRUSZK?W","20.815629142327243","52.18859558069476","37.5","1010.4833333333332","14.383333333333333","5.841666666666666","5.158333333333333","2025-04-28 21:00:00.0"
"SZKO?A PODSTAWOWA IM. HENRYKA SIENKIEWICZA W STARYM K?B?OWIE","","08-430","STARY K?B??W","21.862929","51.791451","52.30833333333334","1001.8333333333334","12.4","8.466666666666667","7.3","2025-04-28 21:00:00.0"
"TECHNIKUM W ?ELECHOWIE","UL. MARSZA?KA J?ZEFA PI?SUDSKIEGO","08-430","?ELECH?W","21.898786","51.812356","43.94166666666666","1001.625","13.166666666666666","15.608333333333334","13.191666666666668","2025-04-28 21:00:00.0"
"SZKO?A PODSTAWOWA W ZESPOLE SZK?? OG?LNOKSZTA?C?CYCH W MAZOWIECKIM CENTRUM NEUROPSYCHIATRII W J?ZEFOWIE ","UL. 3 MAJA","05-420","J?ZEF?W","21.234656","52.128054","43.30833333333334","1010.625","14.166666666666666","9.333333333333334","8.1","2025-04-28 21:00:00.0"
"II LICEUM OG?LNOKSZTA?C?CE IM. GEN. GUSTAWA ORLICZ-DRESZERA W CHE?MIE","UL. SZPITALNA","22-100","CHE?M","23.45593021","51.14267385","44.49166666666667","999.9499999999999","14.608333333333334","68.50833333333334","56.25833333333333","2025-04-28 21:00:00.0"
"SZKO?A PODSTAWOWA IM.J.CHE?MO?SKIEGO W KUKL?WCE RADZIEJOWICKIEJ","UL. SZKOLNA","96-325","KUKL?WKA RADZIEJOWICKA","20.59054414","52.04408065","59.525","1009.6416666666668","12.141666666666666","21.483333333333334","17.983333333333334","2025-04-28 21:00:00.0"
"SZKO?A PODSTAWOWA NR 3 IM. OR?A BIA?EGO W CIECHANOWIE","UL. POWSTA?C?W WIELKOPOLSKICH","06-400","CIECHAN?W","20.631842155818422","52.882394549980845","37.233333333333334","1006.6666666666666","15.283333333333333","10.758333333333333","9.283333333333333","2025-04-28 21:00:00.0"
"SALEZJA?SKA SZKO?A PODSTAWOWA Z ODDZIA?AMI INTEGRACYJNYMI W SALEZJA?SKIM O?RODKU SZKOLNO-WYCHOWAWCZYM W TARNOWSKICH G?RACH","UL. JANA ?NIADECKIEGO","42-604","TARNOWSKIE G?RY","18.80622755","50.43256357","50.61666666666667","975.2583333333333","15.6","7.291666666666667","6.3500000000000005","2025-04-28 21:00:00.0"
"SZKO?A PODSTAWOWA NR 1 IM PIERWSZEGO MARSZA?KA POLSKI J?ZEFA PI?SUDSKIEGO W SULEJ?WKU","UL. IDZIKOWSKIEGO","05-070","SULEJ?WEK","21.26694575396344","52.24433487687851","37.825","1009.3","15.575","11.575","9.825","2025-04-28 21:00:00.0"
"NIEPUBLICZNA INTEGRACYJNA SZKO?A PODSTAWOWA W MYSIADLE","UL. KR?TKA","05-515","MYSIAD?O","21.005366","52.099954","47.574999999999996","1011.0666666666666","13.833333333333334","12.558333333333332","10.666666666666666","2025-04-28 21:00:00.0"
"PUBLICZNA SZKO?A PODSTAWOWA IM. JANUSZA KORCZAKA W GO?DZIE","UL. STAROWIEJSKA","26-634","G?ZD","21.378914500000004","51.376315985021016","46.60833333333333","1000.7333333333332","13.766666666666666","50.60833333333333","41.34166666666667","2025-04-28 21:00:00.0"
"SZKO?A PODSTAWOWA NR 4 IM. JANA PAW?A II, Z ODDZIA?AMI PRZEDSZKOLNYMI I ODDZIA?AMI SPORTOWYMI W PRUSZKOWIE ","UL. HUBALA","05-800","PRUSZK?W","20.81122021534552","52.16432045510862","44.38333333333333","1012.6083333333335","13.958333333333334","10.308333333333334","8.858333333333333","2025-04-28 21:00:00.0"
"SZKO?A PODSTAWOWA W OTWOCKU WIELKIM","UL. ZAMKOWA","05-480","OTWOCK WIELKI","21.249772","52.054498","39.56666666666667","1010.9250000000001","12.866666666666667","6.25","5.45","2025-04-28 21:00:00.0"
"NIEPUBLICZNA SZKO?A PODSTAWOWA WIELICZKA MONTESSORI SCHOOL W WIELICKIEJ SZKOLE MONTESSORI","UL. JANA MIKO?AJA DANI?OWICZA","32-020","WIELICZKA","20.05646002","49.98203058","44.333333333333336","991.725","16.474999999999998","6.641666666666667","6.625","2025-04-28 21:00:00.0"
"PUBLICZNA SZKO?A PODSTAWOWA W OBRAZOWIE","","27-641","OBRAZ?W","21.657963199999998","50.69068702480904","33.18333333333333","997.3333333333334","15.566666666666668","28.575","23.46666666666667","2025-04-28 21:00:00.0"
"SZKO?A PODSTAWOWA W BRZOZOWIE","UL. MIODOWA","86-200","BRZOZOWO","18.4238755","53.314175","41.083333333333336","1010.4","14.558333333333332","11.9","9.066666666666666","2025-04-28 21:00:00.0"
"SZKO?A PODSTAWOWA NR 199 IM. JULIANA TUWIMA W ?ODZI","UL. J?ZEFA ELSNERA","92-504","??D?-WIDZEW","19.531114643683964","51.75675184434886 ","41.96666666666667","996.525","14.275","15.025","12.450000000000001","2025-04-28 21:00:00.0"
"SZKO?A PODSTAWOWA IM. KS. KARD. STEFANA WYSZY?SKIEGO W BORZYMINIE","","87-500","BORZYMIN","19.3345342","53.0561291","33.733333333333334","1005.9916666666667","15.791666666666666","16.55","13.758333333333333","2025-04-28 21:00:00.0"
"SZKO?A PODSTAWOWA IM. TADEUSZA KO?CIUSZKI W ??TOWICACH","","33-121","??TOWICE","20.845262","49.994632","55.58","1001.03","14.330000000000002","27.26","23.7","2025-04-28 21:00:00.0"
"SZKO?A PODSTAWOWA IM. PIOTRA ?CIEGIENNEGO W B?CZKOWIE","UL. JANA PAW?A II","26-008","B?CZK?W","20.80287618","50.87879103","58.06666666666666","987.7000000000002","11.858333333333334","10.041666666666666","8.691666666666666","2025-04-28 21:00:00.0"
"SZKO?A PODSTAWOWA IM.KSI?CIA KARDYNA?A ADAMA STEFANA SAPIEHY W BYSINIE","","32-400","BYSINA","19.8876673","49.8279242","68.31666666666666","978.6916666666666","12.133333333333333","6.258333333333333","5.658333333333334","2025-04-28 21:00:00.0"
"SZKO?A PODSTAWOWA IM. JANA KOCHANOWSKIEGO W B?CZARCE","","32-444","B?CZARKA","19.8615647","49.8750803","63.53333333333333","983.375","13.358333333333334","15.141666666666666","13.483333333333334","2025-04-28 21:00:00.0"
"TECHNIKUM W NAKLE ?L?SKIM","UL. GUSTAWA MORCINKA","42-620","NAK?O ?L?SKIE","18.899961","50.436198","54.86666666666667","988.3249999999999","14.325000000000001","17.45","15.933333333333335","2025-04-28 21:00:00.0"
"ZESP?? SZK?? OG?LNOKSZTA?C?CYCH NR 5 - IV LICEUM OG?LNOKSZTA?C?CE Z ODDZIA?AMI MISTRZOSTWA SPORTOWEGO IM. MARYNARZY WOJSK OCHRONY POGRANICZA W GDA?SKU","UL. NA ZASP?","80-546","GDA?SK","18.662468","54.402127","52.37692307692308","1021.0230769230768","13.569230769230769","8.192307692307692","7.184615384615385","2025-04-28 21:00:00.0"
"SZKO?A PODSTAWOWA IM. JANA DUNIN-BRZEZI?SKIEGO W DROGINI ","","32-400","DROGINIA","20.008008","49.8469429","64.95833333333333","989.1166666666667","13.941666666666668","21.53333333333333","19.116666666666667","2025-04-28 21:00:00.0"
"SZKO?A PODSTAWOWA NR 8 IM. KRZYSZTOFA KAMILA BACZY?SKIEGO W TARNOWIE","UL. BITWY POD STUDZIANKAMI","33-100","TARN?W","21.00415196","50.01968672","44.31666666666666","995.275","15.391666666666666","9.641666666666667","8.299999999999999","2025-04-28 21:00:00.0"
"SZKO?A PODSTAWOWA IM.TADEUSZA KO?CIUSZKI W G?OGOCZOWIE","","32-444","G?OGOCZ?W","19.8764713","49.8949648","63.07777777777778","993.2222222222222","14.533333333333335","7.322222222222223","6.044444444444444","2025-04-28 21:00:00.0"
"SZKO?A PODSTAWOWA IM. POWSTA?C?W STYCZNIOWYCH W DWIKOZACH","UL. SP??DZIELCZA","27-620","DWIKOZY","21.78213112698172","50.737630724889875","59.38333333333333","1004.2833333333333","11.408333333333333","6.008333333333333","5.116666666666666","2025-04-28 21:00:00.0"
"SZKO?A PODSTAWOWA IM JANA KOCHANOWSKIEGO W RACIECHOWICACH","","32-415","RACIECHOWICE","20.1425376","49.8447436","52.25","986.2833333333333","15.233333333333334","15.191666666666665","13.441666666666668","2025-04-28 21:00:00.0"
"SZKO?A PODSTAWOWA IM. 100-LECIA RUCHU LUDOWEGO W WIERZCHOS?AWICACH","","33-122","WIERZCHOS?AWICE","20.8578193","50.02129351","53.25","999.3","14.35","10.0","8.65","2025-04-28 21:00:00.0"
"SZKO?A PODSTAWOWA NR 2 IM. 12 PU?KU PIECHOTY W SPYTKOWICACH","","34-745","SPYTKOWICE","19.8620555","49.5891356","54.21818181818182","963.1","15.036363636363637","18.89090909090909","16.136363636363637","2025-04-28 21:00:00.0"
"NIEPUBLICZNA SZKO?A PODSTAWOWA MONTESSORI W WIELICZCE","UL. JASNA","32-020","WIELICZKA","20.04131557116481","49.98142573025661","56.18333333333334","993.775","13.725","8.141666666666667","6.75","2025-04-28 21:00:00.0"
"TECHNIKUM IM. KAROLA WOJTY?Y W SU?KOWICACH","UL. SZKOLNA","32-440","SU?KOWICE","19.79959","49.83879","61.041666666666664","989.3916666666668","14.299999999999999","21.083333333333332","19.241666666666667","2025-04-28 21:00:00.0"
"SZKO?A PODSTAWOWA NR 1 IM. ADAMA MICKIEWICZA W KRZESZOWICACH","UL. D?UGA","32-065","KRZESZOWICE","19.63231","50.14192","47.00833333333333","990.0833333333334","16.425","11.266666666666666","10.924999999999999","2025-04-28 21:00:00.0"
"SZKO?A PODSTAWOWA IM. KSI?CIA J?ZEFA PONIATOWSKIEGO W MNIKOWIE","","32-084","MNIK?W","19.7203981","50.0603945","68.18333333333334","994.5749999999999","12.983333333333334","43.291666666666664","36.800000000000004","2025-04-28 21:00:00.0"
"RZEMIE?LNICZA BRAN?OWA SZKO?A I STOPNIA W TARNOWIE","PL. DWORCOWY","33-100","TARN?W","20.97230288","50.00592873","40.074999999999996","998.1166666666667","17.075","6.908333333333334","6.033333333333334","2025-04-28 21:00:00.0"
"PUBLICZNA SZKO?A PODSTAWOWA NR4 IM. EUGENIUSZA KWIATKOWSKIEGO W STALOWEJ WOLI","UL. NIEZ?OMNYCH","37-450","STALOWA WOLA","22.049257","50.566117","42.108333333333334","1002.9916666666667","14.133333333333333","5.7","4.7250000000000005","2025-04-28 21:00:00.0"
"PUBLICZNA SZKO?A PODSTAWOWA IM. 100. ROCZNICY ODZYSKANIA NIEPODLEG?O?CI PRZEZ POLSK? W KORZECKU","","26-060","KORZECKO","20.40868672","50.80193767","60.26363636363636","992.7818181818183","12.154545454545454","57.85454545454545","45.081818181818186","2025-04-28 21:00:00.0"
"SZKO?A PODSTAWOWA IM. GENERA?A STANIS?AWA MACZKA W BLI?YNIE","UL. PIASKOWA","26-120","BLI?YN","20.7611656","51.10539138","54.18333333333334","990.3833333333333","12.983333333333334","10.924999999999999","8.841666666666667","2025-04-28 21:00:00.0"
"SZKO?A PODSTAWOWA W OKSIE","UL. PL. M. REJA","28-363","OKSA","20.10227008","50.72821359","49.94166666666666","991.6416666666668","15.725","64.90833333333333","54.69166666666666","2025-04-28 21:00:00.0"
"III LICEUM OG?LNOKSZTA?C?CE W ZESPOLE SZK?? NR 1 W PSZCZYNIE ","UL. KAZIMIERZA WIELKIEGO","43-200","PSZCZYNA","18.945466","49.965741","47.93333333333334","991.525","17.241666666666667","6.0","5.0","2025-04-28 21:00:00.0"
"SZKO?A PODSTAWOWA W JELENIOWIE","","26-006","JELENI?W","21.116233057672765","50.844493249563236","52.9","986.8833333333333","11.700000000000001","5.233333333333333","4.666666666666667","2025-04-28 21:00:00.0"
"SZKO?A PODSTAWOWA NR 4 W SKAR?YSKU-KAMIENNEJ","UL. KSI???CA","26-110","SKAR?YSKO-KAMIENNA","20.875901311108976","51.1416602921439 ","50.51111111111111","993.1444444444446","12.011111111111111","10.933333333333332","8.566666666666666","2025-04-28 21:00:00.0"
"SPO?ECZNA SZKO?A PODSTAWOWA NR 1 IM. KS.PROF. J?ZEFA TISCHNERA W TARNOWIE","UL. GUMNISKA","33-100","TARN?W","21.00131621","50.00814381","50.65","997.95","14.65","10.01","8.709999999999999","2025-04-28 21:00:00.0"
"SZKO?A PODSTAWOWA W ZAWIDZU KO?CIELNYM","UL. MAZOWIECKA","09-226","ZAWIDZ KO?CIELNY","19.870229928959297","52.82718910632357","37.67","1006.95","14.26","14.0","12.1","2025-04-28 21:00:00.0"
"TECHNIKUM W RACI??U","UL. KILI?SKIEGO","09-140","RACI??","20.127731","52.778712","38.65","1009.0","14.1","28.575","24.275000000000002","2025-04-28 21:00:00.0"
"PUBLICZNA SZKO?A PODSTAWOWA IM.HENRYKA SIENKIEWICZA W MY?LISZEWICACH","","26-630","MY?LISZEWICE","21.290531299999998","51.413341302261024","48.03333333333333","1004.3083333333334","13.258333333333333","50.11666666666667","50.583333333333336","2025-04-28 21:00:00.0"
"SZKO?A PODSTAWOWA NR 6 IM. DRA W?ADYS?AWA G?BIKA Z ODDZIA?AMI INTEGRACYJNYMI W KWIDZYNIE","UL. GRUNWALDZKA","82-500","KWIDZYN","18.932667","53.723949","30.666666666666668","1012.9583333333334","17.224999999999998","7.4750000000000005","6.8","2025-04-28 21:00:00.0"
"SZKO?A PODSTAWOWA W BRZE?CIU","","28-400","BRZE?CIE","20.54586641","50.5470206","59.275","997.5583333333334","13.4","7.708333333333333","6.841666666666666","2025-04-28 21:00:00.0"
"SZKO?A PODSTAWOWA W LUBOWIDZU","UL. JANA PAW?A II","09-304","LUBOWIDZ","19.842984","53.120566","48.675000000000004","1007.1416666666668","12.458333333333334","56.800000000000004","45.333333333333336","2025-04-28 21:00:00.0"
"KATOLICKA SZKO?A PODSTAWOWA MONTESSORI W KRAKOWIE","UL. KS. STEFANA PAWLICKIEGO","30-320","KRAK?W-PODG?RZE","19.917813","50.043104","46.425000000000004","998.0833333333334","17.016666666666666","5.216666666666667","4.366666666666666","2025-04-28 21:00:00.0"
"SZKO?A PODSTAWOWA NR 2 IM. JANA PAW?A II W GORZYCACH","UL. EDUKACJI NARODOWEJ","39-432","GORZYCE","21.83097317","50.67218435","43.60833333333333","1006.9416666666666","14.275","13.683333333333332","12.541666666666666","2025-04-28 21:00:00.0"
"TECHNIKUM NR 2 W CZ?STOCHOWIE","UL. WARSZAWSKA","42-200","CZ?STOCHOWA","19.1485028","50.7931394","44.166666666666664","992.9583333333334","16.191666666666666","11.583333333333334","9.658333333333333","2025-04-28 21:00:00.0"
"SZKO?A PODSTAWOWA IM. OR?A BIA?EGO W SZCZYTNEJ","UL. KO?CIELNA","57-330","SZCZYTNA","16.44633002","50.41610314","56.375","967.3166666666666","15.575000000000001","22.116666666666664","18.208333333333332","2025-04-28 21:00:00.0"
"PUBLICZNA SZKO?A PODSTAWOWA IM. JANA KOCHANOWSKIEGO W W?JCICACH","UL. G??WNA","55-220","W?JCICE","17.2122623","50.4609086","49.82","1005.57","14.190000000000001","4.74","4.15","2025-04-28 21:00:00.0"
"PUBLICZNA SZKO?A PODSTAWOWA W BIERZWNICY","","78-324","BIERZWNICA","15.9112181","53.7221891","53.76666666666667","1005.7916666666666","14.333333333333334","13.575000000000001","11.191666666666668","2025-04-28 21:00:00.0"
"I LICEUM OG?LNOKSZTA?C?CE IM. BOLES?AWA CHROBREGO W K?ODZKU","UL. WOJSKA POLSKIEGO","57-300","K?ODZKO","16.651149","50.4373","42.455555555555556","986.7666666666667","18.37777777777778","26.233333333333334","22.53333333333333","2025-04-28 21:00:00.0"
"SZKO?A PODSTAWOWA W BIENIOWICACH","","59-216","BIENIOWICE","16.256564","51.258614","46.166666666666664","1009.15","16.708333333333332","7.608333333333333","6.5","2025-04-28 21:00:00.0"
"SZKO?A PODSTAWOWA IM. ?W. JADWIGI ?L?SKIEJ W ?ERNIKACH WROC?AWSKICH","UL. KOLEJOWA","55-010","?ERNIKI WROC?AWSKIE","17.0609105","51.0305737","47.25833333333333","1006.8083333333334","15.391666666666666","7.7250000000000005","6.508333333333333","2025-04-28 21:00:00.0"
"SZKO?A PODSTAWOWA NR 4 Z ODDZIA?AMI INTEGRACYJNYMI W BIELAWIE","UL. LUDWIKA WARY?SKIEGO","58-260","BIELAWA","16.6008348","50.6662832","58.6","978.4375","13.4375","12.075","9.85","2025-04-28 21:00:00.0"
"SZKO?A PODSTAWOWA IM. JANA PAW?A II W GRODZISZCZU","","58-112","GRODZISZCZE","16.560664","50.798212","63.38333333333333","994.0583333333334","13.766666666666666","11.883333333333333","10.1","2025-04-28 21:00:00.0"
"LICEUM OG?LNOKSZTA?C?CE W ?RODZIE ?L?SKIEJ","UL. WROC?AWSKA","55-300","?RODA ?L?SKA","16.5994053","51.158652","46.10833333333333","1006.2916666666666","16.375","5.508333333333333","5.4750000000000005","2025-04-28 21:00:00.0"
"BRAN?OWA SZKO?A I STOPNIA NR 6 W ZESPOLE SZK?? PRZEMYS?U SPO?YWCZEGO IM. POWSTA?C?W WIELKOPOLSKICH W ?ODZI","UL. FRANCISZKA?SKA","91-845","??D?-BA?UTY","19.421884","51.7848081","36.391666666666666","996.8833333333333","15.75","13.225","10.841666666666667","2025-04-28 21:00:00.0"
"TECHNIKUM NR 1 W ZESPOLE SZK?? NR 1 IM. STANIS?AWA STASZICA W BOCHNI","UL. EDWARDA WINDAKIEWICZA","32-700","BOCHNIA","20.416325","49.966639","47.78333333333333","993.4","15.674999999999999","6.141666666666667","5.3999999999999995","2025-04-28 21:00:00.0"
"SZKO?A PODSTAWOWA IM. JANA PAW?A II W ?ASZEWIE","","09-135","?ASZEWO","20.090492","52.858682","36.61666666666667","1005.2333333333332","13.883333333333333","7.483333333333333","6.433333333333334","2025-04-28 21:00:00.0"
"SZKO?A PODSTAWOWA IM. MARII KONOPNICKIEJ W LIPINACH","","92-701","LIPINY","19.67220915","51.80665653","56.458333333333336","994.6416666666668","12.625","14.125","11.700000000000001","2025-04-28 21:00:00.0"
"I LICEUM OG?LNOKSZTA?C?CE IM. MARCINA KROMERA W GORLICACH","UL. MARCINA KROMERA","38-300","GORLICE","21.155748","49.659518","48.15833333333333","986.9499999999999","15.633333333333333","16.508333333333333","14.35","2025-04-28 21:00:00.0"
"SZKO?A PODSTAWOWA IM. IGNACEGO ?UKASIEWICZA W KOBYLANCE","","38-303","KOBYLANKA","21.222151","49.669007","57.15833333333333","988.9083333333333","13.783333333333333","14.991666666666667","12.508333333333333","2025-04-28 21:00:00.0"
"SZKO?A PODSTAWOWA IM.?WI?TEJ KINGI W KORCZYNIE","","38-340","KORCZYNA","21.255204","49.702509","39.166666666666664","985.0166666666668","15.933333333333332","6.516666666666667","5.733333333333333","2025-04-28 21:00:00.0"
"TECHNIKUM W GO?OTCZY?NIE","UL. CIECHANOWSKA","06-430","GO?OTCZYZNA","20.68880627301113","52.79264333773238","44.85454545454545","1008.3363636363637","13.772727272727273","33.981818181818184","28.60909090909091","2025-04-28 21:00:00.0"
"SZKO?A PODSTAWOWA IM. W?ADYS?AWA J??WICKIEGO W G?RZNIE ","UL. D?UGA","08-404","G?RZNO","21.705990699999997","51.84700102762625","42.141666666666666","1003.025","14.125","23.208333333333332","18.991666666666667","2025-04-28 21:00:00.0"
"SZKO?A PODSTAWOWA W RADZIKACH DU?YCH","","87-337","RADZIKI DU?E","19.278172","53.1659113","41.208333333333336","1008.8916666666668","13.608333333333334","43.225","40.300000000000004","2025-04-28 21:00:00.0"
"SZKO?A PODSTAWOWA NR 2 Z ODDZIA?AMI INTEGRACYJNYMI IM. ?O?NIERZY A.K. II REJONU CELK?W W MARKACH","UL. SZKOLNA","05-270","MARKI","	21.103744271164814","52.31729535665526","39.35","1011.5","15.3","12.475","10.525","2025-04-28 21:00:00.0"
"SZKO?A PODSTAWOWA IM.?W.JANA PAW?A II W ZAWADACH","UL. KO?CIUSZKI","16-075","ZAWADY","22.66793745","53.15651651","42.9076923076923","1010.9769230769232","11.73076923076923","31.27692307692308","28.015384615384615","2025-04-28 21:00:00.0"
"SZKO?A PODSTAWOWA NR 2 IM. KR?LOWEJ JADWIGI W CZECHOWICACH-DZIEDZICACH","UL. W?GLOWA","43-502","CZECHOWICE-DZIEDZICE","19.0071238","49.9283149","47.041666666666664","992.1166666666667","17.349999999999998","12.416666666666666","10.258333333333333","2025-04-28 21:00:00.0"
"PUBLICZNA SZKO?A PODSTAWOWA NR 1 Z ODDZIA?AMI DWUJ?ZYCZNYMI W MOGIELNICY","UL. NOWOMIEJSKA","05-640","MOGIELNICA","20.72027","51.6909326","50.21666666666667","1004.2916666666666","12.483333333333334","9.258333333333333","7.841666666666666","2025-04-28 21:00:00.0"
"SZKO?A PODSTAWOWA IM. STANIS?AWA LUBOMIRSKIEGO W NOWYM WI?NICZU","UL. SZKOLNA","32-720","NOWY WI?NICZ","20.464022","49.911873","62.75833333333333","991.1166666666667","12.725","5.341666666666666","5.016666666666667","2025-04-28 21:00:00.0"
"SZKO?A PODSTAWOWA NR 29 IM. TADEUSZA KO?CIUSZKI W RZESZOWIE","UL. PARTYZANT?W","35-234","RZESZ?W","22.00675633","50.04931405","38.233333333333334","998.1416666666668","15.775","5.991666666666667","4.808333333333334","2025-04-28 21:00:00.0"
"PUBLICZNA SZKO?A PODSTAWOWA IM.T. KO?CIUSZKI W G?OWACZOWIE","UL. WARECKA","26-903","G?OWACZ?W","21.3187284","51.6220175","41.63333333333333","1006.8333333333334","14.200000000000001","44.416666666666664","34.96666666666667","2025-04-28 21:00:00.0"
"SZKO?A PODSTAWOWA SPECJALNA NR 150 W KRAKOWIE","AL. ALEJA ADOLFA DYGASI?SKIEGO","30-820","KRAK?W-PODG?RZE","19.98983357116481","50.02147308570759","50.3","997.0","15.8","6.6","5.5","2025-04-28 21:00:00.0"
"PUBLICZNA SZKO?A PODSTAWOWA IM. J?ZEFA BRANDTA W ORO?SKU","UL. SZKOLNA","26-505","ORO?SKO","20.98980054","51.315665","47.31666666666666","999.7416666666667","13.549999999999999","16.458333333333332","13.466666666666667","2025-04-28 21:00:00.0"
"PUBLICZNA SZKO?A PODSTAWOWA IM. BATALION?W CH?OPSKICH W KLECZANOWIE","","27-641","KLECZAN?W","21.57103098","50.71737244","41.25","992.4416666666666","13.008333333333333","5.316666666666666","4.741666666666666","2025-04-28 21:00:00.0"
"SZKO?A PODSTAWOWA IM. BOHATER?W WESTERPLATTE W ??KAWICY","","33-156","??KAWICA","19.6059700","49.8417200","61.36666666666667","993.375","12.883333333333333","8.525","7.358333333333333","2025-04-28 21:00:00.0"
"SZKO?A PODSTAWOWA W STAROCH?CINACH","","26-060","STAROCH?CINY","20.48081695","50.77685204","63.35","994.7833333333333","12.216666666666667","11.533333333333333","9.841666666666667","2025-04-28 21:00:00.0"
"SZKO?A PODSTAWOWA NR 6 IM. KS. JANA TWARDOWSKIEGO W PSZCZYNIE","UL. KSI??YCOWA","43-200","PSZCZYNA","18.936162","49.965097","53.96666666666667","994.1999999999999","16.141666666666666","5.783333333333334","5.191666666666667","2025-04-28 21:00:00.0"
"SZKO?A PODSTAWOWA IM.KAZIMIERZA PU?ASKIEGO W JADAMWOLI","","34-606","JADAMWOLA","20.51122243","49.58092142","60.074999999999996","974.2416666666667","13.225","18.208333333333332","15.816666666666668","2025-04-28 21:00:00.0"
"SZKO?A PODSTAWOWA NR 2 IM. MARII KONOPNICKIEJ W ?YRARDOWIE","UL. GABRIELA NARUTOWICZA","96-300","?YRARD?W","20.43801027","52.05842119","34.641666666666666","1008.5166666666668","16.733333333333334","47.48333333333333","43.06666666666666","2025-04-28 21:00:00.0"
"I LICEUM OG?LNOKSZTA?C?CE IM. ZYGMUNTA KRASI?SKIEGO W CIECHANOWIE","UL. 17 STYCZNIA","06-400","CIECHAN?W","20.59878057","52.88501004","32.21666666666667","1006.725","16.083333333333332","15.549999999999999","13.791666666666666","2025-04-28 21:00:00.0"
"SZKO?A PODSTAWOWA W ?UKOWEJ","","26-060","?UKOWA","20.53811566","50.72732867","56.625","991.5916666666667","13.766666666666666","27.058333333333334","22.866666666666664","2025-04-28 21:00:00.0"
"SZKO?A PODSTAWOWA W WOLI KORYCKIEJ G?RNEJ","","08-455","WOLA KORYCKA G?RNA","	21.754932828835187","51.73577039586474","57.175000000000004","1003.3083333333333","11.4","6.2749999999999995","5.358333333333333","2025-04-28 21:00:00.0"
"SZKO?A PODSTAWOWA W WOLICY","UL. SZKOLNA","26-060","WOLICA","20.47387736","50.75410087","55.03636363636363","994.3181818181819","14.02727272727273","11.818181818181818","10.054545454545455","2025-04-28 21:00:00.0"
"SZKO?A PODSTAWOWA IM. JANA PAW?A II W ZBUCZYNIE","UL. JANA PAW?A II","08-106","ZBUCZYN","22.44061361","52.08688669","39.7","1002.54","13.959999999999999","16.919999999999998","14.48","2025-04-28 21:00:00.0"
"TECHNIKUM NR 2 IM. EUGENIUSZA KWIATKOWSKIEGO W STARACHOWICACH","UL. 1 MAJA","27-200","STARACHOWICE","21.06313317","51.05452968","40.69166666666667","991.8249999999999","15.424999999999999","8.275","7.3500000000000005","2025-04-28 21:00:00.0"
"PUBLICZNA SZKO?A PODSTAWOWA IM. JANA KOCHANOWSKIEGO W POLANACH","","26-680","POLANY","21.11465600","51.22610000","41.983333333333334","997.6916666666666","13.466666666666667","4.25","4.2250000000000005","2025-04-28 21:00:00.0"
"SZKO?A PODSTAWOWA W ZBELUTCE","","26-025","ZBELUTKA-STARA WIE?","21.0993345","50.7310922","39.574999999999996","979.6833333333334","14.791666666666666","6.1000000000000005","5.125","2025-04-28 21:00:00.0"
"SZKO?A PODSTAWOWA IM. STEFANA KARDYNA?A WYSZY?SKIEGO W PIERZCHNICY ","UL. KARDYNA?A STEFANA WYSZY?SKIEGO","26-015","PIERZCHNICA","20.74729757","50.6959636","57.90833333333333","988.5333333333333","13.391666666666666","187.9333333333333","158.74166666666667","2025-04-28 21:00:00.0"
"PUBLICZNA SZKO?A PODSTAWOWA IM. BATALION?W CH?OPSKICH W STARYCH ZAWADACH","","26-660","STARE ZAWADY","21.12815508","51.54597315","42.8","1005.7","13.330000000000002","9.33","8.14","2025-04-28 21:00:00.0"
"SZKO?A PODSTAWOWA W BRDOWIE","UL. MICKIEWICZA","62-620","BRD?W","18.7293986","52.3533225","39.9","1008.7","17.0","9.1","8.0","2025-04-28 21:00:00.0"
"SZKO?A PODSTAWOWA Z ODDZIA?AMI INTEGRACYJNYMI NR 6 IM. SZARYCH SZEREG?W W GRODZISKU MAZOWIECKIM","UL. SPORTOWA","05-825","GRODZISK MAZOWIECKI","20.6192335","52.0987683","50.15","1011.0083333333333","14.033333333333333","11.583333333333334","9.858333333333333","2025-04-28 21:00:00.0"
"SZKO?A PODSTAWOWA NR 6 IM. ELIZY ORZESZKOWEJ W ?YRARDOWIE","UL. J?ZEFA MIRECKIEGO","96-300","?YRARD?W","20.446088","52.057653","44.69166666666666","1009.6083333333335","14.866666666666667","10.075000000000001","8.691666666666666","2025-04-28 21:00:00.0"
"SZKO?A PODSTAWOWA IM. 11 LISTOPADA W ???WINIE","UL. SZKOLNA","05-807","???WIN","20.7249857","52.09761779588044","48.55833333333334","1008.2166666666667","12.966666666666667","4.233333333333333","3.9583333333333335","2025-04-28 21:00:00.0"
"SZKO?A PODSTAWOWA IM.ADAMA MICKIEWICZA W STRONIU","","34-604","STRONIE","20.52389925","49.61395897","47.65833333333333","972.3833333333333","14.483333333333334","5.008333333333334","4.508333333333334","2025-04-28 21:00:00.0"
"SZKO?A PODSTAWOWA IM.WO?Y?SKIEJ BRYGADY KAWALERII W STARYM KOCINIE","UL. KR?TA","42-231","STARY KOCIN","19.1164555","50.9549101","56.41818181818182","996.5181818181819","13.754545454545456","10.918181818181818","10.799999999999999","2025-04-28 21:00:00.0"
"PUBLICZNA SZKO?A PODSTAWOWA IM. JANA PAW?A II W WOLI TACZOWSKIEJ","","26-652","WOLA TACZOWSKA","21.04512254","51.44935931","39.199999999999996","1000.3416666666667","14.216666666666667","15.991666666666665","15.983333333333334","2025-04-28 21:00:00.0"
"SZKO?A PODSTAWOWA NR 3 IM. MARII KONOPNICKIEJ W CHOJNOWIE","UL. W?ADYS?AWA REYMONTA","59-225","CHOJN?W","15.92934","51.27254","42.63333333333333","1004.7083333333334","17.808333333333334","20.733333333333334","17.466666666666665","2025-04-28 21:00:00.0"
"LICEUM OG?LNOKSZTA?C?CE IM. STEFANA ?EROMSKIEGO W ?YRARDOWIE","UL. JANINY JADWIGI KACPERSKIEJ","96-300","?YRARD?W","20.44495564","52.0675436","45.15833333333333","1011.2666666666668","14.424999999999999","7.008333333333333","6.258333333333333","2025-04-28 21:00:00.0"
"SZKO?A PODSTAWOWA W ?CINAWIE POLSKIEJ","","55-200","?CINAWA POLSKA","17.33660972","50.93346737","46.708333333333336","1006.4166666666666","15.616666666666665","28.549999999999997","20.7","2025-04-28 21:00:00.0"
"SZKO?A PODSTAWOWA W ?CINAWCE DOLNEJ","","57-410","?CINAWKA DOLNA","16.5360171","50.4966472","63.300000000000004","986.6833333333334","15.166666666666666","48.9","41.88333333333333","2025-04-28 21:00:00.0"
"I LICEUM OG?LNOKSZTA?C?CE IM. ADAMA MICKIEWICZA W ?APACH","UL. BOHATER?W WESTERPLATTE","18-100","?APY","22.87657971","52.98984475","39.18333333333333","1006.4499999999999","13.308333333333332","40.891666666666666","33.641666666666666","2025-04-28 21:00:00.0"
"SZKO?A PODSTAWOWA W W?GRACH","UL. SZKOLNA","55-020","W?GRY","17.0374566","50.92746209","48.583333333333336","1005.725","15.866666666666667","14.158333333333333","12.283333333333333","2025-04-28 21:00:00.0"
"PUBLICZNA SZKO?A PODSTAWOWA IM. MIKO?AJA KOPERNIKA W BIENI?DZICACH","","26-625","BIENI?DZICE","20.92852467","51.41165831","59.17","1000.85","12.459999999999999","19.61","16.19","2025-04-28 21:00:00.0"
"SAMORZ?DOWA SZKO?A PODSTAWOWA IM. WOJSKA POLSKIEGO W WODZIS?AWIU","UL. SZKOLNA","28-330","WODZIS?AW","20.18925053","50.51810713","65.75833333333334","993.2333333333332","13.391666666666666","8.708333333333334","7.833333333333333","2025-04-28 21:00:00.0"
"LICEUM OG?LNOKSZTA?C?CE W ZESPOLE SZK?? DRZEWNYCH I LE?NYCH IM. JANA KOCHANOWSKIEGO W GARBATCE - LETNISKU","UL. HANKI LEWANDOWICZ","26-930","GARBATKA-LETNISKO","21.62967267","51.49346798","50.9","1004.6666666666666","11.733333333333334","24.366666666666664","20.166666666666668","2025-04-28 21:00:00.0"
"PUBLICZNA SZKO?A PODSTAWOWA IM. JANA OLRYCHA SZANIECKIEGO W SZA?CU","","28-100","SZANIEC"," 20.691985097588677","50.51627384074623","50.775","991.8083333333333","14.200000000000001","7.791666666666667","7.091666666666666","2025-04-28 21:00:00.0"
"SZKO?A PODSTAWOWA W ZBOROWIE","UL. ZWIERZYNIEC","28-131","ZBOR?W","20.711351","50.51339044","56.37692307692308","998.4230769230769","14.292307692307693","5.823076923076924","4.838461538461538","2025-04-28 21:00:00.0"
"PUBLICZNA SZKO?A PODSTAWOWA IM. POR. J?ZEFA M?CZKI W ZALESZANACH","UL. SANDOMIERSKA","37-415","ZALESZANY","21.88785883","50.64803753","47.50833333333333","1004.3916666666665","13.216666666666667","39.74166666666667","32.666666666666664","2025-04-28 21:00:00.0"
"SZKO?A PODSTAWOWA W SOLCU-ZDROJU","UL. 1 MAJA","28-131","SOLEC-ZDR?J","20.8893586","50.37082674","54.76666666666667","1000.5083333333333","14.033333333333333","14.866666666666667","12.416666666666666","2025-04-28 21:00:00.0"
"I LICEUM OG?LNOKSZTA?C?CE W NOWEJ SARZYNIE","UL. KOMISJI EDUKACJI NARODOWEJ","37-310","NOWA SARZYNA","22.34167945","50.31921557","58.84166666666667","1003.975","12.174999999999999","7.858333333333333","7.2749999999999995","2025-04-28 21:00:00.0"
"SZKO?A PODSTAWOWA IM. KORNELA MAKUSZY?SKIEGO W SKRZYDLOWIE","UL. G??WNA","42-270","SKRZYDL?W","19.3605871","50.8624858","51.075","994.0125","14.35","8.225","6.7125","2025-04-28 21:00:00.0"
"SZKO?A PODSTAWOWA W SZRENIAWIE","","32-075","SZRENIAWA","19.8690283","50.3768057","77.51666666666667","987.5","11.966666666666667","66.6","55.199999999999996","2025-04-28 21:00:00.0"
"SZKO?A PODSTAWOWA W PTASZKOWIE","","58-400","PTASZK?W","16.0415642","50.7927672","62.99166666666667","969.9916666666667","12.266666666666666","14.708333333333334","12.408333333333333","2025-04-28 21:00:00.0"
"SZKO?A PODSTAWOWA IM. ?W. WOJCIECHA WE W?ODOWICACH","","57-400","W?ODOWICE","16.4776033","50.575772","64.04166666666667","979.0166666666668","13.275","22.275000000000002","18.733333333333334","2025-04-28 21:00:00.0"
"PUBLICZNA SZKO?A PODSTAWOWA W LEWINIE K?ODZKIM","UL. KO?CIELNA","57-343","LEWIN K?ODZKI","16.2909777","50.4056168","61.725","968.6583333333333","14.933333333333332","15.641666666666666","13.75","2025-04-28 21:00:00.0"
