"NAME","STREET","POST_CODE","CITY","LONGITUDE","LATITUDE","HUMIDITY_AVG","PRESSURE_AVG","TEMPERATURE_AVG","PM10_AVG","PM25_AVG","TIMESTAMP"
"SZKO?A PODSTAWOWA IM. MARIANA FALSKIEGO W KRASZEWICACH","UL. SZKOLNA","63-522","KRASZEWICE","18.22403","51.51563","95.12","1015.11","8.61","32.86","20.2","2025-04-28 18:00:00.0"
"SZKO?A PODSTAWOWA WE WRZ?SOWICACH","UL. SZKOLNA","32-040","WRZ?SOWICE","19.94282","49.96103","33.5625","985.6875","20.975","4.3375","3.8625","2025-04-28 18:00:00.0"
"PUBLICZNA SZKO?A PODSTAWOWA NR 2 IM. KAZIMIERZA MALCZEWSKIEGO W STRZELCACH OPOLSKICH","UL. WAWRZY?CA ?WIERZEGO","47-100","STRZELCE OPOLSKIE","18.314889","50.503431","38.333333333333336","1040.3666666666668","19.566666666666666","1.0","0.5533333333333333","2025-04-28 18:00:00.0"
"ZESP?? SZK?? NR 1 W PSZCZYNIE","UL. KAZIMIERZA WIELKIEGO","43-200","PSZCZYNA","18.9457058","49.965883","39.06666666666666","1002.4","25.46666666666667","4.133333333333334","2.5566666666666666","2025-04-28 18:00:00.0"
"ZESP?? SZK?? IM. POWSTA?C?W WIELKOPOLSKICH W JANKOWIE PRZYGODZKIM","SZKOLNA","63-421","JANK?W PRZYGODZKI","17.7889069","51.596172","37.5","1009.1999999999999","20.0","5.5","2.8766666666666665","2025-04-28 18:00:00.0"
"SZKO?A PODSTAWOWA NR 7 IM. ?O?NIERZY WRZE?NIA W ?WIKLICACH","UL. M?CZENNIK?W O?WI?CIMSKICH","43-229","?WIKLICE","18.989839","49.971937","45.53333333333333","993.8000000000001","21.366666666666664","4.566666666666666","2.94","2025-04-28 18:00:00.0"
"SZKO?A PODSTAWOWA NR 12 W STUDZIONCE","UL. JORDANA","43-245","STUDZIONKA","18.774985","49.9603559","32.56666666666667","1000.8666666666667","28.266666666666666","4.866666666666666","4.51","2025-04-28 18:00:00.0"
"ZESP?? SZKOLNO-PRZEDSZKOLNY W PIASKU","SZKOLNA","43-211","PIASEK","18.94634","50.00955","29.8","1000.9333333333334","23.633333333333336","3.1666666666666665","1.63","2025-04-28 18:00:00.0"
"ZESP?? SZKOLNO-PRZEDSZKOLNY W ??CE","FITELBERGA","43-241","??KA","18.906757","49.9582444","27.133333333333336","998.9","27.866666666666664","3.466666666666667","1.8","2025-04-28 18:00:00.0"
"SZKO?A PODSTAWOWA NR 3 W LUBONIU","ARMII POZNA?","62-030","LUBO?","16.8968","52.3481","33.300000000000004","1008.9","19.8","5.566666666666666","3.0866666666666664","2025-04-28 18:00:00.0"
"SPECJALNY O?RODEK WYCHOWAWCZY NR 1 W OSTROWCU ?WI?TOKRZYSKIM","SZKOLNA","27-400","OSTROWIEC ?WI?TOKRZYSKI","21.418144","50.9312","91.97","995.09","5.0","44.02","25.1","2025-04-28 18:00:00.0"
"ZESP?? SZK?? PONADGIMNAZJALNYCH CENTRUM KSZTA?CENIA USTAWICZNEGO W PRZYGODZICACH","PTR","63-421","PRZYGODZICE","17.822685","51.59023","42.9","1018.25","16.85","1.85","1.115","2025-04-28 18:00:00.0"
"LICEUM OG?LNOKSZTA?C?CE IM. W?ADYS?AWA JAGIE??Y W ODOLANOWIE","KROTOSZY?SKA","63-430","ODOLAN?W","17.66024","51.58063","28.8","1008.8000000000001","19.666666666666668","4.266666666666667","2.356666666666667","2025-04-28 18:00:00.0"
"ZESP?? SZK?? W PIOTROWIE","","62-814","PIOTR?W","18.05485","51.81570","22.833333333333332","1010.4333333333334","25.3","1.5999999999999999","0.8700000000000001","2025-04-28 18:00:00.0"
"SZKO?A PODSTAWOWA W CZARNYMLESIE","","63-421","CZARNYLAS","17.762604","51.508366","47.0","1005.5","19.066666666666666","7.533333333333334","4.609999999999999","2025-04-28 18:00:00.0"
"SZKO?A PODSTAWOWA NR 2 IM. AUGUSTA HR. CIESZKOWSKIEGO W LUBONIU","?ABIKOWSKA","62-030","LUBO?","16.878431","52.346672","31.900000000000002","1017.4333333333334","22.633333333333336","6.066666666666666","3.6","2025-04-28 18:00:00.0"
"SZKO?A PODSTAWOWA IM. POWSTA?C?W WIELKOPOLSKICH W DORUCHOWIE","KALISKA","63-505","DORUCH?W","18.0786","51.4189","95.31","1015.31","8.56","32.76","18.92","2025-04-28 18:00:00.0"
"SZKO?A PODSTAWOWA IM. MIKO?AJA KOPERNIKA W BUKOWCU","SZKOLNA","95-006","BUKOWIEC","19.6757","51.6918","34.23333333333333","995.2666666666668","25.46666666666667","1.9666666666666668","1.11","2025-04-28 18:00:00.0"
"SZKO?A PODSTAWOWA IM. MARII KONOPNICKIEJ W KOTLINIE","MARII KONOPNICKIEJ","63-220","KOTLIN","17.645437","51.91866","40.03333333333333","1007.8000000000001","16.733333333333334","0.03333333333333333","0.016666666666666666","2025-04-28 18:00:00.0"
"SZKO?A PODSTAWOWA NR 2 W OTMUCHOWIE","KALINOWA","48-385","OTMUCH?W","17.213","50.46535","51.13333333333333","1002.9666666666667","19.666666666666668","3.5666666666666664","2.063333333333333","2025-04-28 18:00:00.0"
"SZKO?A PODSTAWOWA IM. BOHATER?W POWSTA? ?L?SKICH W KA?KOWIE","","48-364","KA?K?W","17.185241","50.40420","96.33999999999999","1010.98","8.55","31.05","18.64","2025-04-28 18:00:00.0"
"SZKO?A PODSTAWOWA W MACIEJOWICACH","","48-385","MACIEJOWICE","17.13497","50.4998","49.199999999999996","989.6333333333333","18.8","4.933333333333334","2.9066666666666663","2025-04-28 18:00:00.0"
"TEST SZKO?A","ul Testowa","00-000","TESTCITY","-157.52969778504766","1.8586845937815497","89.69","992.4699999999999","7.760000000000001","50.169999999999995","30.320000000000004","2025-04-28 18:00:00.0"
"ZESP?? EDUKACYJNY W KONOTOPIE","PL. POWSTA?C?W WIELKOPOLSKICH","67-416","KONOTOP","15.9031","51.93023","26.2","1016.4666666666667","32.46666666666667","1.3333333333333333","0.7566666666666667","2025-04-28 18:00:00.0"
"PRZEDSZKOLE NR 6 W BOCHNI","MUROWIANKA","32-700","BOCHNIA","20.4415","49.96533","29.7","1019.6","32.1","2.0","1.16","2025-04-28 18:00:00.0"
"PUBLICZNA SZKO?A PODSTAWOWA W SZYMISZOWIE","SZKOLNA","47-161","SZYMISZ?W","18.21983","50.53656","37.0","1001.3333333333334","20.866666666666667","4.2","2.143333333333333","2025-04-28 18:00:00.0"
"PUBLICZNA SZKO?A PODSTAWOWA W ROZMIERCE","SZKOLNA","47-171","ROZMIERKA","18.26905","50.560720","96.32","995.88","5.98","47.13","29.899999999999995","2025-04-28 18:00:00.0"
"PUBLICZNA SZKO?A PODSTAWOWA W DZIEWKOWICACH","STRZELECKA","47-100","DZIEWKOWICE","18.34475","50.51530","96.32","995.88","5.98","47.13","29.899999999999995","2025-04-28 18:00:00.0"
"SZKO?A PODSTAWOWA IM. OR?A BIA?EGO W KUROWICACH FILIA W WOLI RAKOWEJ","SZKOLNA","95-006","WOLA RAKOWA","19.61157","51.67447","33.03333333333333","1001.9","19.8","0.19999999999999998","0.10999999999999999","2025-04-28 18:00:00.0"
"SZKO?A PODSTAWOWA IM. KS. JANA TWARDOWSKIEGO WE W?ADYS?AWOWIE","KALISKA","62-610","W?ADYS?AW?W","18.4688","52.10134","92.51","1014.7000000000002","8.83","28.05","16.66","2025-04-28 18:00:00.0"
"SZKO?A PODSTAWOWA NR 8 IM. J?ZEFA WESZKI W RUDO?TOWICACH","KRZYWO?","43-220","RUDO?TOWICE","19.00171","49.95711","1.0","997.5","21.266666666666666","2.466666666666667","1.4000000000000001","2025-04-28 18:00:00.0"
"ZESP?? SZKOLNO-PRZEDSZKOLNY W WI?LE WIELKIEJ","HODOWC?W","43-243","WIS?A WIELKA","18.85320","49.95291","41.275","997.4","21.599999999999998","1.625","0.9075","2025-04-28 18:00:00.0"
"SZKO?A PODSTAWOWA IM. MARKA PRAWEGO W JEMIELNICY","SZKOLNA","47-133","JEMIELNICA","18.380122","50.548993","34.03333333333333","991.4","20.53333333333333","6.066666666666666","3.2566666666666664","2025-04-28 18:00:00.0"
"SZKO?A PODSTAWOWA NR 2 IM. ?W. JADWIGI ?L?SKIEJ W PSZCZYNIE","KATOWICKA","43-200","PSZCZYNA","18.947994","49.992568","30.133333333333336","1001.4","26.0","1.0666666666666667","0.5933333333333334","2025-04-28 18:00:00.0"
"ZESP?? SZK?? SPECJALNYCH W OSTROWCU ?WI?TOKRZYSKIM","I?ZECKA","27-400","OSTROWIEC ?WI?TOKRZYSKI","21.386931","50.942931","92.61","994.75","5.04","40.73","23.77","2025-04-28 18:00:00.0"
"SZKO?A PODSTAWOWA NR 6 IM. KORNELA MAKUSZY?SKIEGO W CZARKOWIE","POWSTA?C?W ?L?SKICH","43-211","CZARK?W","18.909560","50.011713","30.933333333333334","998.9333333333334","21.233333333333334","1.9333333333333333","1.0666666666666667","2025-04-28 18:00:00.0"
"ZESP?? SZKOLNO-PRZEDSZKOLNY W JANKOWICACH","BAZIOWA","43-215","JANKOWICE","18.989423","50.002529","71.1","992.12","0.24","68.37","39.28","2025-04-28 18:00:00.0"
"SZKO?A PODSTAWOWA NR 4 IM. J?ZEFA PUKOWCA W PSZCZYNIE","ZYGMUNTA KRASI?SKIEGO","43-200","PSZCZYNA","18.961125","49.971182","39.800000000000004","996.3666666666667","20.566666666666666","1.1666666666666667","0.6866666666666666","2025-04-28 18:00:00.0"
"SZKO?A PODSTAWOWA IM. ARKADEGO FIEDLERA W RASZKOWIE Z SIEDZIB? W POGRZYBOWIE","POGRZYB?W","63-440","POGRZYB?W","17.723099","51.713966","48.70000000000001","1018.2000000000002","22.899999999999995","6.0","3.5","2025-04-28 18:00:00.0"
"ZESP?? SZK?? W OTMUCHOWIE","KRAKOWSKA","48-385","OTMUCH?W","17.167634","50.4705","96.33999999999999","1010.98","8.55","31.05","18.64","2025-04-28 18:00:00.0"
"SZKO?A PODSTAWOWA NR 6?IM. IGNACEGO ?UKASZEWICZA W CZECHOWICACH-DZIEDZICACH","UL. ?UKASIEWICZA","43-502","CZECHWICE-DZIEDZICE","19.016493","49.899404","40.4","970.6333333333333","20.1","2.066666666666667","1.1199999999999999","2025-04-28 18:00:00.0"
"SZKO?A PODSTAWOWA NR 4 IM. GUSTAWA MORCINKA W S?UPSKU","UL. LESZCZY?SKIEGO","76-200","S?UPSK","17.005017","54.475286","42.300000000000004","1019.5333333333333","16.8","3.1333333333333333","2.04","2025-04-28 18:00:00.0"
"SZKO?A PODSTAWOWA W KLESZCZOWIE","UL. SZKOLNA","44-164","KLESZCZ?W","18.527510","50.344057","38.93333333333334","996.0","21.599999999999998","1.5999999999999999","0.8066666666666666","2025-04-28 18:00:00.0"
"SZKO?A PODSTAWOWA NR 5 IM. GRYFIT?W W S?UPSKU","UL. HUBALCZYK?W","76-200","S?UPSK","17.062723","54.455744","42.800000000000004","1018.2666666666668","16.8","1.8","1.0733333333333333","2025-04-28 18:00:00.0"
"ZESP?? SZKOLNO-PRZEDSZKOLNY W POT?PIE","UL. TARNOG?RSKA","42-693","POT?PA","18.662519","50.565309","97.16000000000001","997.19","5.87","39.37","22.63","2025-04-28 18:00:00.0"
"SZKO?A PODSTAWOWA NR 3 IM. JANA PAW?A II W PSZCZYNIE","UL. STAROMIEJSKA","43-200","PSZCZYNA","18.92452","49.98849","32.09166666666667","993.4916666666667","22.791666666666668","6.733333333333333","5.716666666666666","2025-04-28 18:00:00.0"
"SZKO?A PODSTAWOWA IM. MIKO?AJA REJA W GORZYCZKACH","UL. WIEJSKA","44-350","GORZYCZKI","18.399689","49.944774","37.766666666666666","994.3666666666667","19.933333333333334","3.1333333333333333","1.8533333333333335","2025-04-28 18:00:00.0"
"SZKO?A PODSTAWOWA NR 6 IM. LUDWIKA WARY?SKIEGO W S?UPSKU","UL. STARZY?SKIEGO","76-200","S?UPSK","17.023811","54.465980","29.8","1023.1","24.866666666666664","0.6333333333333333","0.3133333333333333","2025-04-28 18:00:00.0"
"SZKO?A PODSTAWOWA IM. JANA BRZECHWY W KOBI?RZE","UL. TUWIMA","43-210","KOBI?R","18.930274","50.060752","99.90000000000002","996.2666666666668","21.96666666666667","13.0","6.81","2025-04-28 18:00:00.0"
"SZKO?A PODSTAWOWA W PONISZOWICACH","UL. GLIWICKA","44-172","PONISZOWICE","18.458674","50.409220","37.06666666666666","994.5666666666666","24.733333333333334","1.0666666666666667","0.6533333333333333","2025-04-28 18:00:00.0"
"SZKO?A PODSTAWOWA IM. OR?A BIA?EGO W SOKO?OWICACH","SOKO?OWICE","56-400","SOKO?OWICE","17.4469","51.245","77.98","1009.18","9.68","10.979999999999999","6.150000000000001","2025-04-28 18:00:00.0"
"SZKO?A PODSTAWOWA W LIGOCIE POLSKIEJ","LIGOTA POLSKA","56-400","LIGOTA POLSKA","17.542356","51.239942","99.90000000000002","1002.5333333333333","21.833333333333332","3.1333333333333333","1.9133333333333333","2025-04-28 18:00:00.0"
"SZKO?A PODSTAWOWA IM. UNICEF W LIGOCIE MA?EJ","LIGOTA MA?A","56-400","LIGOTA MA?A","17.365476","51.142467","20.566666666666666","978.6","34.06666666666667","5.8","3.26","2025-04-28 18:00:00.0"
"SZKO?A PODSTAWOWA WE WSZECH?WI?TEM","WSZECH?WI?TE","56-400","WSZECH?WI?TE","17.484968","51.191751","45.333333333333336","1003.8000000000001","26.03333333333333","1.3333333333333333","0.7233333333333333","2025-04-28 18:00:00.0"
"SZKO?A PODSTAWOWA GMINY OLE?NICA W OLE?NICY","WILE?SKA","56-400","OLE?NICA","17.41034","51.2095","99.90000000000002","993.7000000000002","19.8","0.0","0.0","2025-04-28 18:00:00.0"
"SZKO?A PODSTAWOWA NR 19 W BRZE?CACH","POKOJU","43-200","BRZE?CE","18.832539","49.984943","22.099999999999998","997.1666666666666","27.0","3.8666666666666667","2.1533333333333333","2025-04-28 18:00:00.0"
"ZESP?? SZKOLNO-PRZEDSZKOLNY W RADOSTOWIE ?REDNIM","RADOST?W ?REDNI","59-800","RADOST?W ?REDNI","15.36293","51.12153","45.43333333333334","996.3666666666667","22.366666666666664","0.10000000000000002","0.05000000000000001","2025-04-28 18:00:00.0"
"ZESP?? SZKOLNO-PRZEDSZKOLNY W KO?CIELNIKU","KO?CIELNIK","59-800","KO?CIELNIK","15.29682","51.08393","91.58","1020.33","11.1","28.070000000000004","14.81","2025-04-28 18:00:00.0"
"SZKO?A PODSTAWOWA NR 2 IM. BOLES?AWA CHROBREGO W MIASTKU","KUJAWSKA","77-200","MIASTKO","16.97385","53.99424","94.4","1015.89","7.64","15.39","8.33","2025-04-28 18:00:00.0"
"ZESP?? SZK?? OG?LNOKSZTA?C?CYCH I TECHNICZNYCH W MIASTKU","M?ODZIE?OWA","77-200","MIASTKO","16.97198","54.00061","93.3","1016.63","6.400000000000001","12.979999999999999","7.62","2025-04-28 18:00:00.0"
"SZKO?A PODSTAWOWA IM. POLSKICH ODKRYWC?W I PODR??NIK?W W KOBIERZYCACH","PARKOWA","55-040","KOBIERZYCE","16.933169","50.971851","29.5","996.3249999999999","19.525","5.15","2.8725","2025-04-28 18:00:00.0"
"SZKO?A PODSTAWOWA W PUSTKOWIE WILCZKOWSKIM","K?ODZKA","55-040","PUSTK?W WILCZKOWSKI","16.881039","50.906166","99.9","1006.025","20.275","1.625","0.9575","2025-04-28 18:00:00.0"
"SZKO?A PODSTAWOWA IM. UNICEF W BIELANACH WROC?AWSKICH","AKACJOWA","55-040","BIELANY WROC?AWSKIE","16.971022","51.038120","5.0","1011.1999999999999","20.8","2.8333333333333335","1.4666666666666668","2025-04-28 18:00:00.0"
"SZKO?A PODSTAWOWA IM. JANUSZA KORCZAKA W WYSOKIEJ","CHABROWA","52-200","WYSOKA","17.007729","51.047504","99.9","1004.775","23.700000000000003","2.475","1.415","2025-04-28 18:00:00.0"
"SZKO?A PODSTAWOWA IM. ROMUALDA TRAUGUTTA W PUSTKOWIE ?URAWSKIM","KOLEJOWA","55-040","PUSTK?W ?URAWSKI","16.859465","50.958878","99.9","1004.525","23.95","5.3","2.99","2025-04-28 18:00:00.0"
"SZKO?A PODSTAWOWA IM. ABP. ANTONIEGO JULIANA NOWOWIEJSKIEGO W S?UPNIE","KO?CIELNA","09-472","S?UPNO","19.84527","52.5041","82.51","1015.35","6.61","71.98","43.72","2025-04-28 18:00:00.0"
"SZKO?A PODSTAWOWA NR 1 IM. MARII KONOPNICKIEJ W ZESPOLE SZK?? OG?LNOKSZTA?C?CYCH NR 1 IM. MARII KONOPNICKIEJ W PRUSZCZU GDA?SKIM","NIEMCEWICZA","83-000","PRUSZCZ GDA?SKI","18.650575","54.261512","34.36666666666667","1032.0","17.766666666666666","1.3666666666666665","0.8300000000000001","2025-04-28 18:00:00.0"
"SZKO?A PODSTAWOWA NR 2 IM. MIKO?AJA KOPERNIKA W PRUSZCZU GDA?SKIM","TYSI?CLECIA","83-000","PRUSZCZ GDA?SKI","18.628278","54.260787","32.8","1024.8333333333333","18.099999999999998","0.8666666666666667","0.4366666666666667","2025-04-28 18:00:00.0"
"SZKO?A PODSTAWOWA NR 3 IM. JANA MATEJKI W PRUSZCZU GDA?SKIM","MATEJKI","83-000","PRUSZCZ GDA?SKI","18.636981","54.255547","30.8","1026.925","18.825000000000003","1.625","0.925","2025-04-28 18:00:00.0"
"SZKO?A PODSTAWOWA NR 4 IM. IGNACEGO JANA PADEREWSKIEGO W PRUSZCZU GDA?SKIM","KASPROWICZA","83-000","PRUSZCZ GDA?SKI","18.670231","54.263405","32.300000000000004","1027.125","18.95","1.375","0.65","2025-04-28 18:00:00.0"
"SZKO?A PODSTAWOWA NR 13 W WI?LE MA?EJ","SOKOLA","43-243","WIS?A MA?A","18.793987","49.93368","42.775","1001.625","27.425","0.0","0.0","2025-04-28 18:00:00.0"
"ZESP?? SZKOLNO-PRZEDSZKOLNY W STUDZIENICACH","?W. JANA PAW?A II 74","43-215","STUDZIENICE","18.983576","50.016514","36.325","1006.4","21.425","1.15","0.6775","2025-04-28 18:00:00.0"
"SZKO?A PODSTAWOWA IM. JANUSZA KORCZAKA W SUSZCU","SZKOLNA","43-267","SUSZEC","18.79149","50.03719","38.05","987.26","22.925","0.75","0.46","2025-04-28 18:00:00.0"
"SZKO?A PODSTAWOWA NR 11 W POR?BIE","SZKOLNA","43-200","POR?BA","18.876488","49.984417","32.65","996.35","22.7","1.25","0.6325000000000001","2025-04-28 18:00:00.0"
"SZKO?A PODSTAWOWA IM. MIKO?AJA KOPERNIKA W WYSOCKU MA?YM","KO?CIELNA","63-421","WYSOCKO MA?E","17.84109","51.61033","37.5","1003.575","20.525","4.15","2.505","2025-04-28 18:00:00.0"
"SZKO?A PODSTAWOWA NR 3 IM. JULIANA TUWIMA W NOWEJ SOLI","BOTANICZNA","67-100","NOWA S?L","15.71186","51.82115","86.7","1003.4","13.0","9.7","6.19","2025-04-28 18:00:00.0"
"ZESP?? SZK?? W JANKOWIE PIERWSZYM","JANK?W PIERWSZY","62-814","JANK?W PIERWSZY","17.987951","51.902107","27.75","1006.85","20.400000000000002","3.2","1.745","2025-04-28 18:00:00.0"
"ZESP?? SZKOLNO-PRZEDSZKOLNY W MESZNIE","MESZNO","48-385","MESZNO","17.15378","50.43684","96.84","1010.56","8.08","31.83","18.77","2025-04-28 18:00:00.0"
"SZKO?A PODSTAWOWA IM. 16. PU?KU U?AN?W WIELKOPOLSKICH W GRUPIE","SZKOLNA","86-134","GRUPA","18.643229","53.506348","97.5","1024.45","7.1","28.18","15.99","2025-04-28 18:00:00.0"
"SZKO?A PODSTAWOWA IM. OR?A BIA?EGO W KUROWICACH","SZKOLNA","95-006","KUROWICE","19.6897942","51.6648927","41.9","1002.375","18.799999999999997","5.15","2.855","2025-04-28 18:00:00.0"
"SZKO?A PODSTAWOWA IM. POWSTA?C?W WIELKOPOLSKICH W BUDZYNIU","ROGOZI?SKA","64-840","BUDZY?","16.983885","52.8847","51.55","1018.0250000000001","19.475","17.84","10.17","2025-04-28 18:00:00.0"
"SZKO?A PODSTAWOWA W SWORNEGACIACH","SZKOLNA","89-608","SWORNEGACIE","17.503073","53.86227","91.12","1026.63","8.15","38.25","22.93","2025-04-28 18:00:00.0"
"SZKO?A PODSTAWOWA IM. OR?A BIA?EGO W RASZ?WCE","1 MAJA","59-307","RASZ?WKA","16.18346","51.30514","72.06","1008.28","12.59","15.09","8.21","2025-04-28 18:00:00.0"
"SZKO?A PODSTAWOWA IM. TADEUSZA KO?CIUSZKI W MUNINIE","3-GO MAJA","37-514","MUNINA","22.725977","49.997936","5.0","999.625","32.725","1.3","0.69","2025-04-28 18:00:00.0"
"SZKO?A PODSTAWOWA IM. ALEKSANDRA FREDRY W SUROCHOWIE","SUROCH?W","37-500","SUROCH?W","22.7635","50.02385","80.6","1003.64","4.61","32.46","19.26","2025-04-28 18:00:00.0"
"SZKO?A PODSTAWOWA IM. LOTNIK?W ALIANCKICH W I?OWEJ","PIASKOWA","68-120","I?OWA","15.20461","51.50227","79.35","1009.21","14.41","10.44","6.47","2025-04-28 18:00:00.0"
"ZESP?? SZKOLNO-PRZEDSZKOLNY W BO?EJOWICACH","BO?EJOWICE","59-700","BO?EJOWICE","15.541525","51.244331","75.13","1018.85","11.44","34.17","20.59","2025-04-28 18:00:00.0"
"ZESP?? SZKOLNO-PRZEDSZKOLNY W BRZE?NIKU","BRZE?NIK","59-700","BRZE?NIK","15.467881","51.243537","99.9","1003.45","22.275000000000002","2.075","1.295","2025-04-28 18:00:00.0"
"SZKO?A PODSTAWOWA W D?BROWIE BOLES?AWIECKIEJ","D?BROWA BOLES?AWIECKA","59-700","D?BROWA BOLES?AWIECKA","15.57337","51.325929","25.4","1007.525","19.0","9.075","5.1525","2025-04-28 18:00:00.0"
"ZESP?? SZKOLNO-PRZEDSZKOLNY W KRA?NIKU DOLNYM","KRA?NIK DOLNY","59-700","KRA?NIK DOLNY","15.607869","51.307800","99.9","1003.3","32.3","2.6","1.68","2025-04-28 18:00:00.0"
"ZESP?? SZKOLNO-PRZEDSZKOLNY W ?ELISZOWIE","?ELISZ?W","59-700","?ELISZ?W","15.636493","51.188462","17.775","1004.65","29.55","5.475","3.2075","2025-04-28 18:00:00.0"
"SZKO?A PODSTAWOWA IM. MARII SK?ODOWSKIEJ-CURIE W KAW?CZYNIE","KAW?CZYN","62-704","KAW?CZYN","18.53126","51.90873","91.88","1014.65","8.93","28.28","16.42","2025-04-28 18:00:00.0"
"PUBLICZNA SZKO?A PODSTAWOWA IM. MARII KONOPNICKIEJ W JORDANOWIE ?L?SKIM","WROC?AWSKA","55-065","JORDAN?W ?L?SKI","16.8656","50.8654","24.325000000000003","1019.125","22.525","2.125","1.245","2025-04-28 18:00:00.0"
"SZKO?A PODSTAWOWA IM. JANA PAW?A II W RUDNEJ","PIASKOWA","59-305","RUDNA","16.26114","51.51127","32.725","1014.45","19.225","5.15","3.1075","2025-04-28 18:00:00.0"
"SZKO?A PODSTAWOWA IM. BOHATER?W WESTERPLATTE W CHOBIENI","SZKOLNA","59-305","CHOBIENIA","16.44566","51.54124","30.525","1016.175","20.725","3.025","1.71","2025-04-28 18:00:00.0"
"SZKO?A PODSTAWOWA NR 3 IM. W?ADYS?AWA BRONIEWSKIEGO W ?WIEBODZICACH","?WIDNICKA","58-160","?WIEBODZICE","16.322191","50.859905","53.85","991.975","19.05","2.075","1.0","2025-04-28 18:00:00.0"
"PUBLICZNA SZKO?A PODSTAWOWA NR 5 IM. W?ADYS?AWA BRONIEWSKIEGO W NOWEJ SOLI","WALKI M?ODYCH","67-100","NOWA S?L","15.72476","51.78292","36.625","1015.775","24.65","3.525","2.2199999999999998","2025-04-28 18:00:00.0"
"ZESP?? EDUKACYJNY W KOLSKU","PIASTOWSKA","67-415","KOLSKO","15.961961","51.960693","88.34","1020.57","9.94","37.83","22.35","2025-04-28 18:00:00.0"
"SZKO?A PODSTAWOWA NR 3 IM. MARII KONOPNICKIEJ W KOLE","TORU?SKA","62-600","KO?O","18.63092","52.201656","93.89","1013.89","6.34","27.41","15.15","2025-04-28 18:00:00.0"
"SZKO?A PODSTAWOWA IM. JANA PAW?A II W MIKORZYNIE","MIKORZYN","63-600","MIKORZYN","18.026148","51.36473","95.31","1015.31","8.56","32.76","18.92","2025-04-28 18:00:00.0"
"SZKO?A PODSTAWOWA NR 1 IM. BOHATER?W WESTERPLATTE W K?PNIE","HENRYKA SIENKIEWICZA","63-600","K?PNO","17.987194","51.27619","47.1","1012.7","18.775","1.225","0.715","2025-04-28 18:00:00.0"
"SZKO?A PODSTAWOWA IM. JANA PAW?A II W LIPNICY WIELKIEJ","LIPNICA WIELKA","33-323","LIPNICA WIELKA","20.86532","49.70755","94.0","985.0","16.9","28.3","15.62","2025-04-28 18:00:00.0"
"SZKO?A PODSTAWOWA IM. PREZYDENTA GABRIELA NARUTOWICZA W CZ?STKOWIE MAZOWIECKIM","CZ?STK?W MAZOWIECKI","05-152","CZ?STK?W MAZOWIECKI","20.746943","52.39131","37.875","1015.225","20.325000000000003","40.125","21.9675","2025-04-28 18:00:00.0"
"SZKO?A PODSTAWOWA IM. PIERRE""A DE COUBERTINA W BUDACH SIENNICKICH","BUDY SIENNICKIE","05-190","BUDY SIENNICKIE","20.787657","52.544962","65.86","1019.44","7.57","71.71","43.4","2025-04-28 18:00:00.0"
"SZKO?A PODSTAWOWA IM. JANA BRZECHWY W SZKLARACH G?RNYCH","SZKLARY G?RNE","59-335","SZKLARY G?RNE","16.08945","51.44225","99.9","1005.5","23.375","0.575","0.3375","2025-04-28 18:00:00.0"
"SAMORZ?DOWA SZKO?A PODSTAWOWA W G?RNYCH GR?DACH","G?RNE GR?DY","62-310","G?RNE GR?DY","17.74012","52.11447","20.03333333333333","1010.2800000000001","23.066666666666666","6.3999999999999995","3.0100000000000002","2025-04-28 18:00:00.0"
"SZKO?A PODSTAWOWA IM. KRZYSZTOFA KAMILA BACZY?SKIEGO W CI??ENIU","WOLNO?CI","62-404","CI??E?","17.816093","52.21152","40.575","1013.175","20.6","2.525","1.4825","2025-04-28 18:00:00.0"
"SZKO?A PODSTAWOWA NR 1 IM. STRAJKU DZIECI KO?MI?SKICH 1906/1907 W KO?MINIE WIELKOPOLSKIM","GLINKI","63-720","KO?MIN WIELKOPOLSKI","17.45651","51.82566","33.5","1013.5666666666666","18.766666666666666","2.733333333333333","1.3066666666666666","2025-04-28 18:00:00.0"
"SZKO?A PODSTAWOWA NR 6 IM. JANA PAW?A II W STAROGARDZIE GDA?SKIM","BP. DOMINIKA","83-250","STAROGARD GDA?SKI","18.491356","53.98333","28.95","1014.55","18.975","1.1","0.6174999999999999","2025-04-28 18:00:00.0"
"SZKO?A PODSTAWOWA NR 4 IM. JANUSZA KORCZAKA W CHOJNOWIE","JANA KILI?SKIEGO","59-225","CHOJN?W","15.9396","51.26856","99.9","1009.0","27.7","10.0","4.47","2025-04-28 18:00:00.0"
"ZESP?? SZK?? TECHNICZNYCH W KOLE","KOLEJOWA","62-600","KO?O","18.62956","52.2088","92.77","1013.1","8.54","28.83","16.58","2025-04-28 18:00:00.0"
"PUBLICZNA SZKO?A PODSTAWOWA NR 2 IM. KAZIMIERZA PU?ASKIEGO W WARCE","POLNA","05-660","WARKA","21.188357","51.78638","19.325","1010.575","27.075","1.05","0.575","2025-04-28 18:00:00.0"
"SZKO?A PODSTAWOWA NR 2 IM. STEFANA STARZY?SKIEGO W NASIELSKU","KO?CIUSZKI","05-190","NASIELSK","20.801001","52.589717","6.0","1012.875","18.575","5.4","2.85","2025-04-28 18:00:00.0"
"ZESP?? SZKOLNO-PRZEDSZKOLNY W KAZUNIU NOWYM","G??WNA","05-152","KAZU? NOWY","20.68265","52.419853","33.125","1024.75","20.325","2.5","1.2349999999999999","2025-04-28 18:00:00.0"
"SZKO?A PODSTAWOWA IM. MIKO?AJA KOPERNIKA W CIEKSYNIE","MARSZ. J?ZEFA PI?SUDSKIEGO","05-192","CIEKSYN","20.666605","52.572132","66.26","1019.24","7.6","69.42","40.92","2025-04-28 18:00:00.0"
"SZKO?A PODSTAWOWA NR 5 IM MIKO?AJA KOPERNIKA W CZECHOWICACH-DZIEDZICACH","KLASZTORNA","43-502","CZECHOWICE-DZIEDZICE","19.003326","49.908154","29.8","997.7","31.8","23.0","11.76","2025-04-28 18:00:00.0"
"SZKO?A PODSTAWOWA IM. KS. J?ZEFA LONDZINA W ZABRZEGU","KAROLA PYTLA","43-516","ZABRZEG","18.9401","49.91564","30.725","982.825","24.25","5.025","2.8675","2025-04-28 18:00:00.0"
"GMINNE PRZEDSZKOLE W NOWEJ WSI","UL. G??WNA","05-806","NOWA WIE?","20.793608032839607","52.14079879793492","27.766666666666666","1019.4","18.666666666666668","3.9","2.1166666666666667","2025-04-28 18:00:00.0"
"SZKO?A PODSTAWOWA IM. JANA PAW?A II W MICHA?OWICACH","UL. SZKOLNA","05-816","MICHA?OWICE","20.8894743996203","52.16806240949327","30.3","1017.6","18.266666666666666","2.8666666666666667","1.6933333333333334","2025-04-28 18:00:00.0"
"SZKO?A PODSTAWOWA IM. MARII D?BROWSKIEJ W KOMOROWIE","UL. M. D?BROWSKIEJ","05-806","KOMOR?W","20.814969926602924","52.14696671968943","29.7","1017.8666666666667","18.833333333333332","3.3000000000000003","1.7566666666666666","2025-04-28 18:00:00.0"
"SZKO?A PODSTAWOWA IM. MIKO?AJA KOPERNIKA W NOWEJ WSI","UL. G??WNA","05-806","NOWA WIE?","20.80065871311049","52.134787344746286","27.633333333333336","1019.4333333333334","18.733333333333334","3.933333333333333","2.1666666666666665","2025-04-28 18:00:00.0"
"GMINNE PRZEDSZKOLE W MICHA?OWICACH","UL. SZKOLNA","05-816","MICHA?OWICE","20.8908240883606","52.16924425690457","30.3","1017.6","18.266666666666666","2.8666666666666667","1.6933333333333334","2025-04-28 18:00:00.0"
"ZESP?? SZKOLNO-PRZEDSZKOLNY W SMO?DZINIE","BOHATER?W WARSZAWY","76-214","SMO?DZINO","17.217509899999996","54.66198055959346","99.90000000000002","1024.5","16.599999999999998","2.6333333333333333","1.4766666666666666","2025-04-28 18:00:00.0"
"ZESP?? SZKOLNO- PRZEDSZKOLNY W?DOBRZYKOWICACH","UL. SUKCESU","55-002","DOBRZYKOWICE","17.185415","51.092059","31.666666666666668","1000.6333333333333","19.733333333333334","5.166666666666667","3.3000000000000003","2025-04-28 18:00:00.0"
"SZKO?A PODSTAWOWA IM. PIAST?W ?L?SKICH W CHRZ?STAWIE WIELKIEJ","UL. WROC?AWSKA","55-003","CZERNICA","17.292154","51.092542","28.46666666666667","1007.0666666666666","19.833333333333332","4.533333333333333","2.4133333333333336","2025-04-28 18:00:00.0"
"ZESP?? SZKOLNO-PRZEDSZKOLNY IM. PAPIE?A JANA PAW?A II W CZERNICY","UL. ?W. BRATA ALBERTA ADAMA CHMIELOWSKIEGO?","55-003","CZERNICA","17.248533"," 51.0473805","28.366666666666664","1013.9333333333334","21.099999999999998","1.4666666666666668","0.88","2025-04-28 18:00:00.0"
"SZKO?A PODSTAWOWA IM. JANUSZA KORCZAKA W RATOWICACH","UL. WROC?AWSKA","55-003","CZERNICA","17.266850"," 51.033897","8.866666666666667","994.7333333333332","34.73333333333333","4.533333333333333","2.546666666666667","2025-04-28 18:00:00.0"
"SZKO?A PODSTAWOWA IM. BOLES?AW KRZYWOUSTEGO W KAMIE?CU WROC?AWSKIM","UL. KOLEJOWA","55-002","KAMIENIEC WROC?AWSKI","17.173628"," 51.077638","36.9","1000.1333333333333","19.933333333333334","4.766666666666667","2.51","2025-04-28 18:00:00.0"
"SZKO?A PODSTAWOWA NR 4 IM. JANA MEJSTERA W S?OMCZYNIE","WILANOWSKA","05-520","KONSTANCIN-JEZIORNA","21.15329336951058","52.060898677662806","57.70000000000001","1008.0","5.900000000000001","5.599999999999999","3.43","2025-04-28 18:00:00.0"
"PUBLICZNA SZKO?A PODSTAWOWA W TOMASZOWIE","LE?NA","68-114","TOMASZ?W","15.404658513741197","51.622513710796575","5.0","1004.2666666666668","23.099999999999998","2.2666666666666666","1.16","2025-04-28 18:00:00.0"
"SZKO?A PODSTAWOWA NR 29 W LUBLINIE","WAJDELOTY","20-604","LUBLIN","22.5237824136724","51.2433286093504","30.849999999999998","1001.0","17.383333333333333","3.9166666666666665","3.75","2025-04-28 18:00:00.0"
"SZKO?A PODSTAWOWA W SZKODNEJ","","39-126","SZKODNA","21.6475593266686","49.9841839576423","23.419999999999998","986.8299999999999","21.65","1.8800000000000001","1.8800000000000001","2025-04-28 18:00:00.0"
"SZKO?A PODSTAWOWA IM. MARII KONOPNICKIEJ W BUDACH G?OGOWSKICH","BUDY G?OGOWSKIE","36-060","BUDY G?OGOWSKIE","21.9052064322315","50.1600258408686","29.96666666666667","996.9166666666666","18.95","4.083333333333333","4.0","2025-04-28 18:00:00.0"
"SZKO?A PODSTAWOWA W KL?CZANACH","B?DZIEMY?L, KLECZANY","39-127","KL?CZANY","21.7805870168847","50.0725485846066","23.108333333333334","998.0","18.816666666666666","4.25","4.0","2025-04-28 18:00:00.0"
"SZKO?A PODSTAWOWA IM. ?W. JADWIGI KR?LOWEJ W SIETESZY","SIETESZ","37-206","SIETESZ","22.3548248494236","49.9901875306008","23.03333333333333","993.0","23.666666666666668","4.583333333333333","3.75","2025-04-28 18:00:00.0"
"PUBLICZNA SZKO?A PODSTAWOWA W BACH?RCU","BACH?RZEC","37-750","BACH?RZEC","22.334908846237","49.82477572297","21.891666666666666","994.0","29.84166666666667","3.0","3.0","2025-04-28 18:00:00.0"
"SZKO?A PODSTAWOWA NR 3 IM. JANA PAW?A II W ROPCZYCACH","3 MAJA","39-100","ROPCZYCE","21.5832672438671","50.0389694490123","21.53333333333333","999.0","19.974999999999998","3.0","2.5833333333333335","2025-04-28 18:00:00.0"
"SZKO?A PODSTAWOWA NR 10 IM. OR?A BIA?EGO W SOSNOWCU","REYMONTA","41-200","SOSNOWIEC","19.1269172651723","50.2878010895257","17.116666666666667","993.0","32.333333333333336","4.916666666666667","4.083333333333333","2025-04-28 18:00:00.0"
"SZKO?A PODSTAWOWA NR 89 IM. KORNELA MAKUSZY?SKIEGO W KRAKOWIE","OS. PIAST?W","31-624","KRAK?W","20.0188257572655","50.1000269916206","37.875","995.0","19.900000000000002","7.0","6.0","2025-04-28 18:00:00.0"
"SZKO?A PODSTAWOWA NR 2  IM. KAZIMIERZA BRODZI?SKIEGO W BOCHNI","ORACKA","32-700","BOCHNIA","20.4250867479996","49.9702658831946","75.2","996.0","7.7","24.0","18.0","2025-04-28 18:00:00.0"
"SZKO?A PODSTAWOWA NR 1 IM. W?ADYS?AWA JAGIE??Y W OSIEKU","G??WNA","32-608","OSIEK","19.2631410879493","49.9511789367323","42.88333333333333","994.4166666666666","19.366666666666664","3.75","3.4166666666666665","2025-04-28 18:00:00.0"
"SZKO?A PODSTAWOWA IM. KAZIMIERZA G?RSKIEGO W ?OZINIE","MILICKA","55-095","?OZINA","17.180298682797538","51.23388117656271","29.266666666666666","1006.9666666666667","20.933333333333334","19.333333333333332","10.056666666666667","2025-04-28 18:00:00.0"
"PRZEDSZKOLE W KIE?CZOWIE","WROC?AWSKA","55-093","KIE?CZ?W","17.19065006929958","51.1371047031024","33.733333333333334","1004.6666666666666","19.400000000000002","3.6333333333333333","2.06","2025-04-28 18:00:00.0"
"SZKO?A PODSTAWOWA W LISZYNIE","UL. WAWRZY?CA SIKORY","09-408","LISZYNO","19.817459454245913","52.49033616836436","82.51","1015.35","6.61","71.98","43.72","2025-04-28 18:00:00.0"
"PRZEDSZKOLE W BLIZNEM JASI?SKIEGO","UL. TADEUSZA KO?CIUSZKI","05-082","BLIZNE JASI?SKIEGO","20.881159640505192","52.2438730196329","29.8","1020.6","18.8","3.3333333333333335","1.9433333333333334","2025-04-28 18:00:00.0"
"ZESP?? SZK?? W PRUDNIKU","UL. D?BROWSKIEGO","48-200","PRUDNIK","17.571637628835184","50.32109542835716","52.76666666666667","996.4","19.633333333333336","5.3999999999999995","3.08","2025-04-28 18:00:00.0"
"PRZEDSZKOLE ,,MI? USZATEK"" W OSTROROGU","UL. WRONIECKA","64-560","OSTROR?G","16.446531842328756","52.62862454862175","99.90000000000002","1011.8333333333334","33.46666666666667","4.833333333333333","2.716666666666667","2025-04-28 18:00:00.0"
"SZKO?A PODSTAWOWA NR 2 IM. GUSTAWA MORCINKA W TOSZKU","UL. WILKOWICKA","44-180","TOSZEK","18.527405971163624","50.454108128948924","47.1","997.6","20.099999999999998","4.833333333333333","2.66","2025-04-28 18:00:00.0"
"SZKO?A PODSTAWOWA IM. KAWALER?W ORDERU U?MIECHU W CZERSKU","UL. WARSZAWSKA","05-530","CZERSK","21.227091274384716","51.96063591615556 ","27.766666666666666","1009.3000000000001","19.466666666666665","3.6333333333333333","3.6333333333333333","2025-04-28 18:00:00.0"
"PUBLICZNA SZKO?A PODSTAWOWA IM. JANA PAW?A II W ROSZOWICKIM LESIE","UL. SZKOLNA","47-253","ROSZOWICKI LAS","18.21990066","50.26168468","31.84166666666667","1001.0166666666668","22.416666666666668","3.8833333333333333","3.3166666666666664","2025-04-28 18:00:00.0"
"SZKO?A PODSTAWOWA IM. KS. JANA TWARDOWSKIEGO W RACIMIERZU","UL. NIEPODLEG?O?CI","72-111","RACIMIERZ","14.65747308","53.7423708","21.342857142857145","1021.6142857142858","25.271428571428572","3.6999999999999997","3.1571428571428575","2025-04-28 18:00:00.0"
"I KATOLICKIE SPO?ECZNE LICEUM OG?LNOKSZTA?CACE IM.?W.BRATA ALBERTA CHMIELOWSKIEGO W PU?AWACH","UL. STANIS?AWA EUSTACHIEWICZA","24-100","PU?AWY","21.95614207","51.41935824","19.083333333333332","1007.0749999999999","22.625","2.7083333333333335","2.7083333333333335","2025-04-28 18:00:00.0"
"TECHNIKUM NR 4 W ZESPOLE SZK?? TECHNICZNYCH IM.M. SK?ODOWSKIEJ-CURIE W PU?AWACH","UL. WOJSKA POLSKIEGO","24-100","PU?AWY","21.97667461","51.41823622","22.974999999999998","1006.3666666666667","20.875","4.2","3.375","2025-04-28 18:00:00.0"
"SZKO?A PODSTAWOWA NR 2 IM. KRZYSZTOFA KAMILA BACZY?SKIEGO W PU?AWACH","AL. MA?A","24-100","PU?AWY","21.96276919","51.41579363","22.8","1006.2333333333335","19.841666666666665","3.65","2.9499999999999997","2025-04-28 18:00:00.0"
"SZKO?A PODSTAWOWA IM. HANSA CHRISTIANA ANDERSENA W JAWIDZU","","21-077","JAWIDZ","22.72203892","51.3706852","30.3","1007.8333333333334","18.808333333333334","11.941666666666668","11.25","2025-04-28 18:00:00.0"
"SZKO?A PODSTAWOWA NR 4 IM. PAPIE?A JANA PAW?A II W ??CZNEJ","UL. JA?MINOWA","21-010","??CZNA","22.88259013","51.29206273","34.608333333333334","1003.5333333333333","17.016666666666666","3.4333333333333336","3.15","2025-04-28 18:00:00.0"
"SZKO?A PODSTAWOWA IM.JOACHIMA LELEWELA W JAKUBOWICACH KONI?SKICH","UL. SZKOLNA","21-003","JAKUBOWICE KONI?SKIE","22.52628594","51.31010447","33.324999999999996","1001.0166666666668","17.166666666666668","3.5583333333333336","3.2916666666666665","2025-04-28 18:00:00.0"
"SZKO?A PODSTAWOWA W K?ODNICY DOLNEJ","","24-224","K?ODNICA DOLNA","22.28477957","51.06632652","35.19166666666667","999.4416666666666","17.099999999999998","3.0500000000000003","2.375","2025-04-28 18:00:00.0"
"SZKO?A PODSTAWOWA NR 6 IM. IRENY SENDLEROWEJ W CHE?MIE","UL. POWSTA?C?W WARSZAWY","22-100","CHE?M","23.479142939944662","51.126339150220325 ","19.108333333333334","999.5166666666668","23.541666666666668","2.5749999999999997","2.1083333333333334","2025-04-28 18:00:00.0"
"SZKO?A PODSTAWOWA NR 4 IM. KORNELA MAKUSZY?SKIEGO W BIA?EJ PODLASKIEJ","UL. STANIS?AWA MONIUSZKI","21-500","BIA?A PODLASKA","23.1240646","52.03658476","20.808333333333334","1005.9083333333333","20.441666666666666","3.9166666666666665","3.216666666666667","2025-04-28 18:00:00.0"
"SZKO?A PODSTAWOWA IM.KSI?DZA JANA TWARDOWSKIEGO W CZACH?WKU","UL. G??WNA","05-530","CZACH?WEK","21.0884246","51.96101922","31.291666666666668","1010.8083333333334","18.791666666666668","5.916666666666667","5.016666666666667","2025-04-28 18:00:00.0"
"LICEUM OG?LNOKSZTA?C?CE W LIPSKU","UL. ZWOLE?SKA","27-300","LIPSKO","21.65162688","51.16209825","17.0125","1003.325","24.75","5.525","4.5625","2025-04-28 18:00:00.0"
"TECHNIKUM NR 2 W GARWOLINIE","UL. ?O?NIERZY II ARMII WOJSKA POLSKIEGO","08-400","GARWOLIN","21.5953052","51.89704263","23.008333333333336","1007.7833333333333","20.466666666666665","4.758333333333334","3.9","2025-04-28 18:00:00.0"
"PUBLICZNA SZKO?A PODSTAWOWA IM. O. STANIS?AWA PAPCZY?SKIEGO W MARIA?SKIM PORZECZU","","08-470","MARIA?SKIE PORZECZE","21.33261521","51.88402213","23.0","1011.1428571428571","19.285714285714285","3.957142857142857","3.4","2025-04-28 18:00:00.0"
"SZKO?A MUZYCZNA I ST. W GARWOLINIE","UL. JANA PAW?A II","08-400","GARWOLIN","21.61280145","51.89874672","23.02857142857143","1007.3285714285714","19.557142857142857","5.385714285714286","4.357142857142857","2025-04-28 18:00:00.0"
"SZKO?A PODSTAWOWA NR 2 W KONSTANCINIE-JEZIORNEJ","UL. STEFANA ?EROMSKIEGO","05-510","KONSTANCIN-JEZIORNA","21.12317779","52.07946519","22.53333333333333","1011.4416666666666","20.466666666666665","3.658333333333333","3.2416666666666667","2025-04-28 18:00:00.0"
"TECHNIKUM NR 2 IM. EMILII PLATER W PIASECZNIE","UL. ALEJA BRZ?Z","05-501","PIASECZNO","21.02070292","52.0540252","30.5","1011.8333333333334","18.783333333333335","4.958333333333333","4.366666666666667","2025-04-28 18:00:00.0"
"PUBLICZNA SZKO?A PODSTAWOWA IM.KORNELA MAKUSZY?SKIEGO W UGNIEWIE","UL. SZKOLNA","07-300","UGNIEWO","21.91017286","52.8032487","25.22","1008.1200000000001","18.580000000000002","5.12","5.0600000000000005","2025-04-28 18:00:00.0"
"SZKO?A PODSTAWOWA NR 2 IM. FRYDERYKA CHOPINA W MALKINI G?RNEJ","UL. LE?NA","07-320","MA?KINIA G?RNA","22.05928062","52.6945031","25.224999999999998","1010.9833333333332","21.0","10.233333333333333","10.041666666666666","2025-04-28 18:00:00.0"
"SZKO?A PODSTAWOWA IM. B?OGOS?AWIONEGO OJCA STANIS?AWA PAPCZY?SKIEGO W K?TACH","UL. PU?AWSKA","05-532","K?TY","21.17263735","52.00208981","20.2","1009.4833333333332","22.183333333333334","4.391666666666667","3.908333333333333","2025-04-28 18:00:00.0"
"SZKO?A PODSTAWOWA NR 3 IM. ADAMA MICKIEWICZA W OSTRO??CE","UL. IGNACEGO JERZEGO SKOWRO?SKIEGO","07-417","OSTRO??KA","21.60307406","53.05404225","22.03333333333333","1009.6666666666666","20.833333333333332","5.666666666666667","5.266666666666667","2025-04-28 18:00:00.0"
"TECHNIKUM GASTRONOMICZNE W GDYNI","UL. MORSKA","81-222","GDYNIA","18.51581066","54.52508818","37.09166666666667","1020.1","15.333333333333334","4.841666666666667","4.308333333333334","2025-04-28 18:00:00.0"
"SZKO?A PODSTAWOWA W Z?OTOK?OSIE","UL. TRAUGUTTA","05-504","Z?OTOK?OS","20.90784407","52.00962311","30.258333333333336","1009.9916666666667","20.391666666666666","6.008333333333333","5.116666666666666","2025-04-28 18:00:00.0"
"SZKO?A PODSTAWOWA IM. FELIKSA KAPACKIEGO W CENDROWICACH","UL. SZKOLNA","05-530","CENDROWICE","21.13239127","51.96755856","25.183333333333334","1007.5333333333333","18.833333333333332","5.041666666666667","4.3999999999999995","2025-04-28 18:00:00.0"
"II LICEUM OG?LNOKSZTA?C?CE IM. EMILII PLATER W BIA?EJ PODLASKIEJ","UL. GABRIELA NARUTOWICZA","21-500","BIA?A PODLASKA","23.1217813","52.03188711","24.03333333333333","1008.625","20.791666666666668","2.6916666666666664","2.158333333333333","2025-04-28 18:00:00.0"
"SZKO?A PODSTAWOWA IM. KS. JANA TWARDOWSKIEGO W GLINIE","","07-320","GLINA","21.95984362","52.6962338","25.633333333333336","1008.9333333333334","19.266666666666666","4.575","4.558333333333334","2025-04-28 18:00:00.0"
"PUBLICZNE TECHNIKUM LE?NE ZESPO?U SZK?? W TU?OWICACH","UL. ZAMKOWA","49-130","TU?OWICE","17.65698382","50.59142765","32.28333333333333","1003.9166666666666","22.875","7.958333333333333","6.816666666666666","2025-04-28 18:00:00.0"
"SZKO?A PODSTAWOWA ZESPO?U SZK?? IM. BOLES?AWA CHROBREGO W NIEMODLINIE","UL. OPOLSKA ","49-100","NIEMODLIN","17.63285173","50.64185007","30.700000000000003","1005.0111111111112","23.755555555555556","7.366666666666666","6.555555555555555","2025-04-28 18:00:00.0"
"TECHNIKUM W RYDU?TOWACH","UL. OBYWATELSKA","44-280","RYDU?TOWY","18.42658537","50.07171957","34.583333333333336","986.975","20.8","4.366666666666666","3.841666666666667","2025-04-28 18:00:00.0"
"SZKO?A PODSTAWOWA IM.KARDYNA?A STEFANA WYSZY?SKIEGO W TELATYNIE","UL. KARDYNA?A STEFANA WYSZY?SKIEGO","22-652","TELATYN","23.8446095","50.52250671","27.90833333333333","996.375","18.26666666666667","3.3166666666666664","2.8833333333333333","2025-04-28 18:00:00.0"
"TECHNIKUM NR 1 W ?WIDNIKU","UL. SZKOLNA","21-045","?WIDNIK","22.69752657","51.22672919","29.09166666666667","998.7666666666668","17.666666666666668","3.3249999999999997","3.0583333333333336","2025-04-28 18:00:00.0"
"I LICEUM OG?LNOKSZTA?C?CE IM. STEFANA CZARNIECKIEGO W CHE?MIE","UL. STEFANA CZARNIECKIEGO","22-100","CHE?M","23.477739357670377","51.134834775533534","20.900000000000002","1000.7333333333332","23.266666666666666","2.625","2.2916666666666665","2025-04-28 18:00:00.0"
"SZKO?A PODSTAWOWA W O?DAKACH","","07-411","O?DAKI","21.692978","53.095518","22.116666666666664","1011.8583333333332","22.691666666666666","7.25","6.375","2025-04-28 18:00:00.0"
"SZKO?A PODSTAWOWA IM.J.WYBICKIEGO W POLNICY","","77-300","POLNICA","17.40057712","53.75198216","23.141666666666666","1006.2833333333333","21.708333333333332","4.425","3.966666666666667","2025-04-28 18:00:00.0"
"SZKO?A PODSTAWOWA W RAJKOWACH W ZESPOLE KSZTA?CENIA I WYCHOWANIA W RAJKOWACH","UL. JESIONOWA","83-130","RAJKOWY","18.7092112","53.9610738","19.158333333333335","1015.3916666666665","23.891666666666666","2.6166666666666667","2.308333333333333","2025-04-28 18:00:00.0"
"LICEUM OG?LNOKSZTA?C?CE W REDZIE","UL. ??KOWA","84-240","REDA","18.3577379","54.60185","31.439999999999998","1021.0","18.25","5.38","4.86","2025-04-28 18:00:00.0"
"SZKO?A PODSTAWOWA IM. MARYNARKI WOJENNEJ RP W OSTASZEWIE","UL. KO?CIUSZKI","82-112","OSTASZEWO","18.9507202","54.2131383","21.65","1021.65","22.15","28.450000000000003","23.25","2025-04-28 18:00:00.0"
"TECHNIKUM NR 2 W BYTOWIE","UL. HIERONIMA DERDOWSKIEGO","77-100","BYT?W","17.48812443","54.16585829","20.925","1006.4916666666667","20.191666666666666","2.7083333333333335","2.433333333333333","2025-04-28 18:00:00.0"
"SZKO?A PODSTAWOWA W ZIELINIE","UL. PRUDNICKA","47-370","ZIELINA","17.7989291","50.4408404","29.175","1000.4666666666667","26.041666666666668","5.441666666666666","4.6000000000000005","2025-04-28 18:00:00.0"
"SZKO?A PODSTAWOWA STOWARZYSZENIA ""Z?OTY POTOK"" W ??CE PRUDNICKIEJ","UL. G?UCHO?ASKA","48-200","??KA PRUDNICKA","17.528406","50.313494","35.05833333333333","988.8333333333334","23.391666666666666","7.408333333333334","6.466666666666666","2025-04-28 18:00:00.0"
"SZKO?A PODSTAWOWA W ?UBNIE","","77-140","?UBNO","17.22653098","54.15365707","26.483333333333334","1005.2916666666666","18.75","2.9916666666666667","2.4916666666666667","2025-04-28 18:00:00.0"
"PUBLICZNA SZKO?A PODSTAWOWA IM. EDMUNDA DYWELSKIEGO W ZBLEWIE","UL. KASZTELA?SKA","83-210","BYTONIA","18.28590547","53.9203933","21.375","1006.525","20.925","4.0","3.625","2025-04-28 18:00:00.0"
"LICEUM OG?LNOKSZTA?C?CE W CZ?UCHOWIE","UL. JANUSZA KUSOCI?SKIEGO","77-300","CZ?UCH?W","17.36617595","53.66292375","24.8","1003.1","19.150000000000002","2.9583333333333335","2.533333333333333","2025-04-28 18:00:00.0"
"SZKO?A PODSTAWOWA NR 3 IM. MARII KONOPNICKIEJ W BIA?EJ PODLASKIEJ","UL. SPORTOWA","21-500","BIA?A PODLASKA","23.119378","52.022177","25.14","1005.51","18.77","2.98","2.98","2025-04-28 18:00:00.0"
"PUBLICZNA SZKO?A PODSTAWOWA IM. KSI?DZA JANA TWARDOWSKIEGO W JANUSZKOWICACH","UL. LESIA?SKA","47-330","JANUSZKOWICE","18.1356599","50.3898439","34.542857142857144","1001.5142857142857","21.87142857142857","5.128571428571428","4.414285714285714","2025-04-28 18:00:00.0"
"SZKO?A PODSTAWOWA IM. MARII SK?ODOWSKIEJ-CURIE W ALWERNI","UL. MARII SK?ODOWSKIEJ-CURIE","32-566","ALWERNIA","19.542471211821844","50.06505227372774","32.141666666666666","986.4583333333334","20.608333333333334","4.591666666666667","3.975","2025-04-28 18:00:00.0"
"SZKO?A PODSTAWOWA IM. MIKO?AJA KOPERNIKA W BALINIE","UL. JAWORZNICKA","32-500","BALIN","19.373681797572548","50.171073102747464 ","39.95","985.7083333333334","19.599999999999998","4.758333333333334","4.316666666666666","2025-04-28 18:00:00.0"
"TECHNIKUM NR 2 IM. BOHATER?W WESTERPLATTE W KLUCZBORKU","UL. BYCZY?SKA","46-200","KLUCZBORK","18.20597356","50.97669665","16.883333333333333","1000.525","25.858333333333334","1.9833333333333334","1.9749999999999999","2025-04-28 18:00:00.0"
"PUBLICZNA SZKO?A PODSTAWOWA IM.HALINY SEMENOWICZ W MOSZCZANCE","","48-200","MOSZCZANKA","17.483901","50.295686","41.949999999999996","985.9250000000001","19.633333333333333","5.416666666666667","5.416666666666667","2025-04-28 18:00:00.0"
"BRAN?OWA SZKO?A I STOPNIA W ?ASKARZEWIE","UL. KOLEJOWA","08-450","?ASKARZEW","21.599958","51.788404","23.96666666666667","1006.125","19.308333333333334","4.683333333333334","3.858333333333333","2025-04-28 18:00:00.0"
"SZKO?A PODSTAWOWA IM.?WIRKI I WIGURY W RADOCZY","UL. D?BOWA","34-100","RADOCZA","19.4703966","49.9176909","37.75714285714286","989.342857142857","20.457142857142856","6.085714285714286","4.914285714285714","2025-04-28 18:00:00.0"
"SZKO?A PODSTAWOWA NR 5 IM. MARII KONOPNICKIEJ W CHE?MIE","UL. I PU?KU SZWOLE?ER?W","22-100","CHE?M","23.481093","51.134591","25.125","999.8583333333332","18.891666666666666","3.1333333333333333","2.6333333333333333","2025-04-28 18:00:00.0"
"LICEUM OG?LNOKSZTA?C?CE IM. KS. J. ST. PASIERBA W PELPLINIE","UL. SAMBORA","83-130","PELPLIN","18.6979422","53.9283135","21.2625","1016.8249999999999","20.6875","4.05","3.6375","2025-04-28 18:00:00.0"
"TECHNIKUM W G?OG?WKU","UL. POWSTA?C?W","48-250","G?OG?WEK","17.86435","50.35349","30.933333333333334","997.875","24.95","6.466666666666668","5.366666666666667","2025-04-28 18:00:00.0"
"SZKO?A PODSTAWOWA NR 2 IM. KS. STANIS?AWA STASZICA W CHE?MIE","UL. OB?O?SKA","22-100","CHE?M","23.47575683","51.13815167","25.066666666666666","1001.15","20.349999999999998","3.7166666666666663","3.1999999999999997","2025-04-28 18:00:00.0"
"SZKO?A PODSTAWOWA NR 8 IM. BOLES?AWA ZYGMUNTA WIRSKIEGO W CHE?MIE","UL. PO?ANIECKA","22-100","CHE?M","23.477306","51.123224","25.39","999.46","19.31","3.1","2.6399999999999997","2025-04-28 18:00:00.0"
"PUBLICZNA SZKO?A PODSTAWOWA W DZIEP??CI","","97-500","DZIEP???","19.5287876","51.0531482","30.525000000000002","991.3583333333332","21.491666666666664","5.433333333333334","4.291666666666667","2025-04-28 18:00:00.0"
"SZKO?A PODSTAWOWA NR 10 Z ODDZIA?AMI INTEGRACYJNYMI IM. WALERIANA ?UKASI?SKIEGO W ZAMO?CIU","UL. PEOWIAK?W","22-400","ZAMO??","23.256959617892495","50.72103172968299 ","20.858333333333334","997.2083333333334","23.46666666666667","3.141666666666667","2.6666666666666665","2025-04-28 18:00:00.0"
"ZESP?? SZK?? GMINNYCH IM. HENRYKA SIENKIEWICZA W BOGUCICACH SZKO?A PODSTAWOWA W BOGUCICACH","","32-711","BOGUCICE","20.498337","50.057389","25.266666666666666","1002.2166666666667","27.474999999999998","2.1666666666666665","1.8583333333333334","2025-04-28 18:00:00.0"
"PUBLICZNA SZKO?A PODSTAWOWA W NIEDZIELISKACH","","32-820","NIEDZIELISKA","20.632091271164818","50.09115399071606","29.685714285714287","1000.4714285714286","20.542857142857144","3.2714285714285714","2.914285714285714","2025-04-28 18:00:00.0"
"TECHNIKUM W ZESPOLE SZK?? AGROBIZNESU IM.MACIEJA RATAJA W KLEMENTOWICACH","","24-170","KLEMENTOWICE","22.113069","51.362926","26.291666666666668","1003.5500000000001","19.724999999999998","0.7166666666666667","0.47500000000000003","2025-04-28 18:00:00.0"
"PUBLICZNA SZKO?A PODSTAWOWA IM. KAZIMIERZA RAS?AWSKIEGO W BORZECHOWIE ","","24-224","BORZECH?W-KOLONIA","22.2853918","51.09246552","24.8","998.85","20.15","2.5","2.1","2025-04-28 18:00:00.0"
"SZKO?A PODSTAWOWA NR 117 IM. KRAKOWSKIEJ KONGREGACJI KUPIECKIEJ W KRAKOWIE","UL. JANA KURCZABA","30-868","KRAK?W-PODG?RZE","20.006872057670375","50.01317838097981","36.78333333333334","997.2333333333332","19.775000000000002","6.683333333333334","6.2","2025-04-28 18:00:00.0"
"VI LICEUM OG?LNOKSZTA?C?CE IM. HUGONA KO???TAJA W LUBLINIE","UL. ADAMA MICKIEWICZA","20-466","LUBLIN","22.577994","51.216809","28.610000000000003","1002.7700000000001","18.580000000000002","3.06","2.87","2025-04-28 18:00:00.0"
"LICEUM OG?LNOKSZTA?C?CE IM. MIKO?AJA KOPERNIKA W NASIELSKU","UL. LIPOWA","05-190","NASIELSK","20.7955019","52.59533614","27.941666666666666","1011.3000000000001","19.833333333333332","6.783333333333334","5.791666666666667","2025-04-28 18:00:00.0"
"SZKO?A PODSTAWOWA IM. WINCENTEGO WITOSA W GROMNIKU","UL. WITOSA","33-180","GROMNIK","20.959304","49.840276","21.46666666666667","992.5","27.633333333333336","2.9333333333333336","2.6","2025-04-28 18:00:00.0"
"AKADEMIA NAJM?ODSZYCH KRZYSZTOF GO?A? NIEPUBLICZNA SZKO?A PODSTAWOWA W KADZIDLE","UL. BRZOZOWA","07-420","KADZID?O","21.450353","53.231522","18.083333333333332","1008.5749999999999","22.95","3.8083333333333336","3.358333333333334","2025-04-28 18:00:00.0"
"SZKO?A PODSTAWOWA IM. ?W. STANIS?AWA KOSTKI W AMELINIE","","06-212","AMELIN","20.92818124","52.98166409","25.633333333333336","1009.2083333333334","18.425","6.1499999999999995","5.366666666666667","2025-04-28 18:00:00.0"
"SZKO?A PODSTAWOWA SPECJALNA NR 44 IM. JANA BRZECHWY W KRAKOWIE","UL. ZAK?TEK","30-076","KRAK?W","19.916426","50.076299","33.46666666666667","996.725","21.1","7.658333333333334","6.375","2025-04-28 18:00:00.0"
"SZKO?A PODSTAWOWA NR 1 IM. ?W. JADWIGI KR?LOWEJ W PODWILKU","","34-722","PODWILK","19.7397286","49.547978","38.233333333333334","943.0166666666668","19.658333333333335","3.6833333333333336","3.525","2025-04-28 18:00:00.0"
"LICEUM OG?LNOKSZTA?C?CE KADET?W RZECZYPOSPOLITEJ POLSKIEJ W LIPINACH","","26-425","LIPINY","20.511418","51.54591","20.691666666666666","1005.2583333333333","23.150000000000002","2.025","1.6500000000000001","2025-04-28 18:00:00.0"
"SZKO?A PODSTAWOWA NR 12 IM. JANA PAW?A II W TOMASZOWIE MAZOWIECKIM","UL. WIEJSKA","97-200","TOMASZ?W MAZOWIECKI","20.0210344","51.5251204","17.474999999999998","1001.7166666666667","25.508333333333336","3.4416666666666664","2.858333333333333","2025-04-28 18:00:00.0"
"SZKO?A PODSTAWOWA NR 1 W BIA?YM BORZE","UL. DWORCOWA","78-425","BIA?Y B?R","16.84535152","53.89895274","19.791666666666668","1000.8083333333334","20.333333333333332","1.9749999999999999","1.675","2025-04-28 18:00:00.0"
"SZKO?A PODSTAWOWA IM.NOBLIST?W POLSKICH W SIEMY?LU","UL. SZKOLNA","78-123","SIEMY?L","15.53351351","54.02888072","27.483333333333334","1018.8833333333333","18.841666666666665","3.0666666666666664","2.7916666666666665","2025-04-28 18:00:00.0"
"SZKO?A PODSTAWOWA NR 1 IM. ADAMA MICKIEWICZA W PO?CZYNIE-ZDROJU","UL. GRUNWALDZKA","78-320","PO?CZYN-ZDR?J","16.095199000000004","53.767893339499636","22.21666666666667","1011.75","20.316666666666666","2.066666666666667","1.95","2025-04-28 18:00:00.0"
"ARCHIDIECEZJALNA SZKO?A MUZYCZNA II ST. IM. KS. KARD. FRANCISZKA MACHARSKIEGO W KRAKOWIE","UL. PROSTA","30-814","KRAK?W-PODG?RZE","19.988467","50.020869","20.291666666666668","995.7333333333332","31.849999999999998","4.708333333333333","3.9416666666666664","2025-04-28 18:00:00.0"
"SZKO?A PODSTAWOWA Z ODDZIA?AMI INTEGRACYJNYMI NR 30 IM. KAZIMIERZA PU?ASKIEGO W KRAKOWIE","UL. KONFEDERACKA","30-306","KRAK?W-PODG?RZE","19.927626","50.048977","27.75","997.5333333333333","25.400000000000002","5.5249999999999995","4.508333333333334","2025-04-28 18:00:00.0"
"SPO?ECZNA SZKO?A PODSTAWOWA NR 2 SPO?ECZNEGO TOWARZYSTWA O?WIATOWEGO W TARNOWIE","UL. JANA MATEJKI","33-100","TARN?W","20.98127883","50.01473267","27.133333333333336","998.5666666666666","20.8","3.8833333333333333","3.35","2025-04-28 18:00:00.0"
"XII LICEUM OG?LNOKSZTA?C?CE W ZESPOLE SZK?? MECHANICZNO-ELEKTRYCZNYCH W TARNOWIE","UL. J?ZEFA SZUJSKIEGO","33-100","TARN?W","20.975575","50.015268","25.708333333333332","998.5416666666666","22.183333333333334","3.641666666666667","3.15","2025-04-28 18:00:00.0"
"TECHNIKUM NR 1 W ZESPOLE SZK?? TECHNICZNYCH IM.IGNACEGO MO?CICKIEGO W TARNOWIE","UL. EUGENIUSZA KWIATKOWSKIEGO","33-101","TARN?W","20.9172948","50.01387361","26.525000000000002","999.1666666666666","21.8","3.983333333333333","3.483333333333333","2025-04-28 18:00:00.0"
"SZKO?A PODSTAWOWA IM. JANA TWARDOWSKIEGO W BAR?OMINIE","UL. SZKOLNA","84-242","BAR?OMINO","18.09937753","54.53266693","32.075","1008.725","18.075","3.575","3.075","2025-04-28 18:00:00.0"
"SZKO?A PODSTAWOWA W ZESPOLE SZK?? IM.M?CZENNIK?W MARSZU ?MIERCI KL STUTTHOF W GARCZEGORZU","","84-351","GARCZEGORZE","17.72784195","54.59420501","38.199999999999996","1015.4416666666666","16.433333333333334","38.775","33.824999999999996","2025-04-28 18:00:00.0"
"PUBLICZNA SZKO?A PODSTAWOWA NR 1 IM.BOHATER?W WESTERPLATTE W PRUDNIKU","UL. PODG?RNA","48-200","PRUDNIK","17.595989","50.32052","44.175000000000004","992.0583333333334","19.408333333333335","9.933333333333334","9.025","2025-04-28 18:00:00.0"
"ZESP?? SZK?? GMINNYCH IM. MIKO?AJA KOPERNIKA W GAW?OWIE SZKO?A PODSTAWOWA Z ODDZIA?AMI SPORTOWYMI W GAW?OWIE","","32-711","GAW??W","20.463199","50.026547","30.141666666666666","999.5166666666668","20.866666666666667","3.5666666666666664","3.225","2025-04-28 18:00:00.0"
"SZKO?A PODSTAWOWA SPECJALNA W GR?JCU","UL. POLNA","05-600","GR?JEC","20.863021","51.862928","22.308333333333334","1004.2583333333333","19.341666666666665","3.85","3.1750000000000003","2025-04-28 18:00:00.0"
"PUBLICZNA SZKO?A PODSTAWOWA W SUCHEJ","UL. SZLACHECKA","26-800","SUCHA","20.953664","51.617246","23.316666666666666","1007.3499999999999","20.55","2.8666666666666667","2.625","2025-04-28 18:00:00.0"
"TECHNIKUM W WARCE","UL. OBWODOWA","05-660","WARKA","21.182782","51.79066","21.633333333333336","1008.6583333333333","20.2","3.6999999999999997","3.0666666666666664","2025-04-28 18:00:00.0"
"SZKO?A PODSTAWOWA NR 4 W RYDU?TOWACH","UL. STRZELC?W BYTOMSKICH","44-280","RYDU?TOWY","18.417777","50.06633209","31.391666666666666","988.8166666666666","21.791666666666668","2.6","2.325","2025-04-28 18:00:00.0"
"PUBLICZNA SZKO?A PODSTAWOWA NR 1 IM. BOLES?AWA KRZYWOUSTEGO W KO?UCHOWIE","UL. CHOPINA","67-120","KO?UCH?W","15.5962077","51.7425702","25.5","1009.4","21.1","12.7","10.9","2025-04-28 18:00:00.0"
"TECHNIKUM IM. ZES?A?C?W SYBIRU W BRODNICY","UL. KARBOWSKA","87-300","BRODNICA","19.4065091","53.2579165","22.78333333333333","1019.3083333333334","20.591666666666665","6.933333333333334","5.916666666666667","2025-04-28 18:00:00.0"
"PUBLICZNA SZKO?A PODSTAWOWA W GNIEWOSZOWIE","UL. KONOPNICKIEJ","26-920","GNIEWOSZ?W","21.8112","51.471874","19.349999999999998","1007.5166666666668","25.083333333333332","5.733333333333333","4.666666666666667","2025-04-28 18:00:00.0"
"PUBLICZNA SZKO?A PODSTAWOWA W GOSZCZYNIE","UL. ARMII KRAJOWEJ","05-610","GOSZCZYN","20.85589777","51.73236675","16.919999999999998","1004.4200000000001","26.4","2.88","2.3600000000000003","2025-04-28 18:00:00.0"
"LICEUM OG?LNOKSZTA?C?CE W TARCZYNIE","UL. KS. CZES?AWA OSZKIELA","05-555","TARCZYN","20.83477","51.98106","21.5","1006.6333333333333","24.166666666666668","3.85","3.4250000000000003","2025-04-28 18:00:00.0"
"SZKO?A PODSTAWOWA IM. B?OGOS?AWIONEGO KS. JERZEGO POPIE?USZKI W NIECZAJNIE G?RNEJ","","33-205","NIECZAJNA G?RNA","21.052364","50.180347","24.441666666666666","999.775","22.683333333333334","3.3833333333333333","2.841666666666667","2025-04-28 18:00:00.0"
"SZKO?A PODSTAWOWA NR 86 IM. POWSTA?C?W ?L?SKICH W KRAKOWIE","OS. OSIEDLE JAGIELLO?SKIE","31-833","KRAK?W-NOWA HUTA","20.027067","50.084753","25.78","995.74","26.139999999999997","6.659999999999999","5.5200000000000005","2025-04-28 18:00:00.0"
"SZKO?A PODSTAWOWA IM. BATALIONU ""BARBARA"" AK W PAW?ZOWIE","","33-103","PAW?Z?W","20.98588298","50.07066136","19.36","994.5200000000001","27.32","2.82","2.52","2025-04-28 18:00:00.0"
"PUBLICZNA SZKO?A PODSTAWOWA IM. JANA PAW?A II W RAJBROCIE","","32-725","RAJBROT","20.48706815","49.82154633","31.808333333333334","982.4666666666667","22.258333333333336","2.6166666666666667","2.2916666666666665","2025-04-28 18:00:00.0"
"SZKO?A PODSTAWOWA IM. POWSTA?C?W STYCZNIOWYCH W DALIKOWIE","UL. ??CZYCKA","99-205","DALIK?W","19.10104737","51.8835744","23.741666666666664","1005.275","19.883333333333333","3.6166666666666667","3.0500000000000003","2025-04-28 18:00:00.0"
"PUBLICZNA SZKO?A PODSTAWOWA W JAWORZU G?RNYM","","39-223","JAWORZE G?RNE","21.354123","49.94549","20.208333333333332","994.9083333333333","26.608333333333334","2.9583333333333335","2.533333333333333","2025-04-28 18:00:00.0"
"SZKO?A PODSTAWOWA NR 234 IM. JULIANA TUWIMA W WARSZAWIE","UL. ESPERANTO","01-049","WARSZAWA","20.980951","52.244004","23.46666666666667","1009.2333333333332","19.241666666666667","6.641666666666667","6.6000000000000005","2025-04-28 18:00:00.0"
"XI LICEUM OG?LNOKSZTA?C?CE IM. MIKO?AJA REJA W WARSZAWIE","PL. PLAC STANIS?AWA MA?ACHOWSKIEGO","00-063","WARSZAWA","21.01075177068874","52.238891020514885 ","21.96666666666667","1009.2916666666666","20.8","3.7416666666666667","3.5833333333333335","2025-04-28 18:00:00.0"
"SZKO?A PODSTAWOWA IM. ?W. JADWIGI KR?LOWEJ POLSKI W LISIEJ G?RZE","UL. SZKOLNA","33-140","LISIA G?RA","21.04434023989556","50.081408096695185 ","19.083333333333332","993.0833333333334","27.125","2.408333333333333","2.2083333333333335","2025-04-28 18:00:00.0"
"SZKO?A PODSTAWOWA NR 89 IM. TADEUSZA MAZOWIECKIEGO W GDA?SKU","UL. SZYPR?W","80-335","GDA?SK","18.5764229","54.422398","55.574999999999996","1022.9916666666667","13.375","8.041666666666666","6.816666666666666","2025-04-28 18:00:00.0"
"SZKO?A PODSTAWOWA NR 82 IM. PROF. JANA CZOCHRALSKIEGO W GDA?SKU","UL. RADAROWA","80-298","GDA?SK","18.4834117","54.3881906","30.358333333333334","1004.4250000000001","17.858333333333334","5.383333333333333","4.633333333333333","2025-04-28 18:00:00.0"
"SZKO?A TECHNICZNA BYDGOSKIEGO ZAK?ADU DOSKONALENIA ZAWODOWEGO W CHOJNICACH","UL. KO?CIERSKA","89-600","CHOJNICE","17.57105185","53.69729052","22.258333333333336","1001.4416666666666","20.983333333333334","3.0","2.7083333333333335","2025-04-28 18:00:00.0"
"PRYWATNA SZKO?A PODSTAWOWA ""NAJA SZKO?A"" W WEJHEROWIE","UL. PRZEMYS?OWA","84-200","WEJHEROWO","18.21802095","54.61295281","28.2","1018.8833333333333","19.308333333333334","3.6833333333333336","3.1666666666666665","2025-04-28 18:00:00.0"
"ZESP?? PLAC?WEK O?WIATOWYCH SZKO?A PODSTAWOWA IM. J?ZEFA BEMA W WOLI FILIPOWSKIEJ","UL. SZKOLNA","32-065","WOLA FILIPOWSKA","19.5849512","50.1324622","28.8","989.9083333333333","25.508333333333336","3.7916666666666665","3.3249999999999997","2025-04-28 18:00:00.0"
"SZKO?A PODSTAWOWA W NOWYCH ?UBKACH","","09-454","NOWE ?UBKI","20.0336032","52.5782308","29.4","1006.05","18.200000000000003","10.0","8.8","2025-04-28 18:00:00.0"
"SZKO?A PODSTAWOWA IM. KPR. FELIKSA IGNACEGO GRABOWSKIEGO W ZESPOLE PLAC?WEK O?WIATOWYCH W BODZANOWIE","UL. WYSZOGRODZKA","09-470","CHODKOWO-DZIA?KI","20.0374191","52.4989335","0.0","990.0","0.5","8.475","7.6625","2025-04-28 18:00:00.0"
"SZKO?A PODSTAWOWA NR 36 IM. JULIANA TUWIMA W ZABRZU","PL. PLAC WARSZAWSKI","41-800","ZABRZE","18.78893235","50.30422484","30.241666666666664","991.6166666666667","20.641666666666666","4.158333333333333","3.483333333333333","2025-04-28 18:00:00.0"
"III LICEUM OG?LNOKSZTA?C?CE Z ODDZIA?AMI DWUJ?ZYCZNYMI W ZABRZU","UL. HENRYKA SIENKIEWICZA","41-800","ZABRZE","18.7957049","50.29655227","20.341666666666665","989.6333333333333","27.05","3.608333333333333","3.016666666666667","2025-04-28 18:00:00.0"
"SZKO?A PODSTAWOWA NR 48 W ZABRZU W CENTRUM KSZTA?CENIA OG?LNEGO I ZAWODOWEGO W ZABRZU","UL. ZWROTNICZA","41-807","ZABRZE","18.76624","50.343641","19.77","992.43","27.68","4.66","3.91","2025-04-28 18:00:00.0"
"BRAN?OWA SZKO?A I STOPNIA NR 6 W ZABRZU W ZABRZA?SKIM CENTRUM KSZTA?CENIA OG?LNEGO I ZAWODOWEGO W ZABRZU","UL. MARSZA?KA J?ZEFA PI?SUDSKIEGO","41-800","ZABRZE","18.76296398","50.29894695","30.525000000000002","993.0333333333333","21.05","5.033333333333333","4.116666666666666","2025-04-28 18:00:00.0"
"IV LICEUM OG?LNOKSZTA?C?CE IM. MIKO?AJA REJA W ZABRZU","UL. GEN. W?ADYS?AWA ANDERSA","41-808","ZABRZE","18.795194","50.369265","28.76","989.45","21.470000000000002","5.85","4.86","2025-04-28 18:00:00.0"
"SZKO?A PODSTAWOWA NR 41 IM. W?ADYS?AWA BRONIEWSKIEGO W GLIWICACH","UL. KORMORAN?W","44-100","GLIWICE","18.6561","50.274791","33.1","992.7454545454547","20.70909090909091","4.818181818181818","4.0181818181818185","2025-04-28 18:00:00.0"
"SZKO?A PODSTAWOWA NR 7 IM. ADAMA MICKIEWICZA W GLIWICACH","UL. TARNOG?RSKA","44-100","GLIWICE","18.684621","50.306626","30.675","992.7083333333334","21.791666666666668","5.216666666666667","4.316666666666666","2025-04-28 18:00:00.0"
"MIEJSKA SZKO?A PODSTAWOWA Z ODDZIA?AMI INTEGRACYJNYMI NR 2 IM. KAROLA MIARKI W KNUROWIE","UL. WILSONA","44-190","KNUR?W","18.664685","50.223275","32.64166666666667","993.4333333333334","21.391666666666666","4.316666666666666","3.6666666666666665","2025-04-28 18:00:00.0"
"SZKO?A PODSTAWOWA IM. MARGARETHY KAMPRAD W JAROSTACH","UL. LE?NA","97-310","JAROSTY","19.68775849","51.45636536","18.533333333333335","999.1333333333334","27.055555555555557","2.966666666666667","2.966666666666667","2025-04-28 18:00:00.0"
"SZKO?A PODSTAWOWA IM. DR HENRYKA JORDANA W KSAWEROWIE","UL. ZACHODNIA","95-054","KSAWER?W","19.39486431","51.68227822","20.566666666666666","999.8166666666666","23.441666666666666","3.7416666666666667","3.1166666666666667","2025-04-28 18:00:00.0"
"BRAN?OWA SZKO?A I STOPNIA NR 1 W OPOCZNIE","UL. WOJCIECHA KOSSAKA","26-300","OPOCZNO","20.27237638","51.37764127","24.075","999.6916666666666","19.724999999999998","2.9916666666666667","2.4833333333333334","2025-04-28 18:00:00.0"
"SZKO?A PODSTAWOWA NR 157 IM. IGNACEGO JANA PADEREWSKIEGO W KRAKOWIE","UL. LUDWIKA RYDYGIERA","30-695","KRAK?W-PODG?RZE","20.00607","50.006338","34.84166666666666","993.6833333333334","21.066666666666666","5.566666666666666","4.6","2025-04-28 18:00:00.0"
"I LICEUM OG?LNOKSZTA?C?CE IM. J?DRZEJA ?NIADECKIEGO W PABIANICACH","UL. STANIS?AWA MONIUSZKI","95-200","PABIANICE","19.32977177","51.65677453","18.433333333333334","999.3166666666666","24.96666666666667","3.4333333333333336","2.8166666666666664","2025-04-28 18:00:00.0"
"SZKO?A PODSTAWOWA IM.MARII KONOPNICKIEJ W ROZTOCE","","34-606","ROZTOKA","20.4571424","49.6263815","28.8","959.725","23.983333333333334","4.858333333333333","4.208333333333333","2025-04-28 18:00:00.0"
"PUBLICZNA SZKO?A PODSTAWOWA W STOBIECKU SZLACHECKIM","","97-561","STOBIECKO SZLACHECKIE","19.38629184","51.10621326","29.150000000000002","994.8333333333334","20.775","3.108333333333333","3.108333333333333","2025-04-28 18:00:00.0"
"SZKO?A PODSTAWOWA IM. JANA PAW?A II W USTKOWIE","","98-290","USTK?W","18.600692","51.766123","31.883333333333336","1006.7333333333332","18.891666666666666","4.008333333333334","3.3666666666666667","2025-04-28 18:00:00.0"
"SZKO?A PODSTAWOWA NR 60 IM. STANIS?AWA WYSPIA?SKIEGO W KRAKOWIE","UL. KAZIMIERZA ODNOWICIELA","31-481","KRAK?W-?R?DMIE?CIE","19.970521","50.088055","34.291666666666664","995.8583333333332","20.175","6.5","5.5","2025-04-28 18:00:00.0"
"SZKO?A PODSTAWOWA IM. MARSZA?KA J?ZEFA PI?SUDSKIEGO W WARTKOWICACH","UL. LEGION?W POLSKICH","99-220","WARTKOWICE","19.00434298","51.97577194","21.808333333333334","1009.3333333333334","22.583333333333332","3.5749999999999997","3.025","2025-04-28 18:00:00.0"
"SZKO?A PODSTAWOWA NR 2 IM. KONSTYTUCJI 3-GO MAJA W M?CINIE","","34-654","M?CINA","20.5404381","49.7016283","27.816666666666666","965.9083333333333","24.15833333333333","3.2416666666666667","2.7916666666666665","2025-04-28 18:00:00.0"
"BRAN?OWA SZKO?A I STOPNIA NR 2 W GORLICACH","UL. J?ZEFA MICHALUSA","38-300","GORLICE","21.173963","49.66959","30.21111111111111","988.9333333333333","19.98888888888889","3.177777777777778","2.8111111111111113","2025-04-28 18:00:00.0"
"SZKO?A PODSTAWOWA NR 2 IM HENRYKA SIENKIEWICZA W PRZYSZOWEJ","","34-604","PRZYSZOWA","20.4806341","49.6603381","32.519999999999996","967.5799999999999","22.7","4.7","4.32","2025-04-28 18:00:00.0"
"SZKO?A PODSTAWOWA NR 1 Z ODDZIA?AMI INTEGRACYJNYMI W RACIBORZU","UL. CECYLII","47-400","RACIB?RZ","18.2321525","50.0999982","23.375","999.8499999999999","27.175","2.65","2.2583333333333333","2025-04-28 18:00:00.0"
"SZKO?A PODSTAWOWA IM. BOHATER?W WESTERPLATTE W BIE?KOWICACH","UL. SZKOLNA","47-451","BIE?KOWICE","18.2107215","50.0252972","23.0","996.9833333333332","27.708333333333332","2.85","2.408333333333333","2025-04-28 18:00:00.0"
"SZKO?A PODSTAWOWA IM. ?W. STANIS?AWA KOSTKI W NOWEJ WSI SZLACHECKIEJ","UL. SZKOLNA","32-060","NOWA WIE? SZLACHECKA","19.6970908","50.026212","29.041666666666668","991.9333333333334","22.491666666666664","21.483333333333334","20.075","2025-04-28 18:00:00.0"
"SZKO?A PODSTAWOWA NR 3 IM. MARII D?BROWSKIEJ W RESZLU","UL. MARII KONOPNICKIEJ","11-440","RESZEL","21.1486175","54.052554","23.958333333333332","1010.3000000000001","19.724999999999998","2.875","2.3583333333333334","2025-04-28 18:00:00.0"
"SZKO?A PODSTAWOWA NR 1 IM. MIKO?AJA KOPERNIKA W W?GORZEWIE","UL. PIONIER?W","11-600","W?GORZEWO","21.7379192","54.2136049","20.941666666666666","1007.9583333333334","21.858333333333334","2.191666666666667","1.8833333333333335","2025-04-28 18:00:00.0"
"ZESP?? SZK?? GMINNYCH IM. HENRYKA SIENKIEWICZA W STANIS?AWICACH SZKO?A PODSTAWOWA W STANIS?AWICACH","","32-015","STANIS?AWICE","20.350192","49.982029","23.508333333333336","998.3666666666667","27.05","3.8249999999999997","3.375","2025-04-28 18:00:00.0"
"TECHNIKUM NR 3 W ZESPOLE SZK?? NR 3 IM. KS. PROF. J?ZEFA TISCHNERA W BOCHNI","UL. KRAKOWSKA","32-700","BOCHNIA","20.421654","49.965508","29.34166666666667","995.75","20.816666666666666","2.9250000000000003","2.475","2025-04-28 18:00:00.0"
"SZKO?A PODSTAWOWA NR 94 W ?ODZI","UL. ZACISZE","90-228","??D?-?R?DMIE?CIE","19.47642378","51.77789288","23.366666666666664","996.7416666666667","19.508333333333333","4.8","4.041666666666667","2025-04-28 18:00:00.0"
"SZKO?A PODSTAWOWA NR 1 IM. STEFANA ?EROMSKIEGO W ?UROMINIE","UL. WYZWOLENIA","09-300","?UROMIN","19.911175","53.071036","29.29090909090909","1006.9727272727273","19.30909090909091","6.881818181818182","6.8","2025-04-28 18:00:00.0"
"TECHNIKUM IM. WINCENTEGO WITOSA W STUDZIE?CU","","09-200","STUDZIENIEC","19.640243","52.877888","27.758333333333336","1010.775","20.016666666666666","5.9750000000000005","5.458333333333333","2025-04-28 18:00:00.0"
"SZKO?A PODSTAWOWA W SYPITKACH","","19-314","SYPITKI","22.5643375","53.7876812","24.572727272727274","1007.0363636363636","17.59090909090909","7.763636363636363","7.027272727272727","2025-04-28 18:00:00.0"
"SZKO?A PODSTAWOWA IM. TADEUSZA KO?CIUSZKI W ZBROS?AWICACH","UL. WOLNO?CI","42-674","ZBROS?AWICE","18.74511","50.415455","30.59166666666667","991.6999999999999","21.05","6.116666666666667","5.3500000000000005","2025-04-28 18:00:00.0"
"SZKO?A PODSTAWOWA NR 4 Z ODDZIA?AMI SPORTOWYMI I MISTRZOSTWA SPORTOWEGO W ?ORACH","UL. BORY?SKA","44-240","?ORY","18.687221","50.039349","25.208333333333332","988.7666666666668","24.0","2.8000000000000003","2.5","2025-04-28 18:00:00.0"
"SZKO?A PODSTAWOWA NR 10 IM. MARII SK?ODOWSKIEJ-CURIE W ZDU?SKIEJ WOLI","UL. ZIELONA","98-220","ZDU?SKA WOLA","18.95037552","51.60020179","23.008333333333336","1001.1916666666666","21.625","3.316666666666667","2.7583333333333333","2025-04-28 18:00:00.0"
"SZKO?A PODSTAWOWA NR 4 IM.FRANCISZKA STUSKA W ORZESZU JA?KOWICACH","UL. STUSKA","43-180","ORZESZE","18.746978","50.145788","27.65833333333333","989.225","23.633333333333336","3.6","3.6","2025-04-28 18:00:00.0"
"SZKO?A PODSTAWOWA NR 2 IM. JANA WYPLERA W RUDZIE ?L?SKIEJ","UL. GWARECKA","41-705","RUDA ?L?SKA","18.89349369757705","50.267719400613906 ","30.883333333333336","993.875","21.208333333333332","4.683333333333333","4.291666666666667","2025-04-28 18:00:00.0"
"IV LICEUM OG?LNOKSZTA?C?CE IM. ORL?T LWOWSKICH W GLIWICACH","UL. KOZIELSKA","44-100","GLIWICE","18.654651","50.298038","31.45","995.5","20.5","6.6","5.3","2025-04-28 18:00:00.0"
"SZKO?A PODSTAWOWA NR 3 I. BOHATER?W POWSTANIA WARSZAWSKIEGO Z ODDZIA?AMI INTEGRACYJNYMI W PIASTOWIE","UL. ALEJA TYSI?CLECIA","05-820","PIAST?W","20.841563186509138","52.178313490439706","27.758333333333336","1012.6166666666667","19.583333333333332","5.6000000000000005","4.991666666666666","2025-04-28 18:00:00.0"
"SZKO?A PODSTAWOWA NR 16 IM. JANUSZA KORCZAKA W RUDZIE ?L?SKIEJ","UL. KUKU?CZA","41-710","RUDA ?L?SKA","18.88033","50.268433","28.191666666666666","991.5083333333333","21.075","5.383333333333333","4.408333333333333","2025-04-28 18:00:00.0"
"SZKO?A PODSTAWOWA IM.STEFANA CZARNIECKIEGO W RAC?AWICACH","","38-323","RAC?AWICE","21.127689745801828","50.06979323518478","21.491666666666664","987.6916666666666","26.183333333333334","2.9916666666666667","2.7416666666666667","2025-04-28 18:00:00.0"
"SZKO?A PODSTAWOWA IM. W?ADYS?AWA BRONIEWSKIEGO W SZCZEJKOWICACH","UL. WIEJSKA","44-246","SZCZEJKOWICE","18.679024","50.095496","31.258333333333336","989.8499999999999","21.575","5.925000000000001","4.716666666666667","2025-04-28 18:00:00.0"
"SZKO?A PODSTAWOWA IM. FRANCISZKA RDUCHA W BE?KU","UL. SZYMOCHY","44-237","BE?K","18.712687","50.134061","30.933333333333334","991.6416666666668","22.2","3.6166666666666667","3.0749999999999997","2025-04-28 18:00:00.0"
"SZKO?A PODSTAWOWA W ZBICZNIE","","87-305","ZBICZNO","19.374579","53.3339494","20.224999999999998","1013.2083333333334","24.05","7.416666666666667","5.391666666666667","2025-04-28 18:00:00.0"
"SZKO?A PODSTAWOWA W PONIATOWIE","UL. SZKOLNA","09-300","PONIATOWO","19.864252","53.041259","23.345454545454547","1007.3727272727273","21.272727272727273","7.754545454545454","6.463636363636363","2025-04-28 18:00:00.0"
"SZKO?A PODSTAWOWA IM. ZIEMI WARMI?SKIEJ W PIENI??NIE","UL. ORNECKA","14-520","PIENI??NO","20.1287545","54.2359313","25.599999999999998","1012.2583333333333","18.258333333333333","4.091666666666667","3.516666666666667","2025-04-28 18:00:00.0"
"SZKO?A PODSTAWOWA NR 5 IM. POLSKICH OLIMPIJCZYK?W W ?WIECIU","UL. WOJSKA POLSKIEGO","86-105","?WIECIE","18.404523109363243","53.4022885304552","19.658333333333335","1019.1750000000001","23.016666666666666","6.108333333333333","5.141666666666667","2025-04-28 18:00:00.0"
"TECHNIKUM NR 2 W K?TRZYNIE","UL. POZNA?SKA","11-400","K?TRZYN","21.3575617","54.0772049","28.09090909090909","1014.4818181818181","16.681818181818183","0.4818181818181818","0.2636363636363636","2025-04-28 18:00:00.0"
"I LICEUM OG?LNOKSZTA?C?CE IM. WOJCIECHA K?TRZY?SKIEGO W K?TRZYNIE","UL. POWSTA?C?W WARSZAWY","11-400","K?TRZYN","21.3725281","54.0774004","24.75","1009.6166666666667","17.616666666666667","3.875","3.1750000000000003","2025-04-28 18:00:00.0"
"SZKO?A PODSTAWOWA NR 3 IM. HENRYKA SIENKIEWICZA W E?KU","UL. GRODZIE?SKA","19-300","E?K","22.3468805","53.832444","22.308333333333334","1005.2666666666668","18.541666666666668","1.8","1.6166666666666665","2025-04-28 18:00:00.0"
"SZKO?A PODSTAWOWA NR 13 Z ODDZIA?AMI SPORTOWYMI I MISTRZOSTWA SPORTOWEGO IM. POLSKICH OLIMPIJCZYK?W W ?ORACH","OS. OSIEDLE PAWLIKOWSKIEGO","44-240","?ORY","18.68289226","50.03250482","20.5","989.0","27.339999999999996","2.48","2.08","2025-04-28 18:00:00.0"
"PRYWATNA SZKO?A PODSTAWOWA W KRAKOWIE","UL. PODG?RKI TYNIECKIE","30-398","KRAK?W-PODG?RZE","19.84421916","50.01213341","32.41818181818182","995.7454545454547","21.09090909090909","4.1454545454545455","3.6545454545454548","2025-04-28 18:00:00.0"
"PUBLICZNA SZKO?A PODSTAWOWA W D?UGOWOLI","","27-300","D?UGOWOLA PIERWSZA","21.621011","51.096311","16.116666666666667","1029.425","25.558333333333334","3.525","2.9","2025-04-28 18:00:00.0"
"PUBLICZNA SZKO?A PODSTAWOWA IM KARDYNA?A STEFANA WYSZY?SKIEGO W G?OSKOWIE","","08-412","G?OSK?W","21.693825","51.932915","16.133333333333333","1005.35","25.59166666666667","3.725","3.1666666666666665","2025-04-28 18:00:00.0"
"SZKO?A PODSTAWOWA NR 5 IM I. J. PADEREWSKIEGO W PRUSZKOWIE","UL. JANA D?UGOSZA","05-804","PRUSZK?W","20.815629142327243","52.18859558069476","25.95","1011.1750000000001","18.849999999999998","6.0249999999999995","5.383333333333333","2025-04-28 18:00:00.0"
"SZKO?A PODSTAWOWA IM. HENRYKA SIENKIEWICZA W STARYM K?B?OWIE","","08-430","STARY K?B??W","21.862929","51.791451","16.458333333333332","1017.6166666666667","25.541666666666668","9.208333333333334","8.016666666666667","2025-04-28 18:00:00.0"
"TECHNIKUM W ?ELECHOWIE","UL. MARSZA?KA J?ZEFA PI?SUDSKIEGO","08-430","?ELECH?W","21.898786","51.812356","24.741666666666664","1002.3166666666666","18.733333333333334","4.641666666666667","3.9333333333333336","2025-04-28 18:00:00.0"
"SZKO?A PODSTAWOWA W ZESPOLE SZK?? OG?LNOKSZTA?C?CYCH W MAZOWIECKIM CENTRUM NEUROPSYCHIATRII W J?ZEFOWIE ","UL. 3 MAJA","05-420","J?ZEF?W","21.234656","52.128054","17.566666666666666","1011.5833333333334","24.683333333333334","5.166666666666667","4.5249999999999995","2025-04-28 18:00:00.0"
"II LICEUM OG?LNOKSZTA?C?CE IM. GEN. GUSTAWA ORLICZ-DRESZERA W CHE?MIE","UL. SZPITALNA","22-100","CHE?M","23.45593021","51.14267385","21.058333333333334","1000.6416666666668","22.650000000000002","3.85","3.216666666666667","2025-04-28 18:00:00.0"
"SZKO?A PODSTAWOWA IM.J.CHE?MO?SKIEGO W KUKL?WCE RADZIEJOWICKIEJ","UL. SZKOLNA","96-325","KUKL?WKA RADZIEJOWICKA","20.59054414","52.04408065","30.608333333333334","1009.9583333333334","18.391666666666666","4.1000000000000005","3.5583333333333336","2025-04-28 18:00:00.0"
"SZKO?A PODSTAWOWA NR 3 IM. OR?A BIA?EGO W CIECHANOWIE","UL. POWSTA?C?W WIELKOPOLSKICH","06-400","CIECHAN?W","20.631842155818422","52.882394549980845","25.3","1007.4","18.925","7.125","6.183333333333334","2025-04-28 18:00:00.0"
"SALEZJA?SKA SZKO?A PODSTAWOWA Z ODDZIA?AMI INTEGRACYJNYMI W SALEZJA?SKIM O?RODKU SZKOLNO-WYCHOWAWCZYM W TARNOWSKICH G?RACH","UL. JANA ?NIADECKIEGO","42-604","TARNOWSKIE G?RY","18.80622755","50.43256357","28.833333333333332","996.5749999999999","22.025000000000002","6.533333333333334","5.716666666666666","2025-04-28 18:00:00.0"
"SZKO?A PODSTAWOWA NR 1 IM PIERWSZEGO MARSZA?KA POLSKI J?ZEFA PI?SUDSKIEGO W SULEJ?WKU","UL. IDZIKOWSKIEGO","05-070","SULEJ?WEK","21.26694575396344","52.24433487687851","22.1","1010.025","21.275","9.05","7.8","2025-04-28 18:00:00.0"
"NIEPUBLICZNA INTEGRACYJNA SZKO?A PODSTAWOWA W MYSIADLE","UL. KR?TKA","05-515","MYSIAD?O","21.005366","52.099954","22.883333333333336","1011.9499999999999","24.616666666666664","4.158333333333333","3.5833333333333335","2025-04-28 18:00:00.0"
"PUBLICZNA SZKO?A PODSTAWOWA IM. JANUSZA KORCZAKA W GO?DZIE","UL. STAROWIEJSKA","26-634","G?ZD","21.378914500000004","51.376315985021016","17.866666666666667","1001.6333333333333","25.599999999999998","3.483333333333333","2.9333333333333336","2025-04-28 18:00:00.0"
"SZKO?A PODSTAWOWA NR 4 IM. JANA PAW?A II, Z ODDZIA?AMI PRZEDSZKOLNYMI I ODDZIA?AMI SPORTOWYMI W PRUSZKOWIE ","UL. HUBALA","05-800","PRUSZK?W","20.81122021534552","52.16432045510862","23.05","1013.4833333333332","23.2","6.283333333333334","5.366666666666667","2025-04-28 18:00:00.0"
"SZKO?A PODSTAWOWA W OTWOCKU WIELKIM","UL. ZAMKOWA","05-480","OTWOCK WIELKI","21.249772","52.054498","20.258333333333333","1011.8000000000001","22.191666666666666","4.558333333333334","3.983333333333333","2025-04-28 18:00:00.0"
"NIEPUBLICZNA SZKO?A PODSTAWOWA WIELICZKA MONTESSORI SCHOOL W WIELICKIEJ SZKOLE MONTESSORI","UL. JANA MIKO?AJA DANI?OWICZA","32-020","WIELICZKA","20.05646002","49.98203058","34.61818181818182","991.5454545454545","20.21818181818182","5.4363636363636365","5.427272727272727","2025-04-28 18:00:00.0"
"PUBLICZNA SZKO?A PODSTAWOWA W OBRAZOWIE","","27-641","OBRAZ?W","21.657963199999998","50.69068702480904","20.0","998.0333333333333","23.508333333333336","3.108333333333333","2.591666666666667","2025-04-28 18:00:00.0"
"SZKO?A PODSTAWOWA W BRZOZOWIE","UL. MIODOWA","86-200","BRZOZOWO","18.4238755","53.314175","27.366666666666664","1011.5333333333333","19.766666666666666","7.5","6.291666666666667","2025-04-28 18:00:00.0"
"SZKO?A PODSTAWOWA NR 199 IM. JULIANA TUWIMA W ?ODZI","UL. J?ZEFA ELSNERA","92-504","??D?-WIDZEW","19.531114643683964","51.75675184434886 ","27.21666666666667","997.0500000000001","18.925","6.366666666666667","5.125","2025-04-28 18:00:00.0"
"SZKO?A PODSTAWOWA IM. KS. KARD. STEFANA WYSZY?SKIEGO W BORZYMINIE","","87-500","BORZYMIN","19.3345342","53.0561291","17.958333333333332","1006.9250000000001","25.5","12.883333333333333","10.25","2025-04-28 18:00:00.0"
"SZKO?A PODSTAWOWA IM. TADEUSZA KO?CIUSZKI W ??TOWICACH","","33-121","??TOWICE","20.845262","49.994632","29.336363636363636","1001.0545454545455","20.19090909090909","3.436363636363636","3.0454545454545454","2025-04-28 18:00:00.0"
"SZKO?A PODSTAWOWA IM. PIOTRA ?CIEGIENNEGO W B?CZKOWIE","UL. JANA PAW?A II","26-008","B?CZK?W","20.80287618","50.87879103","28.308333333333334","988.1999999999999","19.016666666666666","4.0249999999999995","3.5083333333333333","2025-04-28 18:00:00.0"
"SZKO?A PODSTAWOWA IM.KSI?CIA KARDYNA?A ADAMA STEFANA SAPIEHY W BYSINIE","","32-400","BYSINA","19.8876673","49.8279242","36.833333333333336","978.4666666666667","19.775000000000002","4.091666666666667","3.6916666666666664","2025-04-28 18:00:00.0"
"SZKO?A PODSTAWOWA IM. JANA KOCHANOWSKIEGO W B?CZARCE","","32-444","B?CZARKA","19.8615647","49.8750803","32.65","983.2416666666667","21.974999999999998","6.341666666666666","5.533333333333334","2025-04-28 18:00:00.0"
"TECHNIKUM W NAKLE ?L?SKIM","UL. GUSTAWA MORCINKA","42-620","NAK?O ?L?SKIE","18.899961","50.436198","34.15","988.5416666666666","19.575","7.016666666666667","6.333333333333333","2025-04-28 18:00:00.0"
"ZESP?? SZK?? OG?LNOKSZTA?C?CYCH NR 5 - IV LICEUM OG?LNOKSZTA?C?CE Z ODDZIA?AMI MISTRZOSTWA SPORTOWEGO IM. MARYNARZY WOJSK OCHRONY POGRANICZA W GDA?SKU","UL. NA ZASP?","80-546","GDA?SK","18.662468","54.402127","43.48333333333333","1022.2916666666666","18.616666666666667","3.9916666666666667","3.516666666666667","2025-04-28 18:00:00.0"
"SZKO?A PODSTAWOWA IM. JANA DUNIN-BRZEZI?SKIEGO W DROGINI ","","32-400","DROGINIA","20.008008","49.8469429","26.650000000000002","989.0333333333333","26.675","4.541666666666667","4.075","2025-04-28 18:00:00.0"
"SZKO?A PODSTAWOWA NR 8 IM. KRZYSZTOFA KAMILA BACZY?SKIEGO W TARNOWIE","UL. BITWY POD STUDZIANKAMI","33-100","TARN?W","21.00415196","50.01968672","28.349999999999998","995.2833333333333","19.983333333333334","3.6333333333333333","3.158333333333333","2025-04-28 18:00:00.0"
"SZKO?A PODSTAWOWA IM.TADEUSZA KO?CIUSZKI W G?OGOCZOWIE","","32-444","G?OGOCZ?W","19.8764713","49.8949648","22.05","993.1750000000001","28.2125","3.575","2.9625","2025-04-28 18:00:00.0"
"SZKO?A PODSTAWOWA IM. POWSTA?C?W STYCZNIOWYCH W DWIKOZACH","UL. SP??DZIELCZA","27-620","DWIKOZY","21.78213112698172","50.737630724889875","23.423076923076923","1004.8538461538462","19.115384615384617","2.5384615384615383","2.161538461538462","2025-04-28 18:00:00.0"
"SZKO?A PODSTAWOWA IM JANA KOCHANOWSKIEGO W RACIECHOWICACH","","32-415","RACIECHOWICE","20.1425376","49.8447436","34.90833333333333","986.0916666666667","20.158333333333335","6.133333333333333","5.541666666666667","2025-04-28 18:00:00.0"
"SZKO?A PODSTAWOWA NR 2 IM. 12 PU?KU PIECHOTY W SPYTKOWICACH","","34-745","SPYTKOWICE","19.8620555","49.5891356","29.622222222222224","962.6222222222223","23.27777777777778","4.766666666666667","4.1","2025-04-28 18:00:00.0"
"NIEPUBLICZNA SZKO?A PODSTAWOWA MONTESSORI W WIELICZCE","UL. JASNA","32-020","WIELICZKA","20.04131557116481","49.98142573025661","37.31666666666667","993.5500000000001","20.125","7.666666666666667","6.2250000000000005","2025-04-28 18:00:00.0"
"TECHNIKUM IM. KAROLA WOJTY?Y W SU?KOWICACH","UL. SZKOLNA","32-440","SU?KOWICE","19.79959","49.83879","33.574999999999996","989.1833333333334","20.675","4.008333333333334","3.6750000000000003","2025-04-28 18:00:00.0"
"SZKO?A PODSTAWOWA NR 1 IM. ADAMA MICKIEWICZA W KRZESZOWICACH","UL. D?UGA","32-065","KRZESZOWICE","19.63231","50.14192","21.733333333333334","989.9416666666666","26.425","3.658333333333333","3.658333333333333","2025-04-28 18:00:00.0"
"SZKO?A PODSTAWOWA IM. KSI?CIA J?ZEFA PONIATOWSKIEGO W MNIKOWIE","","32-084","MNIK?W","19.7203981","50.0603945","30.516666666666666","994.2666666666668","21.5","4.458333333333333","3.875","2025-04-28 18:00:00.0"
"RZEMIE?LNICZA BRAN?OWA SZKO?A I STOPNIA W TARNOWIE","PL. DWORCOWY","33-100","TARN?W","20.97230288","50.00592873","23.541666666666668","998.1333333333333","23.625","3.4583333333333335","3.033333333333333","2025-04-28 18:00:00.0"
"PUBLICZNA SZKO?A PODSTAWOWA NR4 IM. EUGENIUSZA KWIATKOWSKIEGO W STALOWEJ WOLI","UL. NIEZ?OMNYCH","37-450","STALOWA WOLA","22.049257","50.566117","23.575","1003.2416666666667","20.108333333333334","3.358333333333333","2.7916666666666665","2025-04-28 18:00:00.0"
"PUBLICZNA SZKO?A PODSTAWOWA IM. 100. ROCZNICY ODZYSKANIA NIEPODLEG?O?CI PRZEZ POLSK? W KORZECKU","","26-060","KORZECKO","20.40868672","50.80193767","29.84166666666667","993.3583333333332","21.016666666666666","3.408333333333333","2.9166666666666665","2025-04-28 18:00:00.0"
"SZKO?A PODSTAWOWA IM. GENERA?A STANIS?AWA MACZKA W BLI?YNIE","UL. PIASKOWA","26-120","BLI?YN","20.7611656","51.10539138","24.71666666666667","990.9166666666666","19.75","3.1916666666666664","2.6750000000000003","2025-04-28 18:00:00.0"
"SZKO?A PODSTAWOWA W OKSIE","UL. PL. M. REJA","28-363","OKSA","20.10227008","50.72821359","26.191666666666666","992.0749999999999","25.308333333333334","3.341666666666667","2.8833333333333333","2025-04-28 18:00:00.0"
"III LICEUM OG?LNOKSZTA?C?CE W ZESPOLE SZK?? NR 1 W PSZCZYNIE ","UL. KAZIMIERZA WIELKIEGO","43-200","PSZCZYNA","18.945466","49.965741","24.2","991.6333333333333","26.766666666666666","3.141666666666667","2.65","2025-04-28 18:00:00.0"
"SZKO?A PODSTAWOWA W JELENIOWIE","","26-006","JELENI?W","21.116233057672765","50.844493249563236","36.87692307692308","987.4461538461538","17.353846153846153","2.923076923076923","2.6076923076923078","2025-04-28 18:00:00.0"
"SZKO?A PODSTAWOWA NR 4 W SKAR?YSKU-KAMIENNEJ","UL. KSI???CA","26-110","SKAR?YSKO-KAMIENNA","20.875901311108976","51.1416602921439 ","15.6625","993.8625","27.05","2.9875","2.6","2025-04-28 18:00:00.0"
"SPO?ECZNA SZKO?A PODSTAWOWA NR 1 IM. KS.PROF. J?ZEFA TISCHNERA W TARNOWIE","UL. GUMNISKA","33-100","TARN?W","21.00131621","50.00814381","29.5","997.8857142857142","19.957142857142856","3.442857142857143","3.0285714285714285","2025-04-28 18:00:00.0"
"SZKO?A PODSTAWOWA W ZAWIDZU KO?CIELNYM","UL. MAZOWIECKA","09-226","ZAWIDZ KO?CIELNY","19.870229928959297","52.82718910632357","24.08888888888889","1007.7111111111111","18.9","5.455555555555556","4.777777777777778","2025-04-28 18:00:00.0"
"TECHNIKUM W RACI??U","UL. KILI?SKIEGO","09-140","RACI??","20.127731","52.778712","25.383333333333336","1009.7666666666668","18.691666666666666","7.1499999999999995","6.108333333333333","2025-04-28 18:00:00.0"
"PUBLICZNA SZKO?A PODSTAWOWA IM.HENRYKA SIENKIEWICZA W MY?LISZEWICACH","","26-630","MY?LISZEWICE","21.290531299999998","51.413341302261024","25.308333333333334","1004.8583333333332","20.650000000000002","8.308333333333334","7.8","2025-04-28 18:00:00.0"
"SZKO?A PODSTAWOWA NR 6 IM. DRA W?ADYS?AWA G?BIKA Z ODDZIA?AMI INTEGRACYJNYMI W KWIDZYNIE","UL. GRUNWALDZKA","82-500","KWIDZYN","18.932667","53.723949","19.991666666666667","1014.0916666666667","22.933333333333334","5.9750000000000005","5.466666666666666","2025-04-28 18:00:00.0"
"SZKO?A PODSTAWOWA W BRZE?CIU","","28-400","BRZE?CIE","20.54586641","50.5470206","29.758333333333336","998.0500000000001","21.849999999999998","3.975","3.533333333333333","2025-04-28 18:00:00.0"
"SZKO?A PODSTAWOWA W LUBOWIDZU","UL. JANA PAW?A II","09-304","LUBOWIDZ","19.842984","53.120566","31.558333333333334","1007.9083333333333","18.066666666666666","12.299999999999999","9.65","2025-04-28 18:00:00.0"
"KATOLICKA SZKO?A PODSTAWOWA MONTESSORI W KRAKOWIE","UL. KS. STEFANA PAWLICKIEGO","30-320","KRAK?W-PODG?RZE","19.917813","50.043104","32.38333333333333","997.8249999999999","22.266666666666666","5.7","4.791666666666667","2025-04-28 18:00:00.0"
"SZKO?A PODSTAWOWA NR 2 IM. JANA PAW?A II W GORZYCACH","UL. EDUKACJI NARODOWEJ","39-432","GORZYCE","21.83097317","50.67218435","19.925","1007.5749999999999","25.125","3.1666666666666665","2.858333333333333","2025-04-28 18:00:00.0"
"TECHNIKUM NR 2 W CZ?STOCHOWIE","UL. WARSZAWSKA","42-200","CZ?STOCHOWA","19.1485028","50.7931394","22.991666666666664","993.1666666666666","23.241666666666664","4.208333333333333","3.533333333333333","2025-04-28 18:00:00.0"
"SZKO?A PODSTAWOWA IM. OR?A BIA?EGO W SZCZYTNEJ","UL. KO?CIELNA","57-330","SZCZYTNA","16.44633002","50.41610314","30.49166666666667","966.8583333333332","21.708333333333332","4.3500000000000005","3.608333333333333","2025-04-28 18:00:00.0"
"PUBLICZNA SZKO?A PODSTAWOWA IM. JANA KOCHANOWSKIEGO W W?JCICACH","UL. G??WNA","55-220","W?JCICE","17.2122623","50.4609086","24.71","1005.78","20.619999999999997","5.37","4.7","2025-04-28 18:00:00.0"
"PUBLICZNA SZKO?A PODSTAWOWA W BIERZWNICY","","78-324","BIERZWNICA","15.9112181","53.7221891","26.34166666666667","1006.3666666666667","23.21666666666667","1.7","1.4166666666666667","2025-04-28 18:00:00.0"
"I LICEUM OG?LNOKSZTA?C?CE IM. BOLES?AWA CHROBREGO W K?ODZKU","UL. WOJSKA POLSKIEGO","57-300","K?ODZKO","16.651149","50.4373","24.619999999999997","986.3699999999999","28.29","6.970000000000001","6.09","2025-04-28 18:00:00.0"
"SZKO?A PODSTAWOWA W BIENIOWICACH","","59-216","BIENIOWICE","16.256564","51.258614","27.25","1009.2416666666667","21.683333333333334","4.916666666666667","4.208333333333333","2025-04-28 18:00:00.0"
"SZKO?A PODSTAWOWA IM. ?W. JADWIGI ?L?SKIEJ W ?ERNIKACH WROC?AWSKICH","UL. KOLEJOWA","55-010","?ERNIKI WROC?AWSKIE","17.0609105","51.0305737","25.0","1006.9250000000001","21.033333333333335","3.983333333333333","3.3833333333333333","2025-04-28 18:00:00.0"
"SZKO?A PODSTAWOWA NR 4 Z ODDZIA?AMI INTEGRACYJNYMI W BIELAWIE","UL. LUDWIKA WARY?SKIEGO","58-260","BIELAWA","16.6008348","50.6662832","42.4","978.0799999999999","18.32","19.71","16.0","2025-04-28 18:00:00.0"
"SZKO?A PODSTAWOWA IM. JANA PAW?A II W GRODZISZCZU","","58-112","GRODZISZCZE","16.560664","50.798212","38.43333333333333","994.0833333333334","19.191666666666666","13.058333333333332","11.075000000000001","2025-04-28 18:00:00.0"
"LICEUM OG?LNOKSZTA?C?CE W ?RODZIE ?L?SKIEJ","UL. WROC?AWSKA","55-300","?RODA ?L?SKA","16.5994053","51.158652","30.325","1006.5666666666666","20.541666666666668","4.45","4.45","2025-04-28 18:00:00.0"
"BRAN?OWA SZKO?A I STOPNIA NR 6 W ZESPOLE SZK?? PRZEMYS?U SPO?YWCZEGO IM. POWSTA?C?W WIELKOPOLSKICH W ?ODZI","UL. FRANCISZKA?SKA","91-845","??D?-BA?UTY","19.421884","51.7848081","22.661538461538463","997.4384615384616","20.638461538461538","4.630769230769231","3.8153846153846156","2025-04-28 18:00:00.0"
"TECHNIKUM NR 1 W ZESPOLE SZK?? NR 1 IM. STANIS?AWA STASZICA W BOCHNI","UL. EDWARDA WINDAKIEWICZA","32-700","BOCHNIA","20.416325","49.966639","30.09166666666667","993.4916666666667","24.141666666666666","2.8249999999999997","2.4916666666666667","2025-04-28 18:00:00.0"
"SZKO?A PODSTAWOWA IM. JANA PAW?A II W ?ASZEWIE","","09-135","?ASZEWO","20.090492","52.858682","24.008333333333336","1006.025","19.916666666666668","4.75","4.116666666666666","2025-04-28 18:00:00.0"
"SZKO?A PODSTAWOWA IM. MARII KONOPNICKIEJ W LIPINACH","","92-701","LIPINY","19.67220915","51.80665653","22.833333333333332","995.4083333333333","21.900000000000002","4.533333333333333","3.775","2025-04-28 18:00:00.0"
"I LICEUM OG?LNOKSZTA?C?CE IM. MARCINA KROMERA W GORLICACH","UL. MARCINA KROMERA","38-300","GORLICE","21.155748","49.659518","21.866666666666664","986.6833333333334","26.666666666666668","2.966666666666667","2.5833333333333335","2025-04-28 18:00:00.0"
"SZKO?A PODSTAWOWA IM. IGNACEGO ?UKASIEWICZA W KOBYLANCE","","38-303","KOBYLANKA","21.222151","49.669007","29.75","988.6833333333334","21.90833333333333","3.5583333333333336","2.975","2025-04-28 18:00:00.0"
"SZKO?A PODSTAWOWA IM.?WI?TEJ KINGI W KORCZYNIE","","38-340","KORCZYNA","21.255204","49.702509","29.5","984.975","21.71666666666667","2.8666666666666667","2.5500000000000003","2025-04-28 18:00:00.0"
"TECHNIKUM W GO?OTCZY?NIE","UL. CIECHANOWSKA","06-430","GO?OTCZYZNA","20.68880627301113","52.79264333773238","27.266666666666666","1009.1583333333333","19.108333333333334","8.674999999999999","7.5","2025-04-28 18:00:00.0"
"SZKO?A PODSTAWOWA IM. W?ADYS?AWA J??WICKIEGO W G?RZNIE ","UL. D?UGA","08-404","G?RZNO","21.705990699999997","51.84700102762625","22.59166666666667","1003.6999999999999","19.95","4.6499999999999995","3.841666666666667","2025-04-28 18:00:00.0"
"SZKO?A PODSTAWOWA W RADZIKACH DU?YCH","","87-337","RADZIKI DU?E","19.278172","53.1659113","25.400000000000002","1009.5916666666667","19.308333333333334","9.966666666666667","9.875","2025-04-28 18:00:00.0"
"SZKO?A PODSTAWOWA NR 2 Z ODDZIA?AMI INTEGRACYJNYMI IM. ?O?NIERZY A.K. II REJONU CELK?W W MARKACH","UL. SZKOLNA","05-270","MARKI","	21.103744271164814","52.31729535665526","22.855555555555554","1012.0777777777779","20.48888888888889","5.888888888888889","5.211111111111111","2025-04-28 18:00:00.0"
"SZKO?A PODSTAWOWA IM.KAWALER?W ORDERU U?MIECHU W SIEROS?AWICACH","","32-120","SIEROS?AWICE","20.461954","50.141099","26.7","999.7","24.2","5.5","4.8","2025-04-28 18:00:00.0"
"SZKO?A PODSTAWOWA IM.?W.JANA PAW?A II W ZAWADACH","UL. KO?CIUSZKI","16-075","ZAWADY","22.66793745","53.15651651","28.974999999999998","1011.9083333333333","16.958333333333332","7.325","6.416666666666667","2025-04-28 18:00:00.0"
"SZKO?A PODSTAWOWA NR 2 IM. KR?LOWEJ JADWIGI W CZECHOWICACH-DZIEDZICACH","UL. W?GLOWA","43-502","CZECHOWICE-DZIEDZICE","19.0071238","49.9283149","36.15833333333333","992.1750000000001","21.791666666666668","5.183333333333334","4.283333333333333","2025-04-28 18:00:00.0"
"PUBLICZNA SZKO?A PODSTAWOWA NR 1 Z ODDZIA?AMI DWUJ?ZYCZNYMI W MOGIELNICY","UL. NOWOMIEJSKA","05-640","MOGIELNICA","20.72027","51.6909326","24.099999999999998","1004.9416666666666","19.441666666666666","3.3249999999999997","2.8166666666666664","2025-04-28 18:00:00.0"
"SZKO?A PODSTAWOWA IM. STANIS?AWA LUBOMIRSKIEGO W NOWYM WI?NICZU","UL. SZKOLNA","32-720","NOWY WI?NICZ","20.464022","49.911873","31.25","990.975","19.658333333333335","2.4916666666666667","2.3416666666666663","2025-04-28 18:00:00.0"
"SZKO?A PODSTAWOWA NR 29 IM. TADEUSZA KO?CIUSZKI W RZESZOWIE","UL. PARTYZANT?W","35-234","RZESZ?W","22.00675633","50.04931405","14.383333333333333","998.3833333333333","25.175","2.4583333333333335","1.9833333333333334","2025-04-28 18:00:00.0"
"PUBLICZNA SZKO?A PODSTAWOWA IM.T. KO?CIUSZKI W G?OWACZOWIE","UL. WARECKA","26-903","G?OWACZ?W","21.3187284","51.6220175","16.483333333333334","1007.625","27.016666666666666","2.6833333333333336","2.4","2025-04-28 18:00:00.0"
"SZKO?A PODSTAWOWA SPECJALNA NR 150 W KRAKOWIE","AL. ALEJA ADOLFA DYGASI?SKIEGO","30-820","KRAK?W-PODG?RZE","19.98983357116481","50.02147308570759","35.916666666666664","996.9499999999999","20.583333333333332","5.716666666666666","4.783333333333333","2025-04-28 18:00:00.0"
"PUBLICZNA SZKO?A PODSTAWOWA IM. J?ZEFA BRANDTA W ORO?SKU","UL. SZKOLNA","26-505","ORO?SKO","20.98980054","51.315665","24.183333333333334","1000.2916666666666","19.358333333333334","3.525","2.891666666666667","2025-04-28 18:00:00.0"
"PUBLICZNA SZKO?A PODSTAWOWA IM. BATALION?W CH?OPSKICH W KLECZANOWIE","","27-641","KLECZAN?W","21.57103098","50.71737244","26.349999999999998","993.0416666666666","18.425","5.791666666666667","5.125","2025-04-28 18:00:00.0"
"SZKO?A PODSTAWOWA IM. BOHATER?W WESTERPLATTE W ??KAWICY","","33-156","??KAWICA","19.6059700","49.8417200","28.008333333333336","993.1750000000001","20.083333333333332","3.1916666666666664","2.783333333333333","2025-04-28 18:00:00.0"
"SZKO?A PODSTAWOWA W STAROCH?CINACH","","26-060","STAROCH?CINY","20.48081695","50.77685204","32.391666666666666","995.1416666666668","19.425","3.5500000000000003","3.025","2025-04-28 18:00:00.0"
"SZKO?A PODSTAWOWA NR 6 IM. KS. JANA TWARDOWSKIEGO W PSZCZYNIE","UL. KSI??YCOWA","43-200","PSZCZYNA","18.936162","49.965097","34.24166666666667","994.2416666666667","22.025000000000002","3.658333333333333","3.275","2025-04-28 18:00:00.0"
"SZKO?A PODSTAWOWA IM.KAZIMIERZA PU?ASKIEGO W JADAMWOLI","","34-606","JADAMWOLA","20.51122243","49.58092142","36.34166666666667","973.7416666666667","20.108333333333334","3.8666666666666667","3.4166666666666665","2025-04-28 18:00:00.0"
"SZKO?A PODSTAWOWA NR 2 IM. MARII KONOPNICKIEJ W ?YRARDOWIE","UL. GABRIELA NARUTOWICZA","96-300","?YRARD?W","20.43801027","52.05842119","21.55","1009.1","20.675","3.141666666666667","3.141666666666667","2025-04-28 18:00:00.0"
"I LICEUM OG?LNOKSZTA?C?CE IM. ZYGMUNTA KRASI?SKIEGO W CIECHANOWIE","UL. 17 STYCZNIA","06-400","CIECHAN?W","20.59878057","52.88501004","19.849999999999998","1007.5833333333334","22.40833333333333","4.9750000000000005","4.5","2025-04-28 18:00:00.0"
"SZKO?A PODSTAWOWA W ?UKOWEJ","","26-060","?UKOWA","20.53811566","50.72732867","23.583333333333332","992.3249999999999","25.641666666666666","3.5083333333333333","3.016666666666667","2025-04-28 18:00:00.0"
"SZKO?A PODSTAWOWA W WOLI KORYCKIEJ G?RNEJ","","08-455","WOLA KORYCKA G?RNA","	21.754932828835187","51.73577039586474","21.858333333333334","1003.9583333333334","20.133333333333333","3.9916666666666667","3.408333333333333","2025-04-28 18:00:00.0"
"SZKO?A PODSTAWOWA W WOLICY","UL. SZKOLNA","26-060","WOLICA","20.47387736","50.75410087","29.541666666666668","994.8666666666667","21.150000000000002","4.041666666666667","3.4583333333333335","2025-04-28 18:00:00.0"
"SZKO?A PODSTAWOWA IM. JANA PAW?A II W ZBUCZYNIE","UL. JANA PAW?A II","08-106","ZBUCZYN","22.44061361","52.08688669","16.2875","1003.525","26.1","4.4875","3.95","2025-04-28 18:00:00.0"
"TECHNIKUM NR 2 IM. EUGENIUSZA KWIATKOWSKIEGO W STARACHOWICACH","UL. 1 MAJA","27-200","STARACHOWICE","21.06313317","51.05452968","19.923076923076923","992.3461538461538","23.607692307692307","3.338461538461538","2.9923076923076923","2025-04-28 18:00:00.0"
"PUBLICZNA SZKO?A PODSTAWOWA IM. JANA KOCHANOWSKIEGO W POLANACH","","26-680","POLANY","21.11465600","51.22610000","28.127272727272725","998.2090909090911","19.081818181818182","2.9181818181818184","2.9181818181818184","2025-04-28 18:00:00.0"
"SZKO?A PODSTAWOWA W ZBELUTCE","","26-025","ZBELUTKA-STARA WIE?","21.0993345","50.7310922","30.3","980.0500000000001","18.416666666666668","3.875","3.2416666666666667","2025-04-28 18:00:00.0"
"SZKO?A PODSTAWOWA IM. STEFANA KARDYNA?A WYSZY?SKIEGO W PIERZCHNICY ","UL. KARDYNA?A STEFANA WYSZY?SKIEGO","26-015","PIERZCHNICA","20.74729757","50.6959636","24.516666666666666","989.0916666666667","23.28333333333333","2.9916666666666667","2.558333333333333","2025-04-28 18:00:00.0"
"PUBLICZNA SZKO?A PODSTAWOWA IM. BATALION?W CH?OPSKICH W STARYCH ZAWADACH","","26-660","STARE ZAWADY","21.12815508","51.54597315","20.54","1006.3299999999999","23.02","4.9","4.32","2025-04-28 18:00:00.0"
"SZKO?A PODSTAWOWA W BRDOWIE","UL. MICKIEWICZA","62-620","BRD?W","18.7293986","52.3533225","19.6","1009.5","24.8","3.7","3.2","2025-04-28 18:00:00.0"
"SZKO?A PODSTAWOWA Z ODDZIA?AMI INTEGRACYJNYMI NR 6 IM. SZARYCH SZEREG?W W GRODZISKU MAZOWIECKIM","UL. SPORTOWA","05-825","GRODZISK MAZOWIECKI","20.6192335","52.0987683","30.53333333333333","1011.625","18.966666666666665","5.8","5.0","2025-04-28 18:00:00.0"
"SZKO?A PODSTAWOWA NR 6 IM. ELIZY ORZESZKOWEJ W ?YRARDOWIE","UL. J?ZEFA MIRECKIEGO","96-300","?YRARD?W","20.446088","52.057653","28.683333333333334","1010.3000000000001","19.633333333333333","3.8833333333333333","3.35","2025-04-28 18:00:00.0"
"SZKO?A PODSTAWOWA IM. 11 LISTOPADA W ???WINIE","UL. SZKOLNA","05-807","???WIN","20.7249857","52.09761779588044","17.841666666666665","1009.1583333333333","25.766666666666666","3.4250000000000003","3.233333333333333","2025-04-28 18:00:00.0"
"SZKO?A PODSTAWOWA IM.ADAMA MICKIEWICZA W STRONIU","","34-604","STRONIE","20.52389925","49.61395897","27.175","972.2999999999998","25.575","3.5749999999999997","3.1999999999999997","2025-04-28 18:00:00.0"
"SZKO?A PODSTAWOWA IM.WO?Y?SKIEJ BRYGADY KAWALERII W STARYM KOCINIE","UL. KR?TA","42-231","STARY KOCIN","19.1164555","50.9549101","31.160000000000004","996.65","20.56","3.35","3.35","2025-04-28 18:00:00.0"
"PUBLICZNA SZKO?A PODSTAWOWA IM. JANA PAW?A II W WOLI TACZOWSKIEJ","","26-652","WOLA TACZOWSKA","21.04512254","51.44935931","24.833333333333332","1000.9666666666667","19.508333333333333","3.658333333333333","3.658333333333333","2025-04-28 18:00:00.0"
"SZKO?A PODSTAWOWA NR 3 IM. MARII KONOPNICKIEJ W CHOJNOWIE","UL. W?ADYS?AWA REYMONTA","59-225","CHOJN?W","15.92934","51.27254","26.675","1004.8249999999999","23.65833333333333","7.466666666666666","6.383333333333333","2025-04-28 18:00:00.0"
"LICEUM OG?LNOKSZTA?C?CE IM. STEFANA ?EROMSKIEGO W ?YRARDOWIE","UL. JANINY JADWIGI KACPERSKIEJ","96-300","?YRARD?W","20.44495564","52.0675436","25.458333333333332","1012.0333333333333","21.008333333333333","3.8833333333333333","3.5500000000000003","2025-04-28 18:00:00.0"
"SZKO?A PODSTAWOWA W ?CINAWIE POLSKIEJ","","55-200","?CINAWA POLSKA","17.33660972","50.93346737","30.03333333333333","1006.5333333333333","19.95","7.325","6.441666666666666","2025-04-28 18:00:00.0"
"SZKO?A PODSTAWOWA W ?CINAWCE DOLNEJ","","57-410","?CINAWKA DOLNA","16.5360171","50.4966472","37.53333333333334","986.1999999999999","20.691666666666666","3.8333333333333335","3.3249999999999997","2025-04-28 18:00:00.0"
"I LICEUM OG?LNOKSZTA?C?CE IM. ADAMA MICKIEWICZA W ?APACH","UL. BOHATER?W WESTERPLATTE","18-100","?APY","22.87657971","52.98984475","26.058333333333334","1007.3249999999999","17.858333333333334","8.533333333333333","7.133333333333333","2025-04-28 18:00:00.0"
"SZKO?A PODSTAWOWA W W?GRACH","UL. SZKOLNA","55-020","W?GRY","17.0374566","50.92746209","32.28333333333334","1005.9","20.608333333333334","7.933333333333334","6.95","2025-04-28 18:00:00.0"
"PUBLICZNA SZKO?A PODSTAWOWA IM. MIKO?AJA KOPERNIKA W BIENI?DZICACH","","26-625","BIENI?DZICE","20.92852467","51.41165831","20.47","1001.43","24.759999999999998","3.17","2.6100000000000003","2025-04-28 18:00:00.0"
"SAMORZ?DOWA SZKO?A PODSTAWOWA IM. WOJSKA POLSKIEGO W WODZIS?AWIU","UL. SZKOLNA","28-330","WODZIS?AW","20.18925053","50.51810713","25.575","993.6583333333333","25.400000000000002","4.841666666666667","4.3500000000000005","2025-04-28 18:00:00.0"
"LICEUM OG?LNOKSZTA?C?CE W ZESPOLE SZK?? DRZEWNYCH I LE?NYCH IM. JANA KOCHANOWSKIEGO W GARBATCE - LETNISKU","UL. HANKI LEWANDOWICZ","26-930","GARBATKA-LETNISKO","21.62967267","51.49346798","19.7","1004.6","20.65","3.55","2.95","2025-04-28 18:00:00.0"
"PUBLICZNA SZKO?A PODSTAWOWA IM. JANA OLRYCHA SZANIECKIEGO W SZA?CU","","28-100","SZANIEC"," 20.691985097588677","50.51627384074623","28.141666666666666","992.1999999999999","20.166666666666668","4.625","4.216666666666667","2025-04-28 18:00:00.0"
"SZKO?A PODSTAWOWA W ZBOROWIE","UL. ZWIERZYNIEC","28-131","ZBOR?W","20.711351","50.51339044","23.474999999999998","998.8249999999999","25.724999999999998","4.3","3.5833333333333335","2025-04-28 18:00:00.0"
"PUBLICZNA SZKO?A PODSTAWOWA IM. POR. J?ZEFA M?CZKI W ZALESZANACH","UL. SANDOMIERSKA","37-415","ZALESZANY","21.88785883","50.64803753","23.645454545454548","1004.9363636363636","20.509090909090908","3.3181818181818183","2.7636363636363637","2025-04-28 18:00:00.0"
"SZKO?A PODSTAWOWA W SOLCU-ZDROJU","UL. 1 MAJA","28-131","SOLEC-ZDR?J","20.8893586","50.37082674","27.37142857142857","1002.8142857142857","21.7","7.357142857142857","6.3","2025-04-28 18:00:00.0"
"I LICEUM OG?LNOKSZTA?C?CE W NOWEJ SARZYNIE","UL. KOMISJI EDUKACJI NARODOWEJ","37-310","NOWA SARZYNA","22.34167945","50.31921557","26.933333333333334","1004.2833333333333","19.266666666666666","3.1750000000000003","2.9583333333333335","2025-04-28 18:00:00.0"
"SZKO?A PODSTAWOWA IM. KORNELA MAKUSZY?SKIEGO W SKRZYDLOWIE","UL. G??WNA","42-270","SKRZYDL?W","19.3605871","50.8624858","31.3","994.1333333333333","19.75","4.566666666666666","3.7416666666666667","2025-04-28 18:00:00.0"
"SZKO?A PODSTAWOWA W SZRENIAWIE","","32-075","SZRENIAWA","19.8690283","50.3768057","42.26666666666667","987.5","18.7","12.633333333333333","12.233333333333334","2025-04-28 18:00:00.0"
"SZKO?A PODSTAWOWA W PTASZKOWIE","","58-400","PTASZK?W","16.0415642","50.7927672","41.233333333333334","969.9166666666666","18.0","10.875","9.133333333333333","2025-04-28 18:00:00.0"
"SZKO?A PODSTAWOWA IM. ?W. WOJCIECHA WE W?ODOWICACH","","57-400","W?ODOWICE","16.4776033","50.575772","28.808333333333334","978.6166666666667","21.400000000000002","4.05","3.4333333333333336","2025-04-28 18:00:00.0"
"PUBLICZNA SZKO?A PODSTAWOWA W LEWINIE K?ODZKIM","UL. KO?CIELNA","57-343","LEWIN K?ODZKI","16.2909777","50.4056168","31.849999999999998","968.5833333333334","21.583333333333332","5.7","5.05","2025-04-28 18:00:00.0"
"SZKO?A PODSTAWOWA NR 3 IM. JANA PAW?A II W SYCOWIE","UL. KO?CIELNA","56-500","SYC?W","17.72017","51.3071","24.599999999999998","1002.0666666666666","19.858333333333334","4.008333333333334","3.4","2025-04-28 18:00:00.0"
"SZKO?A PODSTAWOWA IM. BOLES?AWA CHROBREGO W ?MIGRODZIE","UL. HENRYKA SIENKIEWICZA","55-140","?MIGR?D","16.9084728","51.4700924","25.383333333333336","1020.5","21.0","3.9416666666666664","3.4","2025-04-28 18:00:00.0"
"SPO?ECZNA SZKO?A PODSTAWOWA W ?WIDNICY","UL. ADAMA MICKIEWICZA","58-100","?WIDNICA","16.677532","51.0740481","35.06","995.22","19.94","10.5","9.1","2025-04-28 18:00:00.0"
"SZKO?A PODSTAWOWA W KRZESZOWIE","UL. BETLEJEMSKA","58-400","KRZESZ?W","16.0646514","50.7333391","41.199999999999996","967.0083333333333","18.183333333333334","10.625","9.174999999999999","2025-04-28 18:00:00.0"
"SZKO?A PODSTAWOWA W MOKRZESZOWIE","","58-160","MOKRZESZ?W","16.371249","50.8485349","44.449999999999996","987.5500000000001","17.908333333333335","11.133333333333333","9.508333333333333","2025-04-28 18:00:00.0"
"SZKO?A PODSTAWOWA IM. ADAMA MICKIEWICZA W P?GOWIE","UL. G??WNA","55-120","P?G?W","16.9325607","51.2463277","24.490000000000002","1006.65","21.8","3.95","3.3600000000000003","2025-04-28 18:00:00.0"
"TECHNIKUM W BOLKOWIE","UL. NIEPODLEG?O?CI","59-420","BOLK?W","16.1055099","50.92060569","41.61666666666667","983.4333333333334","17.933333333333334","9.316666666666666","7.808333333333334","2025-04-28 18:00:00.0"
"PUBLICZNA SZKO?A PODSTAWOWA IM. STEFANA KARDYNA?A WYSZY?SKIEGO PRYMASA TYSI?CLECIA W ?WI?TEJ KATARZYNIE","UL. G??WNA","55-010","?WI?TA KATARZYNA","17.1137922","51.0249803","25.172727272727272","1007.2727272727273","20.990909090909092","3.6454545454545455","3.3818181818181823","2025-04-28 18:00:00.0"
"SZKO?A PODSTAWOWA NR 4 IM.PROF. ROMANA PODOSKIEGO W OLE?NICY","UL. IGNACEGO PADEREWSKIEGO","56-400","OLE?NICA","17.3883791","51.2047183","26.666666666666668","1004.1333333333333","19.983333333333334","4.908333333333333","4.441666666666666","2025-04-28 18:00:00.0"
