"NAME","STREET","POST_CODE","CITY","LONGITUDE","LATITUDE","HUMIDITY_AVG","PRESSURE_AVG","TEMPERATURE_AVG","PM10_AVG","PM25_AVG","TIMESTAMP"
"SZKO?A PODSTAWOWA IM. MARIANA FALSKIEGO W KRASZEWICACH","UL. SZKOLNA","63-522","KRASZEWICE","18.22403","51.51563","95.12","1015.11","8.61","32.86","20.2","2025-04-28 17:00:00.0"
"SZKO?A PODSTAWOWA WE WRZ?SOWICACH","UL. SZKOLNA","32-040","WRZ?SOWICE","19.94282","49.96103","32.67142857142857","986.0142857142857","20.771428571428572","4.8","4.285714285714286","2025-04-28 17:00:00.0"
"PUBLICZNA SZKO?A PODSTAWOWA NR 2 IM. KAZIMIERZA MALCZEWSKIEGO W STRZELCACH OPOLSKICH","UL. WAWRZY?CA ?WIERZEGO","47-100","STRZELCE OPOLSKIE","18.314889","50.503431","37.5","1040.75","19.225","1.0","0.51","2025-04-28 17:00:00.0"
"ZESP?? SZK?? NR 1 W PSZCZYNIE","UL. KAZIMIERZA WIELKIEGO","43-200","PSZCZYNA","18.9457058","49.965883","48.0","1002.8666666666667","21.03333333333333","4.166666666666667","2.236666666666667","2025-04-28 17:00:00.0"
"ZESP?? SZK?? IM. POWSTA?C?W WIELKOPOLSKICH W JANKOWIE PRZYGODZKIM","SZKOLNA","63-421","JANK?W PRZYGODZKI","17.7889069","51.596172","37.266666666666666","1009.2333333333332","19.599999999999998","5.8","3.2733333333333334","2025-04-28 17:00:00.0"
"SZKO?A PODSTAWOWA NR 7 IM. ?O?NIERZY WRZE?NIA W ?WIKLICACH","UL. M?CZENNIK?W O?WI?CIMSKICH","43-229","?WIKLICE","18.989839","49.971937","45.06666666666666","993.4333333333334","21.933333333333334","4.233333333333333","2.5","2025-04-28 17:00:00.0"
"SZKO?A PODSTAWOWA NR 12 W STUDZIONCE","UL. JORDANA","43-245","STUDZIONKA","18.774985","49.9603559","39.2","1001.4666666666667","26.766666666666666","2.733333333333333","1.8366666666666667","2025-04-28 17:00:00.0"
"ZESP?? SZKOLNO-PRZEDSZKOLNY W PIASKU","SZKOLNA","43-211","PIASEK","18.94634","50.00955","32.0","1001.5666666666666","22.8","3.233333333333333","1.6766666666666667","2025-04-28 17:00:00.0"
"ZESP?? SZKOLNO-PRZEDSZKOLNY W ??CE","FITELBERGA","43-241","??KA","18.906757","49.9582444","36.666666666666664","999.7666666666668","20.833333333333332","3.9333333333333336","2.24","2025-04-28 17:00:00.0"
"SZKO?A PODSTAWOWA NR 3 W LUBONIU","ARMII POZNA?","62-030","LUBO?","16.8968","52.3481","31.066666666666666","1008.9333333333334","19.8","4.3","2.5333333333333337","2025-04-28 17:00:00.0"
"SPECJALNY O?RODEK WYCHOWAWCZY NR 1 W OSTROWCU ?WI?TOKRZYSKIM","SZKOLNA","27-400","OSTROWIEC ?WI?TOKRZYSKI","21.418144","50.9312","91.96999999999998","995.09","5.0","44.02","25.100000000000005","2025-04-28 17:00:00.0"
"ZESP?? SZK?? PONADGIMNAZJALNYCH CENTRUM KSZTA?CENIA USTAWICZNEGO W PRZYGODZICACH","PTR","63-421","PRZYGODZICE","17.822685","51.59023","42.56666666666666","1018.5","17.366666666666667","1.3333333333333333","0.6900000000000001","2025-04-28 17:00:00.0"
"LICEUM OG?LNOKSZTA?C?CE IM. W?ADYS?AWA JAGIE??Y W ODOLANOWIE","KROTOSZY?SKA","63-430","ODOLAN?W","17.66024","51.58063","27.599999999999998","1009.0","19.933333333333334","3.5666666666666664","2.0466666666666664","2025-04-28 17:00:00.0"
"ZESP?? SZK?? W PIOTROWIE","","62-814","PIOTR?W","18.05485","51.81570","20.099999999999998","1010.7666666666668","28.3","1.1333333333333335","0.6333333333333333","2025-04-28 17:00:00.0"
"SZKO?A PODSTAWOWA W CZARNYMLESIE","","63-421","CZARNYLAS","17.762604","51.508366","45.43333333333334","1005.6666666666666","19.2","10.166666666666666","6.1000000000000005","2025-04-28 17:00:00.0"
"SZKO?A PODSTAWOWA NR 2 IM. AUGUSTA HR. CIESZKOWSKIEGO W LUBONIU","?ABIKOWSKA","62-030","LUBO?","16.878431","52.346672","31.166666666666668","1017.8666666666667","22.166666666666668","3.9666666666666663","2.1633333333333336","2025-04-28 17:00:00.0"
"SZKO?A PODSTAWOWA IM. POWSTA?C?W WIELKOPOLSKICH W DORUCHOWIE","KALISKA","63-505","DORUCH?W","18.0786","51.4189","95.31","1015.31","8.56","32.76","18.92","2025-04-28 17:00:00.0"
"SZKO?A PODSTAWOWA IM. MIKO?AJA KOPERNIKA W BUKOWCU","SZKOLNA","95-006","BUKOWIEC","19.6757","51.6918","36.733333333333334","995.6333333333333","22.266666666666666","2.966666666666667","1.7","2025-04-28 17:00:00.0"
"SZKO?A PODSTAWOWA IM. MARII KONOPNICKIEJ W KOTLINIE","MARII KONOPNICKIEJ","63-220","KOTLIN","17.645437","51.91866","42.0","1008.1666666666666","16.433333333333334","0.13333333333333333","0.07","2025-04-28 17:00:00.0"
"SZKO?A PODSTAWOWA NR 2 W OTMUCHOWIE","KALINOWA","48-385","OTMUCH?W","17.213","50.46535","50.93333333333334","1003.1","19.46666666666667","4.033333333333333","2.103333333333333","2025-04-28 17:00:00.0"
"SZKO?A PODSTAWOWA IM. BOHATER?W POWSTA? ?L?SKICH W KA?KOWIE","","48-364","KA?K?W","17.185241","50.40420","96.33999999999999","1010.98","8.55","31.05","18.64","2025-04-28 17:00:00.0"
"SZKO?A PODSTAWOWA W MACIEJOWICACH","","48-385","MACIEJOWICE","17.13497","50.4998","48.666666666666664","990.0333333333334","18.833333333333332","5.533333333333334","2.893333333333333","2025-04-28 17:00:00.0"
"TEST SZKO?A","ul Testowa","00-000","TESTCITY","-157.52969778504766","1.8586845937815497","89.69","992.4699999999999","7.760000000000001","50.169999999999995","30.320000000000004","2025-04-28 17:00:00.0"
"ZESP?? EDUKACYJNY W KONOTOPIE","PL. POWSTA?C?W WIELKOPOLSKICH","67-416","KONOTOP","15.9031","51.93023","29.7","1016.1999999999999","30.03333333333333","1.3666666666666665","0.7366666666666667","2025-04-28 17:00:00.0"
"PRZEDSZKOLE NR 6 W BOCHNI","MUROWIANKA","32-700","BOCHNIA","20.4415","49.96533","29.7","1019.6","32.1","2.0","1.16","2025-04-28 17:00:00.0"
"PUBLICZNA SZKO?A PODSTAWOWA W SZYMISZOWIE","SZKOLNA","47-161","SZYMISZ?W","18.21983","50.53656","38.0","1001.6999999999999","21.133333333333336","3.4333333333333336","1.86","2025-04-28 17:00:00.0"
"PUBLICZNA SZKO?A PODSTAWOWA W ROZMIERCE","SZKOLNA","47-171","ROZMIERKA","18.26905","50.560720","96.32","995.88","5.98","47.13","29.9","2025-04-28 17:00:00.0"
"PUBLICZNA SZKO?A PODSTAWOWA W DZIEWKOWICACH","STRZELECKA","47-100","DZIEWKOWICE","18.34475","50.51530","96.32","995.88","5.98","47.13","29.899999999999995","2025-04-28 17:00:00.0"
"SZKO?A PODSTAWOWA IM. OR?A BIA?EGO W KUROWICACH FILIA W WOLI RAKOWEJ","SZKOLNA","95-006","WOLA RAKOWA","19.61157","51.67447","32.96666666666667","1002.2000000000002","19.666666666666668","0.26666666666666666","0.14","2025-04-28 17:00:00.0"
"SZKO?A PODSTAWOWA IM. KS. JANA TWARDOWSKIEGO WE W?ADYS?AWOWIE","KALISKA","62-610","W?ADYS?AW?W","18.4688","52.10134","92.51","1014.7","8.83","28.05","16.66","2025-04-28 17:00:00.0"
"SZKO?A PODSTAWOWA NR 8 IM. J?ZEFA WESZKI W RUDO?TOWICACH","KRZYWO?","43-220","RUDO?TOWICE","19.00171","49.95711","1.0","998.1333333333333","21.133333333333336","3.033333333333333","1.5766666666666669","2025-04-28 17:00:00.0"
"ZESP?? SZKOLNO-PRZEDSZKOLNY W WI?LE WIELKIEJ","HODOWC?W","43-243","WIS?A WIELKA","18.85320","49.95291","42.76666666666667","997.6999999999999","21.900000000000002","2.1333333333333333","1.29","2025-04-28 17:00:00.0"
"SZKO?A PODSTAWOWA IM. MARKA PRAWEGO W JEMIELNICY","SZKOLNA","47-133","JEMIELNICA","18.380122","50.548993","30.8","991.6999999999999","20.666666666666668","5.2","2.9066666666666667","2025-04-28 17:00:00.0"
"SZKO?A PODSTAWOWA NR 2 IM. ?W. JADWIGI ?L?SKIEJ W PSZCZYNIE","KATOWICKA","43-200","PSZCZYNA","18.947994","49.992568","32.0","1002.0333333333333","26.03333333333333","1.8333333333333333","0.88","2025-04-28 17:00:00.0"
"ZESP?? SZK?? SPECJALNYCH W OSTROWCU ?WI?TOKRZYSKIM","I?ZECKA","27-400","OSTROWIEC ?WI?TOKRZYSKI","21.386931","50.942931","92.61","994.75","5.04","40.73","23.77","2025-04-28 17:00:00.0"
"SZKO?A PODSTAWOWA NR 6 IM. KORNELA MAKUSZY?SKIEGO W CZARKOWIE","POWSTA?C?W ?L?SKICH","43-211","CZARK?W","18.909560","50.011713","32.666666666666664","999.1666666666666","21.433333333333334","2.233333333333333","1.1033333333333333","2025-04-28 17:00:00.0"
"ZESP?? SZKOLNO-PRZEDSZKOLNY W JANKOWICACH","BAZIOWA","43-215","JANKOWICE","18.989423","50.002529","71.1","992.12","0.24","68.37","39.28","2025-04-28 17:00:00.0"
"SZKO?A PODSTAWOWA NR 4 IM. J?ZEFA PUKOWCA W PSZCZYNIE","ZYGMUNTA KRASI?SKIEGO","43-200","PSZCZYNA","18.961125","49.971182","41.9","996.5333333333333","20.599999999999998","0.6333333333333333","0.3466666666666667","2025-04-28 17:00:00.0"
"SZKO?A PODSTAWOWA IM. ARKADEGO FIEDLERA W RASZKOWIE Z SIEDZIB? W POGRZYBOWIE","POGRZYB?W","63-440","POGRZYB?W","17.723099","51.713966","48.70000000000001","1018.2000000000002","22.899999999999995","6.0","3.5","2025-04-28 17:00:00.0"
"ZESP?? SZK?? W OTMUCHOWIE","KRAKOWSKA","48-385","OTMUCH?W","17.167634","50.4705","96.33999999999999","1010.98","8.55","31.05","18.64","2025-04-28 17:00:00.0"
"SZKO?A PODSTAWOWA NR 6?IM. IGNACEGO ?UKASZEWICZA W CZECHOWICACH-DZIEDZICACH","UL. ?UKASIEWICZA","43-502","CZECHWICE-DZIEDZICE","19.016493","49.899404","40.26666666666667","973.3666666666667","19.966666666666665","2.6","1.5733333333333335","2025-04-28 17:00:00.0"
"SZKO?A PODSTAWOWA NR 4 IM. GUSTAWA MORCINKA W S?UPSKU","UL. LESZCZY?SKIEGO","76-200","S?UPSK","17.005017","54.475286","42.1","1019.7666666666668","17.133333333333333","3.8333333333333335","2.1","2025-04-28 17:00:00.0"
"SZKO?A PODSTAWOWA W KLESZCZOWIE","UL. SZKOLNA","44-164","KLESZCZ?W","18.527510","50.344057","36.03333333333333","996.3333333333334","22.666666666666668","1.8","0.9466666666666667","2025-04-28 17:00:00.0"
"SZKO?A PODSTAWOWA NR 5 IM. GRYFIT?W W S?UPSKU","UL. HUBALCZYK?W","76-200","S?UPSK","17.062723","54.455744","43.1","1018.3666666666668","17.166666666666668","1.6333333333333335","0.9266666666666667","2025-04-28 17:00:00.0"
"ZESP?? SZKOLNO-PRZEDSZKOLNY W POT?PIE","UL. TARNOG?RSKA","42-693","POT?PA","18.662519","50.565309","97.16000000000001","997.19","5.87","39.37","22.63","2025-04-28 17:00:00.0"
"SZKO?A PODSTAWOWA NR 3 IM. JANA PAW?A II W PSZCZYNIE","UL. STAROMIEJSKA","43-200","PSZCZYNA","18.92452","49.98849","33.71666666666667","993.8166666666666","22.883333333333336","7.175","6.458333333333333","2025-04-28 17:00:00.0"
"SZKO?A PODSTAWOWA IM. MIKO?AJA REJA W GORZYCZKACH","UL. WIEJSKA","44-350","GORZYCZKI","18.399689","49.944774","40.733333333333334","994.6333333333333","20.0","3.1333333333333333","1.7233333333333334","2025-04-28 17:00:00.0"
"SZKO?A PODSTAWOWA NR 6 IM. LUDWIKA WARY?SKIEGO W S?UPSKU","UL. STARZY?SKIEGO","76-200","S?UPSK","17.023811","54.465980","30.03333333333333","1023.3666666666667","25.400000000000002","0.5666666666666667","0.3","2025-04-28 17:00:00.0"
"SZKO?A PODSTAWOWA IM. JANA BRZECHWY W KOBI?RZE","UL. TUWIMA","43-210","KOBI?R","18.930274","50.060752","99.9","997.275","21.9","11.875","6.8225","2025-04-28 17:00:00.0"
"SZKO?A PODSTAWOWA W PONISZOWICACH","UL. GLIWICKA","44-172","PONISZOWICE","18.458674","50.409220","33.36666666666667","994.3666666666667","26.0","1.2666666666666666","0.6466666666666666","2025-04-28 17:00:00.0"
"SZKO?A PODSTAWOWA IM. OR?A BIA?EGO W SOKO?OWICACH","SOKO?OWICE","56-400","SOKO?OWICE","17.4469","51.245","77.98","1009.18","9.68","10.98","6.15","2025-04-28 17:00:00.0"
"SZKO?A PODSTAWOWA W LIGOCIE POLSKIEJ","LIGOTA POLSKA","56-400","LIGOTA POLSKA","17.542356","51.239942","99.9","1003.775","21.8","3.9749999999999996","1.945","2025-04-28 17:00:00.0"
"SZKO?A PODSTAWOWA IM. UNICEF W LIGOCIE MA?EJ","LIGOTA MA?A","56-400","LIGOTA MA?A","17.365476","51.142467","19.125","978.075","35.175","5.15","3.4575","2025-04-28 17:00:00.0"
"SZKO?A PODSTAWOWA WE WSZECH?WI?TEM","WSZECH?WI?TE","56-400","WSZECH?WI?TE","17.484968","51.191751","46.65","1004.25","27.575","1.375","0.7825","2025-04-28 17:00:00.0"
"SZKO?A PODSTAWOWA GMINY OLE?NICA W OLE?NICY","WILE?SKA","56-400","OLE?NICA","17.41034","51.2095","99.9","993.7","19.8","0.0","0.0","2025-04-28 17:00:00.0"
"SZKO?A PODSTAWOWA NR 19 W BRZE?CACH","POKOJU","43-200","BRZE?CE","18.832539","49.984943","34.325","998.2","21.3","5.7","3.005","2025-04-28 17:00:00.0"
"ZESP?? SZKOLNO-PRZEDSZKOLNY W RADOSTOWIE ?REDNIM","RADOST?W ?REDNI","59-800","RADOST?W ?REDNI","15.36293","51.12153","46.275","997.075","23.025","0.1","0.052500000000000005","2025-04-28 17:00:00.0"
"ZESP?? SZKOLNO-PRZEDSZKOLNY W KO?CIELNIKU","KO?CIELNIK","59-800","KO?CIELNIK","15.29682","51.08393","91.58","1020.33","11.1","28.07","14.81","2025-04-28 17:00:00.0"
"SZKO?A PODSTAWOWA NR 2 IM. BOLES?AWA CHROBREGO W MIASTKU","KUJAWSKA","77-200","MIASTKO","16.97385","53.99424","94.40000000000002","1015.89","7.64","15.39","8.33","2025-04-28 17:00:00.0"
"ZESP?? SZK?? OG?LNOKSZTA?C?CYCH I TECHNICZNYCH W MIASTKU","M?ODZIE?OWA","77-200","MIASTKO","16.97198","54.00061","93.3","1016.63","6.4","12.98","7.62","2025-04-28 17:00:00.0"
"SZKO?A PODSTAWOWA IM. POLSKICH ODKRYWC?W I PODR??NIK?W W KOBIERZYCACH","PARKOWA","55-040","KOBIERZYCE","16.933169","50.971851","30.433333333333334","996.5666666666666","21.0","5.566666666666666","2.9933333333333336","2025-04-28 17:00:00.0"
"SZKO?A PODSTAWOWA W PUSTKOWIE WILCZKOWSKIM","K?ODZKA","55-040","PUSTK?W WILCZKOWSKI","16.881039","50.906166","99.90000000000002","1006.9666666666667","20.53333333333333","3.1","1.7666666666666668","2025-04-28 17:00:00.0"
"SZKO?A PODSTAWOWA IM. UNICEF W BIELANACH WROC?AWSKICH","AKACJOWA","55-040","BIELANY WROC?AWSKIE","16.971022","51.038120","5.0","1011.85","20.375","3.075","1.855","2025-04-28 17:00:00.0"
"SZKO?A PODSTAWOWA IM. JANUSZA KORCZAKA W WYSOKIEJ","CHABROWA","52-200","WYSOKA","17.007729","51.047504","99.90000000000002","1005.1","23.633333333333336","4.533333333333334","2.46","2025-04-28 17:00:00.0"
"SZKO?A PODSTAWOWA IM. ROMUALDA TRAUGUTTA W PUSTKOWIE ?URAWSKIM","KOLEJOWA","55-040","PUSTK?W ?URAWSKI","16.859465","50.958878","99.90000000000002","1004.4333333333334","21.96666666666667","10.966666666666667","5.696666666666666","2025-04-28 17:00:00.0"
"SZKO?A PODSTAWOWA IM. ABP. ANTONIEGO JULIANA NOWOWIEJSKIEGO W S?UPNIE","KO?CIELNA","09-472","S?UPNO","19.84527","52.5041","82.51","1015.35","6.61","71.98","43.72","2025-04-28 17:00:00.0"
"SZKO?A PODSTAWOWA NR 1 IM. MARII KONOPNICKIEJ W ZESPOLE SZK?? OG?LNOKSZTA?C?CYCH NR 1 IM. MARII KONOPNICKIEJ W PRUSZCZU GDA?SKIM","NIEMCEWICZA","83-000","PRUSZCZ GDA?SKI","18.650575","54.261512","26.625","1032.3","19.45","0.625","0.31","2025-04-28 17:00:00.0"
"SZKO?A PODSTAWOWA NR 2 IM. MIKO?AJA KOPERNIKA W PRUSZCZU GDA?SKIM","TYSI?CLECIA","83-000","PRUSZCZ GDA?SKI","18.628278","54.260787","29.233333333333334","1025.3333333333333","18.866666666666664","1.0666666666666667","0.6133333333333333","2025-04-28 17:00:00.0"
"SZKO?A PODSTAWOWA NR 3 IM. JANA MATEJKI W PRUSZCZU GDA?SKIM","MATEJKI","83-000","PRUSZCZ GDA?SKI","18.636981","54.255547","24.333333333333332","1027.7","20.2","1.3333333333333333","0.7466666666666667","2025-04-28 17:00:00.0"
"SZKO?A PODSTAWOWA NR 4 IM. IGNACEGO JANA PADEREWSKIEGO W PRUSZCZU GDA?SKIM","KASPROWICZA","83-000","PRUSZCZ GDA?SKI","18.670231","54.263405","26.633333333333336","1027.7666666666667","21.5","1.5333333333333332","0.9266666666666667","2025-04-28 17:00:00.0"
"SZKO?A PODSTAWOWA NR 13 W WI?LE MA?EJ","SOKOLA","43-243","WIS?A MA?A","18.793987","49.93368","49.96666666666667","1002.4333333333334","25.733333333333334","0.0","0.0","2025-04-28 17:00:00.0"
"ZESP?? SZKOLNO-PRZEDSZKOLNY W STUDZIENICACH","?W. JANA PAW?A II 74","43-215","STUDZIENICE","18.983576","50.016514","36.666666666666664","1006.6","21.666666666666668","1.5999999999999999","1.0","2025-04-28 17:00:00.0"
"SZKO?A PODSTAWOWA IM. JANUSZA KORCZAKA W SUSZCU","SZKOLNA","43-267","SUSZEC","18.79149","50.03719","44.53333333333333","987.2599999999999","21.53333333333333","1.1666666666666667","0.6833333333333332","2025-04-28 17:00:00.0"
"SZKO?A PODSTAWOWA NR 11 W POR?BIE","SZKOLNA","43-200","POR?BA","18.876488","49.984417","34.93333333333333","996.6999999999999","22.866666666666664","1.7666666666666666","0.9533333333333333","2025-04-28 17:00:00.0"
"SZKO?A PODSTAWOWA IM. MIKO?AJA KOPERNIKA W WYSOCKU MA?YM","KO?CIELNA","63-421","WYSOCKO MA?E","17.84109","51.61033","36.86666666666667","1004.6666666666666","20.7","3.266666666666667","1.5533333333333335","2025-04-28 17:00:00.0"
"SZKO?A PODSTAWOWA NR 3 IM. JULIANA TUWIMA W NOWEJ SOLI","BOTANICZNA","67-100","NOWA S?L","15.71186","51.82115","86.7","1003.4","13.0","9.7","6.19","2025-04-28 17:00:00.0"
"ZESP?? SZK?? W JANKOWIE PIERWSZYM","JANK?W PIERWSZY","62-814","JANK?W PIERWSZY","17.987951","51.902107","28.933333333333334","1007.5","19.733333333333334","2.8666666666666667","1.6566666666666665","2025-04-28 17:00:00.0"
"ZESP?? SZKOLNO-PRZEDSZKOLNY W MESZNIE","MESZNO","48-385","MESZNO","17.15378","50.43684","96.83999999999999","1010.56","8.08","31.83","18.77","2025-04-28 17:00:00.0"
"SZKO?A PODSTAWOWA IM. 16. PU?KU U?AN?W WIELKOPOLSKICH W GRUPIE","SZKOLNA","86-134","GRUPA","18.643229","53.506348","97.5","1024.45","7.099999999999999","28.179999999999996","15.99","2025-04-28 17:00:00.0"
"SZKO?A PODSTAWOWA IM. OR?A BIA?EGO W KUROWICACH","SZKOLNA","95-006","KUROWICE","19.6897942","51.6648927","43.26666666666667","1002.9","18.033333333333335","7.0","4.24","2025-04-28 17:00:00.0"
"SZKO?A PODSTAWOWA IM. POWSTA?C?W WIELKOPOLSKICH W BUDZYNIU","ROGOZI?SKA","64-840","BUDZY?","16.983885","52.8847","51.43333333333334","1018.5","19.266666666666666","17.84","10.17","2025-04-28 17:00:00.0"
"SZKO?A PODSTAWOWA W SWORNEGACIACH","SZKOLNA","89-608","SWORNEGACIE","17.503073","53.86227","91.12","1026.63","8.15","38.25","22.929999999999996","2025-04-28 17:00:00.0"
"SZKO?A PODSTAWOWA IM. OR?A BIA?EGO W RASZ?WCE","1 MAJA","59-307","RASZ?WKA","16.18346","51.30514","72.06","1008.2800000000001","12.589999999999998","15.089999999999998","8.21","2025-04-28 17:00:00.0"
"SZKO?A PODSTAWOWA IM. TADEUSZA KO?CIUSZKI W MUNINIE","3-GO MAJA","37-514","MUNINA","22.725977","49.997936","5.0","1000.0","30.53333333333333","1.9666666666666668","1.05","2025-04-28 17:00:00.0"
"SZKO?A PODSTAWOWA IM. ALEKSANDRA FREDRY W SUROCHOWIE","SUROCH?W","37-500","SUROCH?W","22.7635","50.02385","80.6","1003.64","4.61","32.46","19.26","2025-04-28 17:00:00.0"
"SZKO?A PODSTAWOWA IM. LOTNIK?W ALIANCKICH W I?OWEJ","PIASKOWA","68-120","I?OWA","15.20461","51.50227","79.35","1009.21","14.410000000000002","10.44","6.47","2025-04-28 17:00:00.0"
"ZESP?? SZKOLNO-PRZEDSZKOLNY W BO?EJOWICACH","BO?EJOWICE","59-700","BO?EJOWICE","15.541525","51.244331","75.13","1018.85","11.44","34.17","20.59","2025-04-28 17:00:00.0"
"ZESP?? SZKOLNO-PRZEDSZKOLNY W BRZE?NIKU","BRZE?NIK","59-700","BRZE?NIK","15.467881","51.243537","99.90000000000002","1004.5333333333333","22.8","1.6666666666666667","0.8799999999999999","2025-04-28 17:00:00.0"
"SZKO?A PODSTAWOWA W D?BROWIE BOLES?AWIECKIEJ","D?BROWA BOLES?AWIECKA","59-700","D?BROWA BOLES?AWIECKA","15.57337","51.325929","25.066666666666666","1007.5333333333333","20.066666666666666","6.533333333333334","3.5233333333333334","2025-04-28 17:00:00.0"
"ZESP?? SZKOLNO-PRZEDSZKOLNY W KRA?NIKU DOLNYM","KRA?NIK DOLNY","59-700","KRA?NIK DOLNY","15.607869","51.307800","99.90000000000002","1004.4666666666667","30.5","3.4666666666666663","1.7433333333333334","2025-04-28 17:00:00.0"
"ZESP?? SZKOLNO-PRZEDSZKOLNY W ?ELISZOWIE","?ELISZ?W","59-700","?ELISZ?W","15.636493","51.188462","18.0","1005.0666666666666","30.400000000000002","5.066666666666666","3.3699999999999997","2025-04-28 17:00:00.0"
"SZKO?A PODSTAWOWA IM. MARII SK?ODOWSKIEJ-CURIE W KAW?CZYNIE","KAW?CZYN","62-704","KAW?CZYN","18.53126","51.90873","91.88","1014.65","8.93","28.28","16.42","2025-04-28 17:00:00.0"
"PUBLICZNA SZKO?A PODSTAWOWA IM. MARII KONOPNICKIEJ W JORDANOWIE ?L?SKIM","WROC?AWSKA","55-065","JORDAN?W ?L?SKI","16.8656","50.8654","24.866666666666664","1020.1333333333333","19.366666666666664","2.033333333333333","1.2633333333333334","2025-04-28 17:00:00.0"
"SZKO?A PODSTAWOWA IM. JANA PAW?A II W RUDNEJ","PIASKOWA","59-305","RUDNA","16.26114","51.51127","31.400000000000002","1014.9","19.633333333333333","5.466666666666666","2.936666666666667","2025-04-28 17:00:00.0"
"SZKO?A PODSTAWOWA IM. BOHATER?W WESTERPLATTE W CHOBIENI","SZKOLNA","59-305","CHOBIENIA","16.44566","51.54124","30.066666666666666","1016.4","20.900000000000002","3.766666666666667","2.1766666666666667","2025-04-28 17:00:00.0"
"SZKO?A PODSTAWOWA NR 3 IM. W?ADYS?AWA BRONIEWSKIEGO W ?WIEBODZICACH","?WIDNICKA","58-160","?WIEBODZICE","16.322191","50.859905","54.46666666666667","992.1","19.7","2.1333333333333333","1.23","2025-04-28 17:00:00.0"
"PUBLICZNA SZKO?A PODSTAWOWA NR 5 IM. W?ADYS?AWA BRONIEWSKIEGO W NOWEJ SOLI","WALKI M?ODYCH","67-100","NOWA S?L","15.72476","51.78292","41.166666666666664","1016.0666666666666","20.5","4.333333333333333","2.563333333333333","2025-04-28 17:00:00.0"
"ZESP?? EDUKACYJNY W KOLSKU","PIASTOWSKA","67-415","KOLSKO","15.961961","51.960693","88.33999999999999","1020.57","9.94","37.83","22.350000000000005","2025-04-28 17:00:00.0"
"SZKO?A PODSTAWOWA NR 3 IM. MARII KONOPNICKIEJ W KOLE","TORU?SKA","62-600","KO?O","18.63092","52.201656","93.89","1013.89","6.34","27.41","15.15","2025-04-28 17:00:00.0"
"SZKO?A PODSTAWOWA IM. JANA PAW?A II W MIKORZYNIE","MIKORZYN","63-600","MIKORZYN","18.026148","51.36473","95.31","1015.31","8.56","32.76","18.92","2025-04-28 17:00:00.0"
"SZKO?A PODSTAWOWA NR 1 IM. BOHATER?W WESTERPLATTE W K?PNIE","HENRYKA SIENKIEWICZA","63-600","K?PNO","17.987194","51.27619","52.13333333333333","1013.1666666666666","19.0","1.9333333333333333","1.15","2025-04-28 17:00:00.0"
"SZKO?A PODSTAWOWA IM. JANA PAW?A II W LIPNICY WIELKIEJ","LIPNICA WIELKA","33-323","LIPNICA WIELKA","20.86532","49.70755","94.0","985.0","16.9","28.3","15.62","2025-04-28 17:00:00.0"
"SZKO?A PODSTAWOWA IM. PREZYDENTA GABRIELA NARUTOWICZA W CZ?STKOWIE MAZOWIECKIM","CZ?STK?W MAZOWIECKI","05-152","CZ?STK?W MAZOWIECKI","20.746943","52.39131","39.1","1016.1333333333333","19.666666666666668","19.033333333333335","11.439999999999998","2025-04-28 17:00:00.0"
"SZKO?A PODSTAWOWA IM. PIERRE""A DE COUBERTINA W BUDACH SIENNICKICH","BUDY SIENNICKIE","05-190","BUDY SIENNICKIE","20.787657","52.544962","65.86","1019.44","7.57","71.71","43.4","2025-04-28 17:00:00.0"
"SZKO?A PODSTAWOWA IM. JANA BRZECHWY W SZKLARACH G?RNYCH","SZKLARY G?RNE","59-335","SZKLARY G?RNE","16.08945","51.44225","99.90000000000002","1006.2333333333332","24.233333333333334","0.26666666666666666","0.13666666666666666","2025-04-28 17:00:00.0"
"SAMORZ?DOWA SZKO?A PODSTAWOWA W G?RNYCH GR?DACH","G?RNE GR?DY","62-310","G?RNE GR?DY","17.74012","52.11447","19.833333333333332","1010.2800000000001","24.166666666666668","6.066666666666666","3.106666666666667","2025-04-28 17:00:00.0"
"SZKO?A PODSTAWOWA IM. KRZYSZTOFA KAMILA BACZY?SKIEGO W CI??ENIU","WOLNO?CI","62-404","CI??E?","17.816093","52.21152","20.73333333333333","1013.2333333333332","20.233333333333334","2.8333333333333335","1.6333333333333335","2025-04-28 17:00:00.0"
"SZKO?A PODSTAWOWA NR 1 IM. STRAJKU DZIECI KO?MI?SKICH 1906/1907 W KO?MINIE WIELKOPOLSKIM","GLINKI","63-720","KO?MIN WIELKOPOLSKI","17.45651","51.82566","1.9333333333333333","1014.0","19.033333333333335","3.266666666666667","1.8066666666666666","2025-04-28 17:00:00.0"
"SZKO?A PODSTAWOWA NR 6 IM. JANA PAW?A II W STAROGARDZIE GDA?SKIM","BP. DOMINIKA","83-250","STAROGARD GDA?SKI","18.491356","53.98333","28.0","1015.1333333333333","19.266666666666666","0.8000000000000002","0.4533333333333333","2025-04-28 17:00:00.0"
"SZKO?A PODSTAWOWA NR 4 IM. JANUSZA KORCZAKA W CHOJNOWIE","JANA KILI?SKIEGO","59-225","CHOJN?W","15.9396","51.26856","99.90000000000002","1009.0","27.7","10.0","4.47","2025-04-28 17:00:00.0"
"ZESP?? SZK?? TECHNICZNYCH W KOLE","KOLEJOWA","62-600","KO?O","18.62956","52.2088","92.77","1013.1","8.54","28.83","16.58","2025-04-28 17:00:00.0"
"PUBLICZNA SZKO?A PODSTAWOWA NR 2 IM. KAZIMIERZA PU?ASKIEGO W WARCE","POLNA","05-660","WARKA","21.188357","51.78638","28.766666666666666","1011.1333333333333","22.766666666666666","1.4333333333333333","0.85","2025-04-28 17:00:00.0"
"SZKO?A PODSTAWOWA NR 2 IM. STEFANA STARZY?SKIEGO W NASIELSKU","KO?CIUSZKI","05-190","NASIELSK","20.801001","52.589717","5.0","1012.0666666666666","19.433333333333334","5.366666666666667","2.986666666666667","2025-04-28 17:00:00.0"
"ZESP?? SZKOLNO-PRZEDSZKOLNY W KAZUNIU NOWYM","G??WNA","05-152","KAZU? NOWY","20.68265","52.419853","32.5","1026.1666666666667","21.166666666666668","2.433333333333333","1.366666666666667","2025-04-28 17:00:00.0"
"SZKO?A PODSTAWOWA IM. MIKO?AJA KOPERNIKA W CIEKSYNIE","MARSZ. J?ZEFA PI?SUDSKIEGO","05-192","CIEKSYN","20.666605","52.572132","66.26","1019.2400000000001","7.599999999999999","69.42","40.92","2025-04-28 17:00:00.0"
"SZKO?A PODSTAWOWA NR 5 IM MIKO?AJA KOPERNIKA W CZECHOWICACH-DZIEDZICACH","KLASZTORNA","43-502","CZECHOWICE-DZIEDZICE","19.003326","49.908154","29.8","997.7000000000002","31.8","23.0","11.76","2025-04-28 17:00:00.0"
"SZKO?A PODSTAWOWA IM. KS. J?ZEFA LONDZINA W ZABRZEGU","KAROLA PYTLA","43-516","ZABRZEG","18.9401","49.91564","32.166666666666664","983.3666666666667","21.099999999999998","4.766666666666667","2.6799999999999997","2025-04-28 17:00:00.0"
"GMINNE PRZEDSZKOLE W NOWEJ WSI","UL. G??WNA","05-806","NOWA WIE?","20.793608032839607","52.14079879793492","28.03333333333333","1020.3000000000001","18.7","5.3","3.1633333333333336","2025-04-28 17:00:00.0"
"SZKO?A PODSTAWOWA IM. JANA PAW?A II W MICHA?OWICACH","UL. SZKOLNA","05-816","MICHA?OWICE","20.8894743996203","52.16806240949327","30.733333333333334","1017.9333333333334","17.96666666666667","4.566666666666666","2.47","2025-04-28 17:00:00.0"
"SZKO?A PODSTAWOWA IM. MARII D?BROWSKIEJ W KOMOROWIE","UL. M. D?BROWSKIEJ","05-806","KOMOR?W","20.814969926602924","52.14696671968943","29.433333333333334","1018.1","19.400000000000002","4.666666666666667","2.7866666666666666","2025-04-28 17:00:00.0"
"SZKO?A PODSTAWOWA IM. MIKO?AJA KOPERNIKA W NOWEJ WSI","UL. G??WNA","05-806","NOWA WIE?","20.80065871311049","52.134787344746286","28.03333333333333","1020.3000000000001","18.7","5.3","3.1633333333333336","2025-04-28 17:00:00.0"
"GMINNE PRZEDSZKOLE W MICHA?OWICACH","UL. SZKOLNA","05-816","MICHA?OWICE","20.8908240883606","52.16924425690457","30.733333333333334","1017.9333333333334","17.96666666666667","4.566666666666666","2.47","2025-04-28 17:00:00.0"
"ZESP?? SZKOLNO-PRZEDSZKOLNY W SMO?DZINIE","BOHATER?W WARSZAWY","76-214","SMO?DZINO","17.217509899999996","54.66198055959346","99.90000000000002","1024.7666666666667","16.5","2.5","1.26","2025-04-28 17:00:00.0"
"ZESP?? SZKOLNO- PRZEDSZKOLNY W?DOBRZYKOWICACH","UL. SUKCESU","55-002","DOBRZYKOWICE","17.185415","51.092059","30.433333333333334","1000.9","19.966666666666665","3.8333333333333335","2.08","2025-04-28 17:00:00.0"
"SZKO?A PODSTAWOWA IM. PIAST?W ?L?SKICH W CHRZ?STAWIE WIELKIEJ","UL. WROC?AWSKA","55-003","CZERNICA","17.292154","51.092542","24.900000000000002","1007.1","20.233333333333334","1.8","0.9366666666666666","2025-04-28 17:00:00.0"
"ZESP?? SZKOLNO-PRZEDSZKOLNY IM. PAPIE?A JANA PAW?A II W CZERNICY","UL. ?W. BRATA ALBERTA ADAMA CHMIELOWSKIEGO?","55-003","CZERNICA","17.248533"," 51.0473805","27.7","1014.0","21.2","2.5","1.1900000000000002","2025-04-28 17:00:00.0"
"SZKO?A PODSTAWOWA IM. JANUSZA KORCZAKA W RATOWICACH","UL. WROC?AWSKA","55-003","CZERNICA","17.266850"," 51.033897","10.5","996.1","33.333333333333336","3.466666666666667","1.96","2025-04-28 17:00:00.0"
"SZKO?A PODSTAWOWA IM. BOLES?AW KRZYWOUSTEGO W KAMIE?CU WROC?AWSKIM","UL. KOLEJOWA","55-002","KAMIENIEC WROC?AWSKI","17.173628"," 51.077638","37.96666666666667","1000.3000000000001","20.033333333333335","4.166666666666667","2.2666666666666666","2025-04-28 17:00:00.0"
"SZKO?A PODSTAWOWA NR 4 IM. JANA MEJSTERA W S?OMCZYNIE","WILANOWSKA","05-520","KONSTANCIN-JEZIORNA","21.15329336951058","52.060898677662806","57.70000000000001","1008.0","5.900000000000001","5.599999999999999","3.43","2025-04-28 17:00:00.0"
"PUBLICZNA SZKO?A PODSTAWOWA W TOMASZOWIE","LE?NA","68-114","TOMASZ?W","15.404658513741197","51.622513710796575","5.0","1003.9333333333334","23.633333333333336","2.8666666666666667","1.6600000000000001","2025-04-28 17:00:00.0"
"SZKO?A PODSTAWOWA NR 29 W LUBLINIE","WAJDELOTY","20-604","LUBLIN","22.5237824136724","51.2433286093504","30.566666666666666","1001.0833333333334","18.175","4.583333333333333","3.5833333333333335","2025-04-28 17:00:00.0"
"SZKO?A PODSTAWOWA W SZKODNEJ","","39-126","SZKODNA","21.6475593266686","49.9841839576423","20.0625","987.225","24.2125","2.0125","2.0125","2025-04-28 17:00:00.0"
"SZKO?A PODSTAWOWA IM. MARII KONOPNICKIEJ W BUDACH G?OGOWSKICH","BUDY G?OGOWSKIE","36-060","BUDY G?OGOWSKIE","21.9052064322315","50.1600258408686","29.59166666666667","997.0","19.55","4.75","4.5","2025-04-28 17:00:00.0"
"SZKO?A PODSTAWOWA W KL?CZANACH","B?DZIEMY?L, KLECZANY","39-127","KL?CZANY","21.7805870168847","50.0725485846066","20.275000000000002","998.0","20.416666666666668","3.6666666666666665","3.5","2025-04-28 17:00:00.0"
"SZKO?A PODSTAWOWA IM. ?W. JADWIGI KR?LOWEJ W SIETESZY","SIETESZ","37-206","SIETESZ","22.3548248494236","49.9901875306008","25.666666666666668","993.6666666666666","22.666666666666668","3.6666666666666665","3.25","2025-04-28 17:00:00.0"
"PUBLICZNA SZKO?A PODSTAWOWA W BACH?RCU","BACH?RZEC","37-750","BACH?RZEC","22.334908846237","49.82477572297","22.291666666666668","994.4166666666666","30.633333333333336","2.6666666666666665","2.5833333333333335","2025-04-28 17:00:00.0"
"SZKO?A PODSTAWOWA NR 3 IM. JANA PAW?A II W ROPCZYCACH","3 MAJA","39-100","ROPCZYCE","21.5832672438671","50.0389694490123","19.8","999.1666666666666","20.633333333333333","2.6666666666666665","2.5","2025-04-28 17:00:00.0"
"SZKO?A PODSTAWOWA NR 10 IM. OR?A BIA?EGO W SOSNOWCU","REYMONTA","41-200","SOSNOWIEC","19.1269172651723","50.2878010895257","17.008333333333333","993.25","34.333333333333336","5.0","4.166666666666667","2025-04-28 17:00:00.0"
"SZKO?A PODSTAWOWA NR 89 IM. KORNELA MAKUSZY?SKIEGO W KRAKOWIE","OS. PIAST?W","31-624","KRAK?W","20.0188257572655","50.1000269916206","37.88333333333333","996.0","19.533333333333335","7.916666666666667","6.75","2025-04-28 17:00:00.0"
"SZKO?A PODSTAWOWA NR 2  IM. KAZIMIERZA BRODZI?SKIEGO W BOCHNI","ORACKA","32-700","BOCHNIA","20.4250867479996","49.9702658831946","75.2","996.0","7.7","24.0","18.0","2025-04-28 17:00:00.0"
"SZKO?A PODSTAWOWA NR 1 IM. W?ADYS?AWA JAGIE??Y W OSIEKU","G??WNA","32-608","OSIEK","19.2631410879493","49.9511789367323","43.041666666666664","995.0","19.291666666666668","4.25","3.5833333333333335","2025-04-28 17:00:00.0"
"SZKO?A PODSTAWOWA IM. KAZIMIERZA G?RSKIEGO W ?OZINIE","MILICKA","55-095","?OZINA","17.180298682797538","51.23388117656271","28.066666666666666","1007.0333333333333","21.03333333333333","20.333333333333332","11.299999999999999","2025-04-28 17:00:00.0"
"PRZEDSZKOLE W KIE?CZOWIE","WROC?AWSKA","55-093","KIE?CZ?W","17.19065006929958","51.1371047031024","30.133333333333336","1005.2333333333332","19.966666666666665","4.533333333333333","2.4166666666666665","2025-04-28 17:00:00.0"
"SZKO?A PODSTAWOWA W LISZYNIE","UL. WAWRZY?CA SIKORY","09-408","LISZYNO","19.817459454245913","52.49033616836436","82.51","1015.35","6.61","71.98","43.72","2025-04-28 17:00:00.0"
"PRZEDSZKOLE W BLIZNEM JASI?SKIEGO","UL. TADEUSZA KO?CIUSZKI","05-082","BLIZNE JASI?SKIEGO","20.881159640505192","52.2438730196329","30.433333333333334","1020.8666666666667","18.966666666666665","4.633333333333333","2.78","2025-04-28 17:00:00.0"
"ZESP?? SZK?? W PRUDNIKU","UL. D?BROWSKIEGO","48-200","PRUDNIK","17.571637628835184","50.32109542835716","52.199999999999996","996.9","19.333333333333332","5.266666666666667","2.783333333333333","2025-04-28 17:00:00.0"
"PRZEDSZKOLE ,,MI? USZATEK"" W OSTROROGU","UL. WRONIECKA","64-560","OSTROR?G","16.446531842328756","52.62862454862175","99.90000000000002","1013.4333333333334","23.233333333333334","6.6000000000000005","4.096666666666667","2025-04-28 17:00:00.0"
"SZKO?A PODSTAWOWA NR 2 IM. GUSTAWA MORCINKA W TOSZKU","UL. WILKOWICKA","44-180","TOSZEK","18.527405971163624","50.454108128948924","45.199999999999996","998.1666666666666","19.866666666666667","5.333333333333333","3.0500000000000003","2025-04-28 17:00:00.0"
"SZKO?A PODSTAWOWA IM. KAWALER?W ORDERU U?MIECHU W CZERSKU","UL. WARSZAWSKA","05-530","CZERSK","21.227091274384716","51.96063591615556 ","27.439999999999998","1009.6","20.32","3.84","3.8200000000000003","2025-04-28 17:00:00.0"
"PUBLICZNA SZKO?A PODSTAWOWA IM. JANA PAW?A II W ROSZOWICKIM LESIE","UL. SZKOLNA","47-253","ROSZOWICKI LAS","18.21990066","50.26168468","35.59166666666667","1001.3833333333333","22.183333333333334","5.6499999999999995","4.8500000000000005","2025-04-28 17:00:00.0"
"SZKO?A PODSTAWOWA IM. KS. JANA TWARDOWSKIEGO W RACIMIERZU","UL. NIEPODLEG?O?CI","72-111","RACIMIERZ","14.65747308","53.7423708","21.191666666666666","1021.9666666666667","24.766666666666666","3.641666666666667","3.0666666666666664","2025-04-28 17:00:00.0"
"I KATOLICKIE SPO?ECZNE LICEUM OG?LNOKSZTA?CACE IM.?W.BRATA ALBERTA CHMIELOWSKIEGO W PU?AWACH","UL. STANIS?AWA EUSTACHIEWICZA","24-100","PU?AWY","21.95614207","51.41935824","23.09166666666667","1007.4499999999999","20.291666666666668","2.5500000000000003","2.5500000000000003","2025-04-28 17:00:00.0"
"TECHNIKUM NR 4 W ZESPOLE SZK?? TECHNICZNYCH IM.M. SK?ODOWSKIEJ-CURIE W PU?AWACH","UL. WOJSKA POLSKIEGO","24-100","PU?AWY","21.97667461","51.41823622","22.258333333333336","1006.8166666666666","21.941666666666666","3.775","3.0416666666666665","2025-04-28 17:00:00.0"
"SZKO?A PODSTAWOWA NR 2 IM. KRZYSZTOFA KAMILA BACZY?SKIEGO W PU?AWACH","AL. MA?A","24-100","PU?AWY","21.96276919","51.41579363","23.933333333333334","1006.65","20.0","3.25","2.6333333333333333","2025-04-28 17:00:00.0"
"SZKO?A PODSTAWOWA IM. HANSA CHRISTIANA ANDERSENA W JAWIDZU","","21-077","JAWIDZ","22.72203892","51.3706852","26.808333333333334","1008.225","20.333333333333332","6.875","6.241666666666667","2025-04-28 17:00:00.0"
"SZKO?A PODSTAWOWA NR 4 IM. PAPIE?A JANA PAW?A II W ??CZNEJ","UL. JA?MINOWA","21-010","??CZNA","22.88259013","51.29206273","33.875","1003.9666666666667","17.366666666666667","3.341666666666667","3.0500000000000003","2025-04-28 17:00:00.0"
"SZKO?A PODSTAWOWA IM.JOACHIMA LELEWELA W JAKUBOWICACH KONI?SKICH","UL. SZKOLNA","21-003","JAKUBOWICE KONI?SKIE","22.52628594","51.31010447","34.34166666666667","1001.475","17.358333333333334","3.7083333333333335","3.4499999999999997","2025-04-28 17:00:00.0"
"SZKO?A PODSTAWOWA W K?ODNICY DOLNEJ","","24-224","K?ODNICA DOLNA","22.28477957","51.06632652","33.94166666666667","999.8666666666667","17.041666666666668","2.625","2.1083333333333334","2025-04-28 17:00:00.0"
"SZKO?A PODSTAWOWA NR 6 IM. IRENY SENDLEROWEJ W CHE?MIE","UL. POWSTA?C?W WARSZAWY","22-100","CHE?M","23.479142939944662","51.126339150220325 ","18.683333333333334","999.9","23.7","2.6999999999999997","2.2416666666666667","2025-04-28 17:00:00.0"
"SZKO?A PODSTAWOWA NR 4 IM. KORNELA MAKUSZY?SKIEGO W BIA?EJ PODLASKIEJ","UL. STANIS?AWA MONIUSZKI","21-500","BIA?A PODLASKA","23.1240646","52.03658476","20.900000000000002","1006.1999999999999","19.349999999999998","3.983333333333333","3.275","2025-04-28 17:00:00.0"
"SZKO?A PODSTAWOWA IM.KSI?DZA JANA TWARDOWSKIEGO W CZACH?WKU","UL. G??WNA","05-530","CZACH?WEK","21.0884246","51.96101922","31.191666666666666","1011.2583333333333","19.025000000000002","5.616666666666667","4.758333333333334","2025-04-28 17:00:00.0"
"LICEUM OG?LNOKSZTA?C?CE W LIPSKU","UL. ZWOLE?SKA","27-300","LIPSKO","21.65162688","51.16209825","17.119999999999997","1003.71","24.04","4.4799999999999995","3.66","2025-04-28 17:00:00.0"
"TECHNIKUM NR 2 W GARWOLINIE","UL. ?O?NIERZY II ARMII WOJSKA POLSKIEGO","08-400","GARWOLIN","21.5953052","51.89704263","23.358333333333334","1008.1333333333333","20.308333333333334","5.175","4.25","2025-04-28 17:00:00.0"
"PUBLICZNA SZKO?A PODSTAWOWA IM. O. STANIS?AWA PAPCZY?SKIEGO W MARIA?SKIM PORZECZU","","08-470","MARIA?SKIE PORZECZE","21.33261521","51.88402213","23.483333333333334","1011.4666666666667","19.733333333333334","4.6000000000000005","3.983333333333333","2025-04-28 17:00:00.0"
"SZKO?A MUZYCZNA I ST. W GARWOLINIE","UL. JANA PAW?A II","08-400","GARWOLIN","21.61280145","51.89874672","23.7","1007.5","19.733333333333334","3.716666666666667","3.0500000000000003","2025-04-28 17:00:00.0"
"SZKO?A PODSTAWOWA NR 2 W KONSTANCINIE-JEZIORNEJ","UL. STEFANA ?EROMSKIEGO","05-510","KONSTANCIN-JEZIORNA","21.12317779","52.07946519","21.275000000000002","1011.8916666666665","20.95","3.483333333333333","3.091666666666667","2025-04-28 17:00:00.0"
"TECHNIKUM NR 2 IM. EMILII PLATER W PIASECZNIE","UL. ALEJA BRZ?Z","05-501","PIASECZNO","21.02070292","52.0540252","29.166666666666668","1012.3166666666666","19.241666666666667","5.566666666666666","4.883333333333334","2025-04-28 17:00:00.0"
"PUBLICZNA SZKO?A PODSTAWOWA IM.KORNELA MAKUSZY?SKIEGO W UGNIEWIE","UL. SZKOLNA","07-300","UGNIEWO","21.91017286","52.8032487","25.34","1008.82","19.1","5.92","5.82","2025-04-28 17:00:00.0"
"SZKO?A PODSTAWOWA NR 2 IM. FRYDERYKA CHOPINA W MALKINI G?RNEJ","UL. LE?NA","07-320","MA?KINIA G?RNA","22.05928062","52.6945031","22.358333333333334","1011.6416666666668","22.525000000000002","17.133333333333333","16.633333333333333","2025-04-28 17:00:00.0"
"SZKO?A PODSTAWOWA IM. B?OGOS?AWIONEGO OJCA STANIS?AWA PAPCZY?SKIEGO W K?TACH","UL. PU?AWSKA","05-532","K?TY","21.17263735","52.00208981","18.816666666666666","1009.9416666666666","23.224999999999998","4.55","4.05","2025-04-28 17:00:00.0"
"SZKO?A PODSTAWOWA NR 3 IM. ADAMA MICKIEWICZA W OSTRO??CE","UL. IGNACEGO JERZEGO SKOWRO?SKIEGO","07-417","OSTRO??KA","21.60307406","53.05404225","22.7","1010.1","20.080000000000002","5.640000000000001","5.220000000000001","2025-04-28 17:00:00.0"
"TECHNIKUM GASTRONOMICZNE W GDYNI","UL. MORSKA","81-222","GDYNIA","18.51581066","54.52508818","38.333333333333336","1020.525","14.716666666666667","6.466666666666666","5.741666666666667","2025-04-28 17:00:00.0"
"SZKO?A PODSTAWOWA W Z?OTOK?OSIE","UL. TRAUGUTTA","05-504","Z?OTOK?OS","20.90784407","52.00962311","32.18333333333333","1010.4333333333334","19.658333333333335","6.991666666666667","5.933333333333334","2025-04-28 17:00:00.0"
"SZKO?A PODSTAWOWA IM. FELIKSA KAPACKIEGO W CENDROWICACH","UL. SZKOLNA","05-530","CENDROWICE","21.13239127","51.96755856","25.099999999999998","1007.9666666666667","18.891666666666666","4.925","4.308333333333334","2025-04-28 17:00:00.0"
"II LICEUM OG?LNOKSZTA?C?CE IM. EMILII PLATER W BIA?EJ PODLASKIEJ","UL. GABRIELA NARUTOWICZA","21-500","BIA?A PODLASKA","23.1217813","52.03188711","23.958333333333332","1008.9499999999999","19.525000000000002","2.525","2.0749999999999997","2025-04-28 17:00:00.0"
"SZKO?A PODSTAWOWA IM. KS. JANA TWARDOWSKIEGO W GLINIE","","07-320","GLINA","21.95984362","52.6962338","25.474999999999998","1009.5333333333333","19.2","5.558333333333334","5.541666666666667","2025-04-28 17:00:00.0"
"PUBLICZNE TECHNIKUM LE?NE ZESPO?U SZK?? W TU?OWICACH","UL. ZAMKOWA","49-130","TU?OWICE","17.65698382","50.59142765","29.95","1004.3249999999999","24.016666666666666","6.6000000000000005","5.666666666666667","2025-04-28 17:00:00.0"
"SZKO?A PODSTAWOWA ZESPO?U SZK?? IM. BOLES?AWA CHROBREGO W NIEMODLINIE","UL. OPOLSKA ","49-100","NIEMODLIN","17.63285173","50.64185007","32.06666666666666","1005.35","23.0","7.866666666666667","6.983333333333333","2025-04-28 17:00:00.0"
"TECHNIKUM W RYDU?TOWACH","UL. OBYWATELSKA","44-280","RYDU?TOWY","18.42658537","50.07171957","35.50833333333333","987.2416666666667","21.216666666666665","4.3999999999999995","3.875","2025-04-28 17:00:00.0"
"SZKO?A PODSTAWOWA IM.KARDYNA?A STEFANA WYSZY?SKIEGO W TELATYNIE","UL. KARDYNA?A STEFANA WYSZY?SKIEGO","22-652","TELATYN","23.8446095","50.52250671","25.616666666666664","996.8000000000001","18.508333333333333","3.375","2.908333333333333","2025-04-28 17:00:00.0"
"TECHNIKUM NR 1 W ?WIDNIKU","UL. SZKOLNA","21-045","?WIDNIK","22.69752657","51.22672919","30.099999999999998","999.1999999999999","17.616666666666667","3.4166666666666665","3.125","2025-04-28 17:00:00.0"
"I LICEUM OG?LNOKSZTA?C?CE IM. STEFANA CZARNIECKIEGO W CHE?MIE","UL. STEFANA CZARNIECKIEGO","22-100","CHE?M","23.477739357670377","51.134834775533534","19.383333333333333","1001.1083333333332","24.2","2.533333333333333","2.216666666666667","2025-04-28 17:00:00.0"
"SZKO?A PODSTAWOWA W O?DAKACH","","07-411","O?DAKI","21.692978","53.095518","20.741666666666667","1012.4083333333333","23.666666666666668","6.858333333333333","6.033333333333334","2025-04-28 17:00:00.0"
"SZKO?A PODSTAWOWA IM.J.WYBICKIEGO W POLNICY","","77-300","POLNICA","17.40057712","53.75198216","22.941666666666666","1006.7666666666668","21.941666666666666","2.766666666666667","2.4916666666666667","2025-04-28 17:00:00.0"
"SZKO?A PODSTAWOWA W RAJKOWACH W ZESPOLE KSZTA?CENIA I WYCHOWANIA W RAJKOWACH","UL. JESIONOWA","83-130","RAJKOWY","18.7092112","53.9610738","18.8","1015.8166666666666","24.166666666666668","2.6083333333333334","2.3000000000000003","2025-04-28 17:00:00.0"
"LICEUM OG?LNOKSZTA?C?CE W REDZIE","UL. ??KOWA","84-240","REDA","18.3577379","54.60185","34.300000000000004","1021.5272727272727","16.663636363636364","6.354545454545455","5.7","2025-04-28 17:00:00.0"
"SZKO?A PODSTAWOWA IM. MARYNARKI WOJENNEJ RP W OSTASZEWIE","UL. KO?CIUSZKI","82-112","OSTASZEWO","18.9507202","54.2131383","18.18","1022.36","26.660000000000004","3.9799999999999995","3.5","2025-04-28 17:00:00.0"
"TECHNIKUM NR 2 W BYTOWIE","UL. HIERONIMA DERDOWSKIEGO","77-100","BYT?W","17.48812443","54.16585829","20.891666666666666","1006.975","20.541666666666668","2.466666666666667","2.25","2025-04-28 17:00:00.0"
"SZKO?A PODSTAWOWA W ZIELINIE","UL. PRUDNICKA","47-370","ZIELINA","17.7989291","50.4408404","27.258333333333336","1000.85","26.933333333333334","5.341666666666666","4.516666666666667","2025-04-28 17:00:00.0"
"SZKO?A PODSTAWOWA STOWARZYSZENIA ""Z?OTY POTOK"" W ??CE PRUDNICKIEJ","UL. G?UCHO?ASKA","48-200","??KA PRUDNICKA","17.528406","50.313494","36.88333333333333","989.1583333333333","22.016666666666666","8.058333333333334","7.0249999999999995","2025-04-28 17:00:00.0"
"SZKO?A PODSTAWOWA W ?UBNIE","","77-140","?UBNO","17.22653098","54.15365707","25.116666666666664","1005.6999999999999","18.933333333333334","4.158333333333333","3.4416666666666664","2025-04-28 17:00:00.0"
"PUBLICZNA SZKO?A PODSTAWOWA IM. EDMUNDA DYWELSKIEGO W ZBLEWIE","UL. KASZTELA?SKA","83-210","BYTONIA","18.28590547","53.9203933","21.266666666666666","1007.0166666666665","21.791666666666668","4.0249999999999995","3.65","2025-04-28 17:00:00.0"
"LICEUM OG?LNOKSZTA?C?CE W CZ?UCHOWIE","UL. JANUSZA KUSOCI?SKIEGO","77-300","CZ?UCH?W","17.36617595","53.66292375","25.258333333333336","1003.525","19.474999999999998","3.5","2.9916666666666667","2025-04-28 17:00:00.0"
"SZKO?A PODSTAWOWA NR 3 IM. MARII KONOPNICKIEJ W BIA?EJ PODLASKIEJ","UL. SPORTOWA","21-500","BIA?A PODLASKA","23.119378","52.022177","23.075","1005.8000000000001","19.3125","2.8625","2.8625","2025-04-28 17:00:00.0"
"PUBLICZNA SZKO?A PODSTAWOWA IM. KSI?DZA JANA TWARDOWSKIEGO W JANUSZKOWICACH","UL. LESIA?SKA","47-330","JANUSZKOWICE","18.1356599","50.3898439","35.4875","1001.825","21.6625","5.7875","5.0","2025-04-28 17:00:00.0"
"SZKO?A PODSTAWOWA IM. MARII SK?ODOWSKIEJ-CURIE W ALWERNI","UL. MARII SK?ODOWSKIEJ-CURIE","32-566","ALWERNIA","19.542471211821844","50.06505227372774","30.84166666666667","986.7916666666666","20.891666666666666","4.366666666666666","3.783333333333333","2025-04-28 17:00:00.0"
"SZKO?A PODSTAWOWA IM. MIKO?AJA KOPERNIKA W BALINIE","UL. JAWORZNICKA","32-500","BALIN","19.373681797572548","50.171073102747464 ","38.68333333333333","986.0749999999999","19.616666666666667","4.608333333333333","4.133333333333334","2025-04-28 17:00:00.0"
"TECHNIKUM NR 2 IM. BOHATER?W WESTERPLATTE W KLUCZBORKU","UL. BYCZY?SKA","46-200","KLUCZBORK","18.20597356","50.97669665","15.174999999999999","1000.7583333333333","27.95","2.191666666666667","2.191666666666667","2025-04-28 17:00:00.0"
"PUBLICZNA SZKO?A PODSTAWOWA IM.HALINY SEMENOWICZ W MOSZCZANCE","","48-200","MOSZCZANKA","17.483901","50.295686","41.083333333333336","986.225","19.633333333333333","6.325","6.316666666666666","2025-04-28 17:00:00.0"
"BRAN?OWA SZKO?A I STOPNIA W ?ASKARZEWIE","UL. KOLEJOWA","08-450","?ASKARZEW","21.599958","51.788404","22.457142857142856","1006.4","19.657142857142855","4.685714285714285","3.857142857142857","2025-04-28 17:00:00.0"
"SZKO?A PODSTAWOWA IM.?WIRKI I WIGURY W RADOCZY","UL. D?BOWA","34-100","RADOCZA","19.4703966","49.9176909","35.94","989.5600000000001","20.7","5.66","4.5600000000000005","2025-04-28 17:00:00.0"
"SZKO?A PODSTAWOWA NR 5 IM. MARII KONOPNICKIEJ W CHE?MIE","UL. I PU?KU SZWOLE?ER?W","22-100","CHE?M","23.481093","51.134591","23.616666666666664","1000.25","19.075","3.1333333333333333","2.625","2025-04-28 17:00:00.0"
"LICEUM OG?LNOKSZTA?C?CE IM. KS. J. ST. PASIERBA W PELPLINIE","UL. SAMBORA","83-130","PELPLIN","18.6979422","53.9283135","21.25","1017.2700000000001","21.080000000000002","2.6","2.3400000000000003","2025-04-28 17:00:00.0"
"TECHNIKUM W G?OG?WKU","UL. POWSTA?C?W","48-250","G?OG?WEK","17.86435","50.35349","32.0","998.2333333333332","24.075","7.308333333333334","6.108333333333333","2025-04-28 17:00:00.0"
"SZKO?A PODSTAWOWA NR 2 IM. KS. STANIS?AWA STASZICA W CHE?MIE","UL. OB?O?SKA","22-100","CHE?M","23.47575683","51.13815167","24.275000000000002","1001.4250000000001","20.491666666666667","3.375","2.891666666666667","2025-04-28 17:00:00.0"
"SZKO?A PODSTAWOWA NR 8 IM. BOLES?AWA ZYGMUNTA WIRSKIEGO W CHE?MIE","UL. PO?ANIECKA","22-100","CHE?M","23.477306","51.123224","22.044444444444444","999.8777777777777","21.866666666666667","3.3111111111111113","2.8111111111111113","2025-04-28 17:00:00.0"
"PUBLICZNA SZKO?A PODSTAWOWA W DZIEP??CI","","97-500","DZIEP???","19.5287876","51.0531482","27.008333333333336","991.7083333333334","22.608333333333334","5.333333333333333","4.216666666666667","2025-04-28 17:00:00.0"
"SZKO?A PODSTAWOWA NR 10 Z ODDZIA?AMI INTEGRACYJNYMI IM. WALERIANA ?UKASI?SKIEGO W ZAMO?CIU","UL. PEOWIAK?W","22-400","ZAMO??","23.256959617892495","50.72103172968299 ","20.441666666666666","997.5166666666668","23.566666666666666","3.158333333333333","2.6833333333333336","2025-04-28 17:00:00.0"
"ZESP?? SZK?? GMINNYCH IM. HENRYKA SIENKIEWICZA W BOGUCICACH SZKO?A PODSTAWOWA W BOGUCICACH","","32-711","BOGUCICE","20.498337","50.057389","25.458333333333332","1002.625","26.858333333333334","2.2333333333333334","1.925","2025-04-28 17:00:00.0"
"PUBLICZNA SZKO?A PODSTAWOWA W NIEDZIELISKACH","","32-820","NIEDZIELISKA","20.632091271164818","50.09115399071606","29.122222222222224","1000.8888888888889","20.666666666666668","3.3111111111111113","2.933333333333333","2025-04-28 17:00:00.0"
"TECHNIKUM W ZESPOLE SZK?? AGROBIZNESU IM.MACIEJA RATAJA W KLEMENTOWICACH","","24-170","KLEMENTOWICE","22.113069","51.362926","25.116666666666664","1003.9583333333334","19.216666666666665","3.716666666666667","2.733333333333334","2025-04-28 17:00:00.0"
"PUBLICZNA SZKO?A PODSTAWOWA IM. KAZIMIERZA RAS?AWSKIEGO W BORZECHOWIE ","","24-224","BORZECH?W-KOLONIA","22.2853918","51.09246552","23.428571428571427","999.3142857142857","21.25714285714286","2.3714285714285714","2.0142857142857142","2025-04-28 17:00:00.0"
"SZKO?A PODSTAWOWA NR 117 IM. KRAKOWSKIEJ KONGREGACJI KUPIECKIEJ W KRAKOWIE","UL. JANA KURCZABA","30-868","KRAK?W-PODG?RZE","20.006872057670375","50.01317838097981","36.11666666666667","997.65","19.599999999999998","7.233333333333333","6.816666666666666","2025-04-28 17:00:00.0"
"VI LICEUM OG?LNOKSZTA?C?CE IM. HUGONA KO???TAJA W LUBLINIE","UL. ADAMA MICKIEWICZA","20-466","LUBLIN","22.577994","51.216809","29.963636363636365","1003.2181818181817","18.672727272727272","3.063636363636364","2.890909090909091","2025-04-28 17:00:00.0"
"LICEUM OG?LNOKSZTA?C?CE IM. MIKO?AJA KOPERNIKA W NASIELSKU","UL. LIPOWA","05-190","NASIELSK","20.7955019","52.59533614","24.491666666666664","1011.9","22.25","5.6499999999999995","4.833333333333333","2025-04-28 17:00:00.0"
"SZKO?A PODSTAWOWA IM. WINCENTEGO WITOSA W GROMNIKU","UL. WITOSA","33-180","GROMNIK","20.959304","49.840276","21.416666666666668","992.7333333333332","27.28333333333333","3.1166666666666667","2.733333333333333","2025-04-28 17:00:00.0"
"AKADEMIA NAJM?ODSZYCH KRZYSZTOF GO?A? NIEPUBLICZNA SZKO?A PODSTAWOWA W KADZIDLE","UL. BRZOZOWA","07-420","KADZID?O","21.450353","53.231522","18.45","1009.0833333333334","22.34166666666667","3.5666666666666664","3.141666666666667","2025-04-28 17:00:00.0"
"SZKO?A PODSTAWOWA IM. ?W. STANIS?AWA KOSTKI W AMELINIE","","06-212","AMELIN","20.92818124","52.98166409","25.375","1009.7583333333333","18.608333333333334","6.291666666666667","5.483333333333333","2025-04-28 17:00:00.0"
"SZKO?A PODSTAWOWA SPECJALNA NR 44 IM. JANA BRZECHWY W KRAKOWIE","UL. ZAK?TEK","30-076","KRAK?W","19.916426","50.076299","32.93333333333333","997.1166666666667","21.3","7.8500000000000005","6.533333333333334","2025-04-28 17:00:00.0"
"SZKO?A PODSTAWOWA NR 1 IM. ?W. JADWIGI KR?LOWEJ W PODWILKU","","34-722","PODWILK","19.7397286","49.547978","33.86666666666667","943.0666666666666","21.05","3.7083333333333335","3.5083333333333333","2025-04-28 17:00:00.0"
"LICEUM OG?LNOKSZTA?C?CE KADET?W RZECZYPOSPOLITEJ POLSKIEJ W LIPINACH","","26-425","LIPINY","20.511418","51.54591","19.983333333333334","1005.5500000000001","23.683333333333334","2.25","1.8666666666666665","2025-04-28 17:00:00.0"
"SZKO?A PODSTAWOWA NR 12 IM. JANA PAW?A II W TOMASZOWIE MAZOWIECKIM","UL. WIEJSKA","97-200","TOMASZ?W MAZOWIECKI","20.0210344","51.5251204","15.475","1002.025","26.53333333333333","2.75","2.3000000000000003","2025-04-28 17:00:00.0"
"SZKO?A PODSTAWOWA NR 1 W BIA?YM BORZE","UL. DWORCOWA","78-425","BIA?Y B?R","16.84535152","53.89895274","19.941666666666666","1001.1999999999999","19.65833333333333","2.1166666666666667","1.8","2025-04-28 17:00:00.0"
"SZKO?A PODSTAWOWA IM.NOBLIST?W POLSKICH W SIEMY?LU","UL. SZKOLNA","78-123","SIEMY?L","15.53351351","54.02888072","27.95","1019.3333333333334","20.241666666666667","4.166666666666667","3.7416666666666667","2025-04-28 17:00:00.0"
"SZKO?A PODSTAWOWA NR 1 IM. ADAMA MICKIEWICZA W PO?CZYNIE-ZDROJU","UL. GRUNWALDZKA","78-320","PO?CZYN-ZDR?J","16.095199000000004","53.767893339499636","21.24285714285714","1012.1714285714286","20.2","2.3000000000000003","2.1714285714285713","2025-04-28 17:00:00.0"
"ARCHIDIECEZJALNA SZKO?A MUZYCZNA II ST. IM. KS. KARD. FRANCISZKA MACHARSKIEGO W KRAKOWIE","UL. PROSTA","30-814","KRAK?W-PODG?RZE","19.988467","50.020869","21.11","996.1","30.68","5.46","4.55","2025-04-28 17:00:00.0"
"SZKO?A PODSTAWOWA Z ODDZIA?AMI INTEGRACYJNYMI NR 30 IM. KAZIMIERZA PU?ASKIEGO W KRAKOWIE","UL. KONFEDERACKA","30-306","KRAK?W-PODG?RZE","19.927626","50.048977","26.95","997.9166666666666","25.974999999999998","5.891666666666667","4.791666666666667","2025-04-28 17:00:00.0"
"XII LICEUM OG?LNOKSZTA?C?CE W ZESPOLE SZK?? MECHANICZNO-ELEKTRYCZNYCH W TARNOWIE","UL. J?ZEFA SZUJSKIEGO","33-100","TARN?W","20.975575","50.015268","24.441666666666666","998.9666666666667","22.958333333333332","3.625","3.125","2025-04-28 17:00:00.0"
"TECHNIKUM NR 1 W ZESPOLE SZK?? TECHNICZNYCH IM.IGNACEGO MO?CICKIEGO W TARNOWIE","UL. EUGENIUSZA KWIATKOWSKIEGO","33-101","TARN?W","20.9172948","50.01387361","26.925","999.5583333333334","21.166666666666668","4.166666666666667","3.65","2025-04-28 17:00:00.0"
"SZKO?A PODSTAWOWA IM. JANA TWARDOWSKIEGO W BAR?OMINIE","UL. SZKOLNA","84-242","BAR?OMINO","18.09937753","54.53266693","26.8","1008.96","20.1","2.18","1.9","2025-04-28 17:00:00.0"
"SZKO?A PODSTAWOWA W ZESPOLE SZK?? IM.M?CZENNIK?W MARSZU ?MIERCI KL STUTTHOF W GARCZEGORZU","","84-351","GARCZEGORZE","17.72784195","54.59420501","37.1","1015.775","16.866666666666667","4.75","4.191666666666666","2025-04-28 17:00:00.0"
"PUBLICZNA SZKO?A PODSTAWOWA NR 1 IM.BOHATER?W WESTERPLATTE W PRUDNIKU","UL. PODG?RNA","48-200","PRUDNIK","17.595989","50.32052","42.6","992.4166666666666","19.35833333333333","10.133333333333333","9.291666666666666","2025-04-28 17:00:00.0"
"ZESP?? SZK?? GMINNYCH IM. MIKO?AJA KOPERNIKA W GAW?OWIE SZKO?A PODSTAWOWA Z ODDZIA?AMI SPORTOWYMI W GAW?OWIE","","32-711","GAW??W","20.463199","50.026547","29.05","999.9416666666666","21.758333333333336","3.8333333333333335","3.466666666666667","2025-04-28 17:00:00.0"
"SZKO?A PODSTAWOWA SPECJALNA W GR?JCU","UL. POLNA","05-600","GR?JEC","20.863021","51.862928","22.650000000000002","1004.7083333333334","19.591666666666665","4.683333333333334","3.8666666666666667","2025-04-28 17:00:00.0"
"PUBLICZNA SZKO?A PODSTAWOWA W SUCHEJ","UL. SZLACHECKA","26-800","SUCHA","20.953664","51.617246","22.366666666666664","1007.7333333333332","21.025000000000002","2.766666666666667","2.5500000000000003","2025-04-28 17:00:00.0"
"TECHNIKUM W WARCE","UL. OBWODOWA","05-660","WARKA","21.182782","51.79066","20.791666666666668","1009.0416666666666","20.683333333333334","3.3249999999999997","2.75","2025-04-28 17:00:00.0"
"SZKO?A PODSTAWOWA NR 4 W RYDU?TOWACH","UL. STRZELC?W BYTOMSKICH","44-280","RYDU?TOWY","18.417777","50.06633209","32.31666666666667","989.1166666666667","22.816666666666666","3.8333333333333335","3.3666666666666667","2025-04-28 17:00:00.0"
"PUBLICZNA SZKO?A PODSTAWOWA NR 1 IM. BOLES?AWA KRZYWOUSTEGO W KO?UCHOWIE","UL. CHOPINA","67-120","KO?UCH?W","15.5962077","51.7425702","25.666666666666668","1009.8666666666667","21.366666666666664","7.266666666666667","6.3","2025-04-28 17:00:00.0"
"TECHNIKUM IM. ZES?A?C?W SYBIRU W BRODNICY","UL. KARBOWSKA","87-300","BRODNICA","19.4065091","53.2579165","21.933333333333334","1020.0583333333334","20.933333333333334","7.858333333333333","6.691666666666666","2025-04-28 17:00:00.0"
"PUBLICZNA SZKO?A PODSTAWOWA W GNIEWOSZOWIE","UL. KONOPNICKIEJ","26-920","GNIEWOSZ?W","21.8112","51.471874","19.341666666666665","1007.9833333333332","24.458333333333332","3.8333333333333335","3.1","2025-04-28 17:00:00.0"
"PUBLICZNA SZKO?A PODSTAWOWA W GOSZCZYNIE","UL. ARMII KRAJOWEJ","05-610","GOSZCZYN","20.85589777","51.73236675","16.3","1004.9083333333333","26.96666666666667","3.108333333333333","2.5416666666666665","2025-04-28 17:00:00.0"
"LICEUM OG?LNOKSZTA?C?CE W TARCZYNIE","UL. KS. CZES?AWA OSZKIELA","05-555","TARCZYN","20.83477","51.98106","21.59166666666667","1007.0749999999999","24.708333333333332","5.075","4.5","2025-04-28 17:00:00.0"
"SZKO?A PODSTAWOWA IM. B?OGOS?AWIONEGO KS. JERZEGO POPIE?USZKI W NIECZAJNIE G?RNEJ","","33-205","NIECZAJNA G?RNA","21.052364","50.180347","25.25","1000.1416666666668","21.84166666666667","3.283333333333333","2.7416666666666667","2025-04-28 17:00:00.0"
"SZKO?A PODSTAWOWA NR 86 IM. POWSTA?C?W ?L?SKICH W KRAKOWIE","OS. OSIEDLE JAGIELLO?SKIE","31-833","KRAK?W-NOWA HUTA","20.027067","50.084753","24.14","996.15","27.26","7.44","6.18","2025-04-28 17:00:00.0"
"SZKO?A PODSTAWOWA IM. BATALIONU ""BARBARA"" AK W PAW?ZOWIE","","33-103","PAW?Z?W","20.98588298","50.07066136","20.133333333333333","995.0333333333333","26.5","3.033333333333333","2.6999999999999997","2025-04-28 17:00:00.0"
"PUBLICZNA SZKO?A PODSTAWOWA IM. JANA PAW?A II W RAJBROCIE","","32-725","RAJBROT","20.48706815","49.82154633","27.583333333333332","982.8333333333334","25.483333333333334","2.2916666666666665","1.9916666666666665","2025-04-28 17:00:00.0"
"SZKO?A PODSTAWOWA IM. POWSTA?C?W STYCZNIOWYCH W DALIKOWIE","UL. ??CZYCKA","99-205","DALIK?W","19.10104737","51.8835744","23.016666666666666","1005.6916666666666","20.041666666666668","3.65","3.0666666666666664","2025-04-28 17:00:00.0"
"PUBLICZNA SZKO?A PODSTAWOWA W JAWORZU G?RNYM","","39-223","JAWORZE G?RNE","21.354123","49.94549","22.03333333333333","995.2416666666667","24.96666666666667","3.1333333333333333","2.6833333333333336","2025-04-28 17:00:00.0"
"SZKO?A PODSTAWOWA NR 234 IM. JULIANA TUWIMA W WARSZAWIE","UL. ESPERANTO","01-049","WARSZAWA","20.980951","52.244004","24.400000000000002","1009.7583333333333","19.2","8.4","8.341666666666667","2025-04-28 17:00:00.0"
"XI LICEUM OG?LNOKSZTA?C?CE IM. MIKO?AJA REJA W WARSZAWIE","PL. PLAC STANIS?AWA MA?ACHOWSKIEGO","00-063","WARSZAWA","21.01075177068874","52.238891020514885 ","21.979999999999997","1009.7","21.259999999999998","4.62","4.42","2025-04-28 17:00:00.0"
"SZKO?A PODSTAWOWA IM. ?W. JADWIGI KR?LOWEJ POLSKI W LISIEJ G?RZE","UL. SZKOLNA","33-140","LISIA G?RA","21.04434023989556","50.081408096695185 ","19.233333333333334","993.4083333333333","26.46666666666667","2.3833333333333333","2.191666666666667","2025-04-28 17:00:00.0"
"SZKO?A PODSTAWOWA NR 89 IM. TADEUSZA MAZOWIECKIEGO W GDA?SKU","UL. SZYPR?W","80-335","GDA?SK","18.5764229","54.422398","50.541666666666664","1023.1999999999999","15.208333333333334","5.375","4.758333333333334","2025-04-28 17:00:00.0"
"SZKO?A PODSTAWOWA NR 82 IM. PROF. JANA CZOCHRALSKIEGO W GDA?SKU","UL. RADAROWA","80-298","GDA?SK","18.4834117","54.3881906","19.849999999999998","1004.7166666666667","22.55","2.5833333333333335","2.2333333333333334","2025-04-28 17:00:00.0"
"SZKO?A TECHNICZNA BYDGOSKIEGO ZAK?ADU DOSKONALENIA ZAWODOWEGO W CHOJNICACH","UL. KO?CIERSKA","89-600","CHOJNICE","17.57105185","53.69729052","20.591666666666665","1001.9166666666666","22.441666666666666","3.733333333333333","3.3333333333333335","2025-04-28 17:00:00.0"
"PRYWATNA SZKO?A PODSTAWOWA ""NAJA SZKO?A"" W WEJHEROWIE","UL. PRZEMYS?OWA","84-200","WEJHEROWO","18.21802095","54.61295281","23.008333333333336","1019.2333333333332","23.816666666666666","3.608333333333333","3.283333333333333","2025-04-28 17:00:00.0"
"ZESP?? PLAC?WEK O?WIATOWYCH SZKO?A PODSTAWOWA IM. J?ZEFA BEMA W WOLI FILIPOWSKIEJ","UL. SZKOLNA","32-065","WOLA FILIPOWSKA","19.5849512","50.1324622","27.633333333333336","990.2416666666667","26.375","3.4916666666666667","3.0833333333333335","2025-04-28 17:00:00.0"
"SZKO?A PODSTAWOWA IM. KPR. FELIKSA IGNACEGO GRABOWSKIEGO W ZESPOLE PLAC?WEK O?WIATOWYCH W BODZANOWIE","UL. WYSZOGRODZKA","09-470","CHODKOWO-DZIA?KI","20.0374191","52.4989335","0.0","990.0","0.5","7.9625","7.2","2025-04-28 17:00:00.0"
"SZKO?A PODSTAWOWA NR 36 IM. JULIANA TUWIMA W ZABRZU","PL. PLAC WARSZAWSKI","41-800","ZABRZE","18.78893235","50.30422484","29.483333333333334","991.9166666666666","20.558333333333334","3.8833333333333333","3.2583333333333333","2025-04-28 17:00:00.0"
"III LICEUM OG?LNOKSZTA?C?CE Z ODDZIA?AMI DWUJ?ZYCZNYMI W ZABRZU","UL. HENRYKA SIENKIEWICZA","41-800","ZABRZE","18.7957049","50.29655227","19.900000000000002","989.9499999999999","26.95","3.6833333333333336","3.0749999999999997","2025-04-28 17:00:00.0"
"SZKO?A PODSTAWOWA NR 48 W ZABRZU W CENTRUM KSZTA?CENIA OG?LNEGO I ZAWODOWEGO W ZABRZU","UL. ZWROTNICZA","41-807","ZABRZE","18.76624","50.343641","20.354545454545455","992.6545454545455","26.763636363636362","3.8545454545454545","3.227272727272727","2025-04-28 17:00:00.0"
"BRAN?OWA SZKO?A I STOPNIA NR 6 W ZABRZU W ZABRZA?SKIM CENTRUM KSZTA?CENIA OG?LNEGO I ZAWODOWEGO W ZABRZU","UL. MARSZA?KA J?ZEFA PI?SUDSKIEGO","41-800","ZABRZE","18.76296398","50.29894695","29.116666666666664","993.3666666666667","21.241666666666667","4.716666666666667","3.841666666666667","2025-04-28 17:00:00.0"
"SZKO?A PODSTAWOWA NR 29 W ZABRZU","UL. BUDOWLANA","41-808","ZABRZE","18.791604","50.364381","20.9","990.24","26.919999999999998","3.46","2.9","2025-04-28 17:00:00.0"
"IV LICEUM OG?LNOKSZTA?C?CE IM. MIKO?AJA REJA W ZABRZU","UL. GEN. W?ADYS?AWA ANDERSA","41-808","ZABRZE","18.795194","50.369265","26.875","989.7375","22.125","5.1","4.225","2025-04-28 17:00:00.0"
"SZKO?A PODSTAWOWA NR 41 IM. W?ADYS?AWA BRONIEWSKIEGO W GLIWICACH","UL. KORMORAN?W","44-100","GLIWICE","18.6561","50.274791","31.3625","993.0375","20.85","4.0875","3.4125","2025-04-28 17:00:00.0"
"SZKO?A PODSTAWOWA NR 7 IM. ADAMA MICKIEWICZA W GLIWICACH","UL. TARNOG?RSKA","44-100","GLIWICE","18.684621","50.306626","28.766666666666666","993.025","22.191666666666666","4.291666666666667","3.5416666666666665","2025-04-28 17:00:00.0"
"MIEJSKA SZKO?A PODSTAWOWA Z ODDZIA?AMI INTEGRACYJNYMI NR 2 IM. KAROLA MIARKI W KNUROWIE","UL. WILSONA","44-190","KNUR?W","18.664685","50.223275","29.633333333333336","993.7916666666666","21.366666666666664","4.408333333333333","3.75","2025-04-28 17:00:00.0"
"SZKO?A PODSTAWOWA IM. MARGARETHY KAMPRAD W JAROSTACH","UL. LE?NA","97-310","JAROSTY","19.68775849","51.45636536","18.022222222222222","999.4777777777776","26.955555555555556","2.6333333333333333","2.6333333333333333","2025-04-28 17:00:00.0"
"SZKO?A PODSTAWOWA IM. DR HENRYKA JORDANA W KSAWEROWIE","UL. ZACHODNIA","95-054","KSAWER?W","19.39486431","51.68227822","21.016666666666666","1000.1500000000001","23.191666666666666","3.533333333333333","2.9250000000000003","2025-04-28 17:00:00.0"
"BRAN?OWA SZKO?A I STOPNIA NR 1 W OPOCZNIE","UL. WOJCIECHA KOSSAKA","26-300","OPOCZNO","20.27237638","51.37764127","23.558333333333334","1000.0166666666668","20.150000000000002","3.158333333333333","2.6166666666666667","2025-04-28 17:00:00.0"
"SZKO?A PODSTAWOWA NR 157 IM. IGNACEGO JANA PADEREWSKIEGO W KRAKOWIE","UL. LUDWIKA RYDYGIERA","30-695","KRAK?W-PODG?RZE","20.00607","50.006338","33.875","994.0749999999999","21.46666666666667","5.891666666666667","4.875","2025-04-28 17:00:00.0"
"I LICEUM OG?LNOKSZTA?C?CE IM. J?DRZEJA ?NIADECKIEGO W PABIANICACH","UL. STANIS?AWA MONIUSZKI","95-200","PABIANICE","19.32977177","51.65677453","18.272727272727273","999.6454545454545","25.227272727272727","3.3181818181818183","2.709090909090909","2025-04-28 17:00:00.0"
"SZKO?A PODSTAWOWA IM.MARII KONOPNICKIEJ W ROZTOCE","","34-606","ROZTOKA","20.4571424","49.6263815","28.633333333333336","959.9166666666666","24.233333333333334","5.008333333333334","4.408333333333333","2025-04-28 17:00:00.0"
"PUBLICZNA SZKO?A PODSTAWOWA W STOBIECKU SZLACHECKIM","","97-561","STOBIECKO SZLACHECKIE","19.38629184","51.10621326","28.650000000000002","995.1583333333333","20.916666666666668","3.0666666666666664","3.0500000000000003","2025-04-28 17:00:00.0"
"SZKO?A PODSTAWOWA IM. JANA PAW?A II W USTKOWIE","","98-290","USTK?W","18.600692","51.766123","29.400000000000002","1007.0916666666667","19.175","3.591666666666667","3.025","2025-04-28 17:00:00.0"
"SZKO?A PODSTAWOWA NR 60 IM. STANIS?AWA WYSPIA?SKIEGO W KRAKOWIE","UL. KAZIMIERZA ODNOWICIELA","31-481","KRAK?W-?R?DMIE?CIE","19.970521","50.088055","34.03333333333333","996.275","20.2","7.05","5.991666666666667","2025-04-28 17:00:00.0"
"SZKO?A PODSTAWOWA IM. MARSZA?KA J?ZEFA PI?SUDSKIEGO W WARTKOWICACH","UL. LEGION?W POLSKICH","99-220","WARTKOWICE","19.00434298","51.97577194","21.116666666666667","1009.75","24.0","3.6916666666666664","3.1166666666666667","2025-04-28 17:00:00.0"
"SZKO?A PODSTAWOWA NR 2 IM. KONSTYTUCJI 3-GO MAJA W M?CINIE","","34-654","M?CINA","20.5404381","49.7016283","28.15833333333333","966.1083333333332","23.55","2.975","2.575","2025-04-28 17:00:00.0"
"BRAN?OWA SZKO?A I STOPNIA NR 2 W GORLICACH","UL. J?ZEFA MICHALUSA","38-300","GORLICE","21.173963","49.66959","29.525000000000002","989.2416666666667","20.5","3.091666666666667","2.75","2025-04-28 17:00:00.0"
"SZKO?A PODSTAWOWA NR 2 IM HENRYKA SIENKIEWICZA W PRZYSZOWEJ","","34-604","PRZYSZOWA","20.4806341","49.6603381","33.56666666666667","967.725","22.566666666666666","4.708333333333333","4.308333333333334","2025-04-28 17:00:00.0"
"SZKO?A PODSTAWOWA NR 1 Z ODDZIA?AMI INTEGRACYJNYMI W RACIBORZU","UL. CECYLII","47-400","RACIB?RZ","18.2321525","50.0999982","24.8","1000.1833333333334","27.325","2.858333333333333","2.4250000000000003","2025-04-28 17:00:00.0"
"SZKO?A PODSTAWOWA IM. BOHATER?W WESTERPLATTE W BIE?KOWICACH","UL. SZKOLNA","47-451","BIE?KOWICE","18.2107215","50.0252972","22.991666666666664","997.2833333333333","27.5","2.566666666666667","2.1750000000000003","2025-04-28 17:00:00.0"
"SZKO?A PODSTAWOWA IM. ?W. STANIS?AWA KOSTKI W NOWEJ WSI SZLACHECKIEJ","UL. SZKOLNA","32-060","NOWA WIE? SZLACHECKA","19.6970908","50.026212","27.641666666666666","992.3000000000001","23.291666666666668","14.933333333333332","13.841666666666667","2025-04-28 17:00:00.0"
"SZKO?A PODSTAWOWA NR 3 IM. MARII D?BROWSKIEJ W RESZLU","UL. MARII KONOPNICKIEJ","11-440","RESZEL","21.1486175","54.052554","24.607692307692307","1010.7","19.276923076923076","2.4615384615384617","2.0153846153846158","2025-04-28 17:00:00.0"
"SZKO?A PODSTAWOWA NR 1 IM. MIKO?AJA KOPERNIKA W W?GORZEWIE","UL. PIONIER?W","11-600","W?GORZEWO","21.7379192","54.2136049","21.175","1008.3916666666668","21.416666666666668","2.1750000000000003","1.8833333333333335","2025-04-28 17:00:00.0"
"ZESP?? SZK?? GMINNYCH IM. HENRYKA SIENKIEWICZA W STANIS?AWICACH SZKO?A PODSTAWOWA W STANIS?AWICACH","","32-015","STANIS?AWICE","20.350192","49.982029","23.041666666666668","998.725","27.191666666666666","4.483333333333333","3.9583333333333335","2025-04-28 17:00:00.0"
"TECHNIKUM NR 3 W ZESPOLE SZK?? NR 3 IM. KS. PROF. J?ZEFA TISCHNERA W BOCHNI","UL. KRAKOWSKA","32-700","BOCHNIA","20.421654","49.965508","28.366666666666664","996.1083333333332","21.2","3.15","2.65","2025-04-28 17:00:00.0"
"SZKO?A PODSTAWOWA NR 94 W ?ODZI","UL. ZACISZE","90-228","??D?-?R?DMIE?CIE","19.47642378","51.77789288","22.21666666666667","997.1416666666668","19.708333333333332","4.591666666666667","3.8833333333333333","2025-04-28 17:00:00.0"
"SZKO?A PODSTAWOWA NR 1 IM. STEFANA ?EROMSKIEGO W ?UROMINIE","UL. WYZWOLENIA","09-300","?UROMIN","19.911175","53.071036","27.288888888888888","1007.4666666666667","19.966666666666665","10.022222222222222","9.766666666666666","2025-04-28 17:00:00.0"
"TECHNIKUM IM. WINCENTEGO WITOSA W STUDZIE?CU","","09-200","STUDZIENIEC","19.640243","52.877888","24.166666666666668","1011.35","22.616666666666664","5.291666666666667","4.875","2025-04-28 17:00:00.0"
"SZKO?A PODSTAWOWA W SYPITKACH","","19-314","SYPITKI","22.5643375","53.7876812","22.3","1007.4499999999999","18.391666666666666","12.233333333333334","11.075000000000001","2025-04-28 17:00:00.0"
"SZKO?A PODSTAWOWA IM. TADEUSZA KO?CIUSZKI W ZBROS?AWICACH","UL. WOLNO?CI","42-674","ZBROS?AWICE","18.74511","50.415455","28.675","991.975","21.216666666666665","5.891666666666667","5.1499999999999995","2025-04-28 17:00:00.0"
"SZKO?A PODSTAWOWA NR 4 Z ODDZIA?AMI SPORTOWYMI I MISTRZOSTWA SPORTOWEGO W ?ORACH","UL. BORY?SKA","44-240","?ORY","18.687221","50.039349","24.53333333333333","989.0749999999999","25.21666666666667","2.966666666666667","2.6333333333333333","2025-04-28 17:00:00.0"
"SZKO?A PODSTAWOWA NR 10 IM. MARII SK?ODOWSKIEJ-CURIE W ZDU?SKIEJ WOLI","UL. ZIELONA","98-220","ZDU?SKA WOLA","18.95037552","51.60020179","21.84166666666667","1001.5083333333333","22.125","2.908333333333333","2.4166666666666665","2025-04-28 17:00:00.0"
"SZKO?A PODSTAWOWA NR 4 IM.FRANCISZKA STUSKA W ORZESZU JA?KOWICACH","UL. STUSKA","43-180","ORZESZE","18.746978","50.145788","27.191666666666666","989.6","24.866666666666664","4.1499999999999995","4.133333333333334","2025-04-28 17:00:00.0"
"SZKO?A PODSTAWOWA NR 2 IM. JANA WYPLERA W RUDZIE ?L?SKIEJ","UL. GWARECKA","41-705","RUDA ?L?SKA","18.89349369757705","50.267719400613906 ","28.474999999999998","994.225","21.224999999999998","4.366666666666666","3.9583333333333335","2025-04-28 17:00:00.0"
"IV LICEUM OG?LNOKSZTA?C?CE IM. ORL?T LWOWSKICH W GLIWICACH","UL. KOZIELSKA","44-100","GLIWICE","18.654651","50.298038","31.483333333333334","995.8833333333333","20.316666666666666","5.05","4.066666666666666","2025-04-28 17:00:00.0"
"SZKO?A PODSTAWOWA NR 3 I. BOHATER?W POWSTANIA WARSZAWSKIEGO Z ODDZIA?AMI INTEGRACYJNYMI W PIASTOWIE","UL. ALEJA TYSI?CLECIA","05-820","PIAST?W","20.841563186509138","52.178313490439706","24.433333333333334","1013.25","22.616666666666664","5.558333333333334","4.966666666666667","2025-04-28 17:00:00.0"
"SZKO?A PODSTAWOWA NR 16 IM. JANUSZA KORCZAKA W RUDZIE ?L?SKIEJ","UL. KUKU?CZA","41-710","RUDA ?L?SKA","18.88033","50.268433","25.96666666666667","991.8416666666667","21.075","4.325","3.533333333333333","2025-04-28 17:00:00.0"
"SZKO?A PODSTAWOWA IM.STEFANA CZARNIECKIEGO W RAC?AWICACH","","38-323","RAC?AWICE","21.127689745801828","50.06979323518478","20.383333333333333","988.025","27.474999999999998","2.625","2.408333333333333","2025-04-28 17:00:00.0"
"SZKO?A PODSTAWOWA IM. W?ADYS?AWA BRONIEWSKIEGO W SZCZEJKOWICACH","UL. WIEJSKA","44-246","SZCZEJKOWICE","18.679024","50.095496","32.43333333333333","990.1666666666666","21.708333333333332","3.525","3.3083333333333336","2025-04-28 17:00:00.0"
"SZKO?A PODSTAWOWA IM. FRANCISZKA RDUCHA W BE?KU","UL. SZYMOCHY","44-237","BE?K","18.712687","50.134061","31.333333333333332","992.0166666666668","22.316666666666666","3.975","3.3666666666666667","2025-04-28 17:00:00.0"
"SZKO?A PODSTAWOWA W ZBICZNIE","","87-305","ZBICZNO","19.374579","53.3339494","19.51666666666667","1013.775","24.308333333333334","8.283333333333333","6.075","2025-04-28 17:00:00.0"
"SZKO?A PODSTAWOWA W PONIATOWIE","UL. SZKOLNA","09-300","PONIATOWO","19.864252","53.041259","22.563636363636363","1007.9090909090909","21.39090909090909","7.081818181818182","5.909090909090909","2025-04-28 17:00:00.0"
"SZKO?A PODSTAWOWA IM. ZIEMI WARMI?SKIEJ W PIENI??NIE","UL. ORNECKA","14-520","PIENI??NO","20.1287545","54.2359313","23.84166666666667","1012.625","18.825","3.1333333333333333","2.7416666666666667","2025-04-28 17:00:00.0"
"SZKO?A PODSTAWOWA NR 5 IM. POLSKICH OLIMPIJCZYK?W W ?WIECIU","UL. WOJSKA POLSKIEGO","86-105","?WIECIE","18.404523109363243","53.4022885304552","18.108333333333334","1019.625","24.7","6.391666666666667","5.383333333333333","2025-04-28 17:00:00.0"
"TECHNIKUM NR 2 W K?TRZYNIE","UL. POZNA?SKA","11-400","K?TRZYN","21.3575617","54.0772049","29.200000000000003","1014.8777777777777","16.833333333333332","0.4","0.23333333333333334","2025-04-28 17:00:00.0"
"I LICEUM OG?LNOKSZTA?C?CE IM. WOJCIECHA K?TRZY?SKIEGO W K?TRZYNIE","UL. POWSTA?C?W WARSZAWY","11-400","K?TRZYN","21.3725281","54.0774004","25.791666666666668","1010.0166666666668","17.733333333333334","3.841666666666667","3.141666666666666","2025-04-28 17:00:00.0"
"SZKO?A PODSTAWOWA NR 3 IM. HENRYKA SIENKIEWICZA W E?KU","UL. GRODZIE?SKA","19-300","E?K","22.3468805","53.832444","21.441666666666666","1005.6583333333333","18.900000000000002","1.7750000000000001","1.5999999999999999","2025-04-28 17:00:00.0"
"SZKO?A PODSTAWOWA NR 13 Z ODDZIA?AMI SPORTOWYMI I MISTRZOSTWA SPORTOWEGO IM. POLSKICH OLIMPIJCZYK?W W ?ORACH","OS. OSIEDLE PAWLIKOWSKIEGO","44-240","?ORY","18.68289226","50.03250482","21.357142857142858","989.4142857142857","27.400000000000002","2.742857142857143","2.3285714285714287","2025-04-28 17:00:00.0"
"PRYWATNA SZKO?A PODSTAWOWA W KRAKOWIE","UL. PODG?RKI TYNIECKIE","30-398","KRAK?W-PODG?RZE","19.84421916","50.01213341","32.63333333333333","996.0888888888888","21.211111111111112","4.188888888888889","3.677777777777778","2025-04-28 17:00:00.0"
"PUBLICZNA SZKO?A PODSTAWOWA W D?UGOWOLI","","27-300","D?UGOWOLA PIERWSZA","21.621011","51.096311","16.275000000000002","1029.8666666666666","25.46666666666667","3.908333333333333","3.225","2025-04-28 17:00:00.0"
"PUBLICZNA SZKO?A PODSTAWOWA IM KARDYNA?A STEFANA WYSZY?SKIEGO W G?OSKOWIE","","08-412","G?OSK?W","21.693825","51.932915","16.241666666666667","1005.6750000000001","25.983333333333334","5.066666666666666","3.65","2025-04-28 17:00:00.0"
"SZKO?A PODSTAWOWA NR 5 IM I. J. PADEREWSKIEGO W PRUSZKOWIE","UL. JANA D?UGOSZA","05-804","PRUSZK?W","20.815629142327243","52.18859558069476","24.683333333333334","1011.7083333333334","19.133333333333333","5.916666666666667","5.233333333333333","2025-04-28 17:00:00.0"
"SZKO?A PODSTAWOWA IM. HENRYKA SIENKIEWICZA W STARYM K?B?OWIE","","08-430","STARY K?B??W","21.862929","51.791451","16.816666666666666","1017.5166666666668","26.224999999999998","4.283333333333333","3.358333333333333","2025-04-28 17:00:00.0"
"TECHNIKUM W ?ELECHOWIE","UL. MARSZA?KA J?ZEFA PI?SUDSKIEGO","08-430","?ELECH?W","21.898786","51.812356","25.8","1002.6999999999999","18.858333333333334","4.2","3.5083333333333333","2025-04-28 17:00:00.0"
"SZKO?A PODSTAWOWA W ZESPOLE SZK?? OG?LNOKSZTA?C?CYCH W MAZOWIECKIM CENTRUM NEUROPSYCHIATRII W J?ZEFOWIE ","UL. 3 MAJA","05-420","J?ZEF?W","21.234656","52.128054","15.816666666666668","1012.1083333333332","26.099999999999998","4.466666666666667","3.9416666666666664","2025-04-28 17:00:00.0"
"II LICEUM OG?LNOKSZTA?C?CE IM. GEN. GUSTAWA ORLICZ-DRESZERA W CHE?MIE","UL. SZPITALNA","22-100","CHE?M","23.45593021","51.14267385","20.816666666666666","1001.0","22.375","3.35","2.775","2025-04-28 17:00:00.0"
"SZKO?A PODSTAWOWA IM.J.CHE?MO?SKIEGO W KUKL?WCE RADZIEJOWICKIEJ","UL. SZKOLNA","96-325","KUKL?WKA RADZIEJOWICKA","20.59054414","52.04408065","31.645454545454548","1010.3909090909091","18.509090909090908","4.690909090909091","4.072727272727272","2025-04-28 17:00:00.0"
"SZKO?A PODSTAWOWA NR 3 IM. OR?A BIA?EGO W CIECHANOWIE","UL. POWSTA?C?W WIELKOPOLSKICH","06-400","CIECHAN?W","20.631842155818422","52.882394549980845","23.566666666666666","1007.9250000000001","19.375","8.008333333333333","6.891666666666667","2025-04-28 17:00:00.0"
"SALEZJA?SKA SZKO?A PODSTAWOWA Z ODDZIA?AMI INTEGRACYJNYMI W SALEZJA?SKIM O?RODKU SZKOLNO-WYCHOWAWCZYM W TARNOWSKICH G?RACH","UL. JANA ?NIADECKIEGO","42-604","TARNOWSKIE G?RY","18.80622755","50.43256357","25.78333333333333","1005.3083333333334","23.666666666666668","5.033333333333333","4.258333333333334","2025-04-28 17:00:00.0"
"SZKO?A PODSTAWOWA NR 1 IM PIERWSZEGO MARSZA?KA POLSKI J?ZEFA PI?SUDSKIEGO W SULEJ?WKU","UL. IDZIKOWSKIEGO","05-070","SULEJ?WEK","21.26694575396344","52.24433487687851","19.275","1010.7125","23.3","8.1125","7.0125","2025-04-28 17:00:00.0"
"NIEPUBLICZNA INTEGRACYJNA SZKO?A PODSTAWOWA W MYSIADLE","UL. KR?TKA","05-515","MYSIAD?O","21.005366","52.099954","22.108333333333334","1012.4916666666667","24.508333333333336","4.216666666666667","3.641666666666667","2025-04-28 17:00:00.0"
"PUBLICZNA SZKO?A PODSTAWOWA IM. JANUSZA KORCZAKA W GO?DZIE","UL. STAROWIEJSKA","26-634","G?ZD","21.378914500000004","51.376315985021016","17.525000000000002","1002.1750000000001","25.6","3.4125","2.8375","2025-04-28 17:00:00.0"
"SZKO?A PODSTAWOWA NR 4 IM. JANA PAW?A II, Z ODDZIA?AMI PRZEDSZKOLNYMI I ODDZIA?AMI SPORTOWYMI W PRUSZKOWIE ","UL. HUBALA","05-800","PRUSZK?W","20.81122021534552","52.16432045510862","22.224999999999998","1014.025","24.483333333333334","6.5249999999999995","5.575","2025-04-28 17:00:00.0"
"SZKO?A PODSTAWOWA W OTWOCKU WIELKIM","UL. ZAMKOWA","05-480","OTWOCK WIELKI","21.249772","52.054498","20.474999999999998","1012.2583333333333","22.066666666666666","5.008333333333334","4.375","2025-04-28 17:00:00.0"
"NIEPUBLICZNA SZKO?A PODSTAWOWA WIELICZKA MONTESSORI SCHOOL W WIELICKIEJ SZKOLE MONTESSORI","UL. JANA MIKO?AJA DANI?OWICZA","32-020","WIELICZKA","20.05646002","49.98203058","33.75833333333333","991.875","20.266666666666666","5.441666666666666","5.441666666666666","2025-04-28 17:00:00.0"
"PUBLICZNA SZKO?A PODSTAWOWA W OBRAZOWIE","","27-641","OBRAZ?W","21.657963199999998","50.69068702480904","18.96923076923077","998.4923076923077","24.16923076923077","5.0","4.138461538461538","2025-04-28 17:00:00.0"
"SZKO?A PODSTAWOWA W BRZOZOWIE","UL. MIODOWA","86-200","BRZOZOWO","18.4238755","53.314175","27.925","1011.9499999999999","19.408333333333335","15.533333333333333","12.891666666666666","2025-04-28 17:00:00.0"
"SZKO?A PODSTAWOWA NR 199 IM. JULIANA TUWIMA W ?ODZI","UL. J?ZEFA ELSNERA","92-504","??D?-WIDZEW","19.531114643683964","51.75675184434886 ","26.741666666666664","997.475","18.958333333333332","6.05","4.741666666666666","2025-04-28 17:00:00.0"
"SZKO?A PODSTAWOWA IM. KS. KARD. STEFANA WYSZY?SKIEGO W BORZYMINIE","","87-500","BORZYMIN","19.3345342","53.0561291","17.516666666666666","1007.4666666666667","25.650000000000002","7.016666666666667","6.125","2025-04-28 17:00:00.0"
"SZKO?A PODSTAWOWA IM. TADEUSZA KO?CIUSZKI W ??TOWICACH","","33-121","??TOWICE","20.845262","49.994632","27.45384615384615","1001.4846153846154","20.93846153846154","3.1923076923076925","2.8153846153846156","2025-04-28 17:00:00.0"
"SZKO?A PODSTAWOWA IM. PIOTRA ?CIEGIENNEGO W B?CZKOWIE","UL. JANA PAW?A II","26-008","B?CZK?W","20.80287618","50.87879103","28.125","988.5333333333333","19.016666666666666","3.7416666666666667","3.275","2025-04-28 17:00:00.0"
"SZKO?A PODSTAWOWA IM.KSI?CIA KARDYNA?A ADAMA STEFANA SAPIEHY W BYSINIE","","32-400","BYSINA","19.8876673","49.8279242","35.483333333333334","978.7166666666667","20.041666666666668","5.625","5.058333333333333","2025-04-28 17:00:00.0"
"SZKO?A PODSTAWOWA IM. JANA KOCHANOWSKIEGO W B?CZARCE","","32-444","B?CZARKA","19.8615647","49.8750803","30.59166666666667","983.5666666666666","22.724999999999998","4.441666666666666","3.966666666666667","2025-04-28 17:00:00.0"
"TECHNIKUM W NAKLE ?L?SKIM","UL. GUSTAWA MORCINKA","42-620","NAK?O ?L?SKIE","18.899961","50.436198","32.916666666666664","988.8083333333334","20.150000000000002","9.174999999999999","8.325000000000001","2025-04-28 17:00:00.0"
"ZESP?? SZK?? OG?LNOKSZTA?C?CYCH NR 5 - IV LICEUM OG?LNOKSZTA?C?CE Z ODDZIA?AMI MISTRZOSTWA SPORTOWEGO IM. MARYNARZY WOJSK OCHRONY POGRANICZA W GDA?SKU","UL. NA ZASP?","80-546","GDA?SK","18.662468","54.402127","29.633333333333336","1022.3249999999999","21.916666666666668","4.416666666666667","3.85","2025-04-28 17:00:00.0"
"SZKO?A PODSTAWOWA IM. JANA DUNIN-BRZEZI?SKIEGO W DROGINI ","","32-400","DROGINIA","20.008008","49.8469429","26.15833333333333","989.3833333333333","26.775000000000002","4.925","4.408333333333333","2025-04-28 17:00:00.0"
"SZKO?A PODSTAWOWA NR 8 IM. KRZYSZTOFA KAMILA BACZY?SKIEGO W TARNOWIE","UL. BITWY POD STUDZIANKAMI","33-100","TARN?W","21.00415196","50.01968672","27.099999999999998","995.6333333333333","20.341666666666665","3.6","3.108333333333333","2025-04-28 17:00:00.0"
"SZKO?A PODSTAWOWA IM.TADEUSZA KO?CIUSZKI W G?OGOCZOWIE","","32-444","G?OGOCZ?W","19.8764713","49.8949648","22.599999999999998","993.4","27.485714285714288","3.814285714285714","3.1714285714285713","2025-04-28 17:00:00.0"
"SZKO?A PODSTAWOWA IM. POWSTA?C?W STYCZNIOWYCH W DWIKOZACH","UL. SP??DZIELCZA","27-620","DWIKOZY","21.78213112698172","50.737630724889875","23.136363636363637","1005.3","19.445454545454545","2.290909090909091","1.9636363636363638","2025-04-28 17:00:00.0"
"SZKO?A PODSTAWOWA IM JANA KOCHANOWSKIEGO W RACIECHOWICACH","","32-415","RACIECHOWICE","20.1425376","49.8447436","32.516666666666666","986.4083333333333","21.458333333333332","5.358333333333333","4.891666666666667","2025-04-28 17:00:00.0"
"SZKO?A PODSTAWOWA IM. 100-LECIA RUCHU LUDOWEGO W WIERZCHOS?AWICACH","","33-122","WIERZCHOS?AWICE","20.8578193","50.02129351","27.5","999.8499999999999","20.35","3.8","3.3","2025-04-28 17:00:00.0"
"SZKO?A PODSTAWOWA NR 2 IM. 12 PU?KU PIECHOTY W SPYTKOWICACH","","34-745","SPYTKOWICE","19.8620555","49.5891356","26.977777777777778","962.6444444444444","25.044444444444444","5.222222222222222","4.477777777777778","2025-04-28 17:00:00.0"
"NIEPUBLICZNA SZKO?A PODSTAWOWA MONTESSORI W WIELICZCE","UL. JASNA","32-020","WIELICZKA","20.04131557116481","49.98142573025661","35.824999999999996","993.8833333333333","20.566666666666666","7.591666666666666","6.2749999999999995","2025-04-28 17:00:00.0"
"TECHNIKUM IM. KAROLA WOJTY?Y W SU?KOWICACH","UL. SZKOLNA","32-440","SU?KOWICE","19.79959","49.83879","32.925000000000004","989.4250000000001","20.791666666666668","3.891666666666666","3.5833333333333335","2025-04-28 17:00:00.0"
"SZKO?A PODSTAWOWA NR 1 IM. ADAMA MICKIEWICZA W KRZESZOWICACH","UL. D?UGA","32-065","KRZESZOWICE","19.63231","50.14192","21.441666666666666","990.2416666666667","26.541666666666668","3.716666666666667","3.6999999999999997","2025-04-28 17:00:00.0"
"SZKO?A PODSTAWOWA IM. KSI?CIA J?ZEFA PONIATOWSKIEGO W MNIKOWIE","","32-084","MNIK?W","19.7203981","50.0603945","30.233333333333334","994.6083333333332","21.708333333333332","4.716666666666667","4.116666666666666","2025-04-28 17:00:00.0"
"RZEMIE?LNICZA BRAN?OWA SZKO?A I STOPNIA W TARNOWIE","PL. DWORCOWY","33-100","TARN?W","20.97230288","50.00592873","20.666666666666668","998.5500000000001","25.53333333333333","3.3166666666666664","2.908333333333333","2025-04-28 17:00:00.0"
"PUBLICZNA SZKO?A PODSTAWOWA NR4 IM. EUGENIUSZA KWIATKOWSKIEGO W STALOWEJ WOLI","UL. NIEZ?OMNYCH","37-450","STALOWA WOLA","22.049257","50.566117","22.875","1003.6916666666666","20.141666666666666","3.625","3.0083333333333333","2025-04-28 17:00:00.0"
"PUBLICZNA SZKO?A PODSTAWOWA IM. 100. ROCZNICY ODZYSKANIA NIEPODLEG?O?CI PRZEZ POLSK? W KORZECKU","","26-060","KORZECKO","20.40868672","50.80193767","28.84166666666667","993.6666666666666","20.266666666666666","4.6499999999999995","3.975","2025-04-28 17:00:00.0"
"SZKO?A PODSTAWOWA IM. GENERA?A STANIS?AWA MACZKA W BLI?YNIE","UL. PIASKOWA","26-120","BLI?YN","20.7611656","51.10539138","23.183333333333334","991.2166666666667","20.025000000000002","3.1333333333333333","2.625","2025-04-28 17:00:00.0"
"SZKO?A PODSTAWOWA W OKSIE","UL. PL. M. REJA","28-363","OKSA","20.10227008","50.72821359","24.0","992.4250000000001","26.03333333333333","3.4","2.9416666666666664","2025-04-28 17:00:00.0"
"III LICEUM OG?LNOKSZTA?C?CE W ZESPOLE SZK?? NR 1 W PSZCZYNIE ","UL. KAZIMIERZA WIELKIEGO","43-200","PSZCZYNA","18.945466","49.965741","25.741666666666664","991.9250000000001","26.45","3.375","2.8249999999999997","2025-04-28 17:00:00.0"
"SZKO?A PODSTAWOWA W JELENIOWIE","","26-006","JELENI?W","21.116233057672765","50.844493249563236","32.93333333333333","987.6750000000001","17.616666666666667","2.875","2.591666666666667","2025-04-28 17:00:00.0"
"SZKO?A PODSTAWOWA NR 4 W SKAR?YSKU-KAMIENNEJ","UL. KSI???CA","26-110","SKAR?YSKO-KAMIENNA","20.875901311108976","51.1416602921439 ","15.55","994.25","26.95","2.7","2.35","2025-04-28 17:00:00.0"
"SPO?ECZNA SZKO?A PODSTAWOWA NR 1 IM. KS.PROF. J?ZEFA TISCHNERA W TARNOWIE","UL. GUMNISKA","33-100","TARN?W","21.00131621","50.00814381","27.880000000000003","998.36","20.240000000000002","3.46","3.04","2025-04-28 17:00:00.0"
"SZKO?A PODSTAWOWA W ZAWIDZU KO?CIELNYM","UL. MAZOWIECKA","09-226","ZAWIDZ KO?CIELNY","19.870229928959297","52.82718910632357","23.299999999999997","1008.2333333333333","19.244444444444444","5.133333333333334","4.522222222222222","2025-04-28 17:00:00.0"
"TECHNIKUM W RACI??U","UL. KILI?SKIEGO","09-140","RACI??","20.127731","52.778712","26.291666666666668","1010.3166666666666","18.533333333333335","6.075","5.2749999999999995","2025-04-28 17:00:00.0"
"PUBLICZNA SZKO?A PODSTAWOWA IM.HENRYKA SIENKIEWICZA W MY?LISZEWICACH","","26-630","MY?LISZEWICE","21.290531299999998","51.413341302261024","22.71666666666667","1005.3416666666667","22.21666666666667","7.175","6.341666666666666","2025-04-28 17:00:00.0"
"SZKO?A PODSTAWOWA NR 6 IM. DRA W?ADYS?AWA G?BIKA Z ODDZIA?AMI INTEGRACYJNYMI W KWIDZYNIE","UL. GRUNWALDZKA","82-500","KWIDZYN","18.932667","53.723949","18.175","1014.6083333333332","24.175","4.533333333333333","4.183333333333334","2025-04-28 17:00:00.0"
"SZKO?A PODSTAWOWA W BRZE?CIU","","28-400","BRZE?CIE","20.54586641","50.5470206","27.308333333333334","998.3249999999999","21.633333333333336","3.5416666666666665","3.141666666666667","2025-04-28 17:00:00.0"
"SZKO?A PODSTAWOWA W LUBOWIDZU","UL. JANA PAW?A II","09-304","LUBOWIDZ","19.842984","53.120566","31.383333333333336","1008.4166666666666","18.341666666666665","12.0","9.483333333333333","2025-04-28 17:00:00.0"
"KATOLICKA SZKO?A PODSTAWOWA MONTESSORI W KRAKOWIE","UL. KS. STEFANA PAWLICKIEGO","30-320","KRAK?W-PODG?RZE","19.917813","50.043104","29.150000000000002","998.2416666666667","23.416666666666668","5.608333333333333","4.683333333333334","2025-04-28 17:00:00.0"
"SZKO?A PODSTAWOWA NR 2 IM. JANA PAW?A II W GORZYCACH","UL. EDUKACJI NARODOWEJ","39-432","GORZYCE","21.83097317","50.67218435","19.133333333333333","1008.0083333333333","25.991666666666664","3.391666666666667","3.0416666666666665","2025-04-28 17:00:00.0"
"TECHNIKUM NR 2 W CZ?STOCHOWIE","UL. WARSZAWSKA","42-200","CZ?STOCHOWA","19.1485028","50.7931394","20.766666666666666","993.4166666666666","24.425","3.725","3.1166666666666667","2025-04-28 17:00:00.0"
"SZKO?A PODSTAWOWA IM. OR?A BIA?EGO W SZCZYTNEJ","UL. KO?CIELNA","57-330","SZCZYTNA","16.44633002","50.41610314","29.21666666666667","967.0500000000001","22.724999999999998","3.8000000000000003","3.158333333333333","2025-04-28 17:00:00.0"
"PUBLICZNA SZKO?A PODSTAWOWA IM. JANA KOCHANOWSKIEGO W W?JCICACH","UL. G??WNA","55-220","W?JCICE","17.2122623","50.4609086","23.6","1005.9727272727273","20.963636363636365","2.6454545454545455","2.309090909090909","2025-04-28 17:00:00.0"
"PUBLICZNA SZKO?A PODSTAWOWA W BIERZWNICY","","78-324","BIERZWNICA","15.9112181","53.7221891","25.641666666666666","1006.75","23.916666666666668","1.875","1.5916666666666668","2025-04-28 17:00:00.0"
"I LICEUM OG?LNOKSZTA?C?CE IM. BOLES?AWA CHROBREGO W K?ODZKU","UL. WOJSKA POLSKIEGO","57-300","K?ODZKO","16.651149","50.4373","23.527272727272727","986.6090909090909","27.745454545454546","4.754545454545454","4.163636363636363","2025-04-28 17:00:00.0"
"SZKO?A PODSTAWOWA W BIENIOWICACH","","59-216","BIENIOWICE","16.256564","51.258614","26.508333333333336","1009.5666666666666","22.308333333333334","5.783333333333334","4.916666666666667","2025-04-28 17:00:00.0"
"SZKO?A PODSTAWOWA IM. ?W. JADWIGI ?L?SKIEJ W ?ERNIKACH WROC?AWSKICH","UL. KOLEJOWA","55-010","?ERNIKI WROC?AWSKIE","17.0609105","51.0305737","24.808333333333334","1007.2333333333332","21.275000000000002","4.666666666666667","3.966666666666667","2025-04-28 17:00:00.0"
"SZKO?A PODSTAWOWA NR 4 Z ODDZIA?AMI INTEGRACYJNYMI W BIELAWIE","UL. LUDWIKA WARY?SKIEGO","58-260","BIELAWA","16.6008348","50.6662832","41.92","978.1700000000001","18.4","17.15","13.959999999999999","2025-04-28 17:00:00.0"
"SZKO?A PODSTAWOWA IM. JANA PAW?A II W GRODZISZCZU","","58-112","GRODZISZCZE","16.560664","50.798212","38.06666666666667","994.1833333333334","19.316666666666666","14.833333333333334","12.541666666666666","2025-04-28 17:00:00.0"
"LICEUM OG?LNOKSZTA?C?CE W ?RODZIE ?L?SKIEJ","UL. WROC?AWSKA","55-300","?RODA ?L?SKA","16.5994053","51.158652","28.516666666666666","1006.8916666666668","20.491666666666667","3.9416666666666664","3.933333333333333","2025-04-28 17:00:00.0"
"BRAN?OWA SZKO?A I STOPNIA NR 6 W ZESPOLE SZK?? PRZEMYS?U SPO?YWCZEGO IM. POWSTA?C?W WIELKOPOLSKICH W ?ODZI","UL. FRANCISZKA?SKA","91-845","??D?-BA?UTY","19.421884","51.7848081","21.158333333333335","997.8416666666667","21.083333333333332","4.2","3.466666666666667","2025-04-28 17:00:00.0"
"TECHNIKUM NR 1 W ZESPOLE SZK?? NR 1 IM. STANIS?AWA STASZICA W BOCHNI","UL. EDWARDA WINDAKIEWICZA","32-700","BOCHNIA","20.416325","49.966639","25.849999999999998","993.8666666666667","27.066666666666666","2.85","2.525","2025-04-28 17:00:00.0"
"SZKO?A PODSTAWOWA IM. JANA PAW?A II W ?ASZEWIE","","09-135","?ASZEWO","20.090492","52.858682","23.224999999999998","1006.6","20.958333333333332","5.433333333333334","4.716666666666667","2025-04-28 17:00:00.0"
"SZKO?A PODSTAWOWA IM. MARII KONOPNICKIEJ W LIPINACH","","92-701","LIPINY","19.67220915","51.80665653","21.758333333333336","995.8583333333332","23.075","4.2749999999999995","3.5583333333333336","2025-04-28 17:00:00.0"
"I LICEUM OG?LNOKSZTA?C?CE IM. MARCINA KROMERA W GORLICACH","UL. MARCINA KROMERA","38-300","GORLICE","21.155748","49.659518","22.333333333333332","986.9583333333334","26.65833333333333","3.108333333333333","2.716666666666667","2025-04-28 17:00:00.0"
"SZKO?A PODSTAWOWA IM. IGNACEGO ?UKASIEWICZA W KOBYLANCE","","38-303","KOBYLANKA","21.222151","49.669007","28.8","989.0083333333333","22.5","3.5416666666666665","2.9583333333333335","2025-04-28 17:00:00.0"
"SZKO?A PODSTAWOWA IM.?WI?TEJ KINGI W KORCZYNIE","","38-340","KORCZYNA","21.255204","49.702509","29.55","985.3083333333334","22.541666666666668","2.9250000000000003","2.591666666666667","2025-04-28 17:00:00.0"
"TECHNIKUM W GO?OTCZY?NIE","UL. CIECHANOWSKA","06-430","GO?OTCZYZNA","20.68880627301113","52.79264333773238","23.59166666666667","1009.775","20.325","5.966666666666666","5.158333333333333","2025-04-28 17:00:00.0"
"SZKO?A PODSTAWOWA IM. W?ADYS?AWA J??WICKIEGO W G?RZNIE ","UL. D?UGA","08-404","G?RZNO","21.705990699999997","51.84700102762625","21.625","1004.025","20.383333333333333","4.716666666666667","3.841666666666667","2025-04-28 17:00:00.0"
"SZKO?A PODSTAWOWA W RADZIKACH DU?YCH","","87-337","RADZIKI DU?E","19.278172","53.1659113","24.474999999999998","1010.1083333333332","19.708333333333332","7.541666666666667","7.516666666666667","2025-04-28 17:00:00.0"
"SZKO?A PODSTAWOWA NR 2 Z ODDZIA?AMI INTEGRACYJNYMI IM. ?O?NIERZY A.K. II REJONU CELK?W W MARKACH","UL. SZKOLNA","05-270","MARKI","	21.103744271164814","52.31729535665526","22.15","1012.65","21.09","6.0200000000000005","5.32","2025-04-28 17:00:00.0"
"SZKO?A PODSTAWOWA IM.KAWALER?W ORDERU U?MIECHU W SIEROS?AWICACH","","32-120","SIEROS?AWICE","20.461954","50.141099","25.78","1000.14","24.32","5.459999999999999","4.84","2025-04-28 17:00:00.0"
"SZKO?A PODSTAWOWA IM.?W.JANA PAW?A II W ZAWADACH","UL. KO?CIUSZKI","16-075","ZAWADY","22.66793745","53.15651651","29.23076923076923","1012.5153846153846","17.3","6.546153846153846","5.769230769230769","2025-04-28 17:00:00.0"
"SZKO?A PODSTAWOWA NR 2 IM. KR?LOWEJ JADWIGI W CZECHOWICACH-DZIEDZICACH","UL. W?GLOWA","43-502","CZECHOWICE-DZIEDZICE","19.0071238","49.9283149","36.6","992.525","21.558333333333334","6.05","5.016666666666667","2025-04-28 17:00:00.0"
"PUBLICZNA SZKO?A PODSTAWOWA NR 1 Z ODDZIA?AMI DWUJ?ZYCZNYMI W MOGIELNICY","UL. NOWOMIEJSKA","05-640","MOGIELNICA","20.72027","51.6909326","24.775000000000002","1005.3166666666666","19.358333333333334","3.1750000000000003","2.6833333333333336","2025-04-28 17:00:00.0"
"SZKO?A PODSTAWOWA IM. STANIS?AWA LUBOMIRSKIEGO W NOWYM WI?NICZU","UL. SZKOLNA","32-720","NOWY WI?NICZ","20.464022","49.911873","30.916666666666668","991.275","19.708333333333332","2.6833333333333336","2.5416666666666665","2025-04-28 17:00:00.0"
"SZKO?A PODSTAWOWA NR 29 IM. TADEUSZA KO?CIUSZKI W RZESZOWIE","UL. PARTYZANT?W","35-234","RZESZ?W","22.00675633","50.04931405","14.275","998.775","26.474999999999998","2.983333333333333","2.4","2025-04-28 17:00:00.0"
"PUBLICZNA SZKO?A PODSTAWOWA IM.T. KO?CIUSZKI W G?OWACZOWIE","UL. WARECKA","26-903","G?OWACZ?W","21.3187284","51.6220175","15.35","1008.0916666666667","26.916666666666668","2.983333333333333","2.6666666666666665","2025-04-28 17:00:00.0"
"SZKO?A PODSTAWOWA SPECJALNA NR 150 W KRAKOWIE","AL. ALEJA ADOLFA DYGASI?SKIEGO","30-820","KRAK?W-PODG?RZE","19.98983357116481","50.02147308570759","34.980000000000004","997.4399999999999","20.5","6.74","5.640000000000001","2025-04-28 17:00:00.0"
"PUBLICZNA SZKO?A PODSTAWOWA IM. J?ZEFA BRANDTA W ORO?SKU","UL. SZKOLNA","26-505","ORO?SKO","20.98980054","51.315665","24.90833333333333","1000.65","19.349999999999998","3.525","2.908333333333333","2025-04-28 17:00:00.0"
"PUBLICZNA SZKO?A PODSTAWOWA IM. BATALION?W CH?OPSKICH W KLECZANOWIE","","27-641","KLECZAN?W","21.57103098","50.71737244","25.383333333333336","993.4666666666667","18.541666666666668","2.5749999999999997","2.3333333333333335","2025-04-28 17:00:00.0"
"SZKO?A PODSTAWOWA IM. BOHATER?W WESTERPLATTE W ??KAWICY","","33-156","??KAWICA","19.6059700","49.8417200","27.108333333333334","993.6","20.808333333333334","3.0833333333333335","2.6916666666666664","2025-04-28 17:00:00.0"
"SZKO?A PODSTAWOWA W STAROCH?CINACH","","26-060","STAROCH?CINY","20.48081695","50.77685204","30.416666666666668","995.4499999999999","19.558333333333334","3.35","2.858333333333333","2025-04-28 17:00:00.0"
"SZKO?A PODSTAWOWA NR 6 IM. KS. JANA TWARDOWSKIEGO W PSZCZYNIE","UL. KSI??YCOWA","43-200","PSZCZYNA","18.936162","49.965097","37.975","994.5083333333333","20.916666666666668","4.091666666666667","3.6916666666666664","2025-04-28 17:00:00.0"
"SZKO?A PODSTAWOWA IM.KAZIMIERZA PU?ASKIEGO W JADAMWOLI","","34-606","JADAMWOLA","20.51122243","49.58092142","35.55833333333333","973.8666666666667","20.491666666666667","3.5","3.1","2025-04-28 17:00:00.0"
"SZKO?A PODSTAWOWA NR 2 IM. MARII KONOPNICKIEJ W ?YRARDOWIE","UL. GABRIELA NARUTOWICZA","96-300","?YRARD?W","20.43801027","52.05842119","17.5","1009.5916666666667","22.241666666666664","2.5749999999999997","2.566666666666667","2025-04-28 17:00:00.0"
"I LICEUM OG?LNOKSZTA?C?CE IM. ZYGMUNTA KRASI?SKIEGO W CIECHANOWIE","UL. 17 STYCZNIA","06-400","CIECHAN?W","20.59878057","52.88501004","18.175","1008.15","23.116666666666664","5.258333333333334","4.741666666666666","2025-04-28 17:00:00.0"
"SZKO?A PODSTAWOWA W ?UKOWEJ","","26-060","?UKOWA","20.53811566","50.72732867","21.558333333333334","992.6333333333333","26.383333333333336","3.641666666666667","3.125","2025-04-28 17:00:00.0"
"SZKO?A PODSTAWOWA W WOLI KORYCKIEJ G?RNEJ","","08-455","WOLA KORYCKA G?RNA","	21.754932828835187","51.73577039586474","21.0","1004.3416666666667","22.383333333333336","3.1333333333333333","2.6999999999999997","2025-04-28 17:00:00.0"
"SZKO?A PODSTAWOWA W WOLICY","UL. SZKOLNA","26-060","WOLICA","20.47387736","50.75410087","24.759999999999998","995.25","23.529999999999998","3.53","3.0300000000000002","2025-04-28 17:00:00.0"
"SZKO?A PODSTAWOWA IM. JANA PAW?A II W ZBUCZYNIE","UL. JANA PAW?A II","08-106","ZBUCZYN","22.44061361","52.08688669","15.975","1003.95","25.875","3.375","2.95","2025-04-28 17:00:00.0"
"TECHNIKUM NR 2 IM. EUGENIUSZA KWIATKOWSKIEGO W STARACHOWICACH","UL. 1 MAJA","27-200","STARACHOWICE","21.06313317","51.05452968","18.825","992.75","25.133333333333336","2.6083333333333334","2.3333333333333335","2025-04-28 17:00:00.0"
"PUBLICZNA SZKO?A PODSTAWOWA IM. JANA KOCHANOWSKIEGO W POLANACH","","26-680","POLANY","21.11465600","51.22610000","27.15833333333333","998.525","19.166666666666668","3.033333333333333","3.025","2025-04-28 17:00:00.0"
"SZKO?A PODSTAWOWA W ZBELUTCE","","26-025","ZBELUTKA-STARA WIE?","21.0993345","50.7310922","28.641666666666666","980.3916666666668","18.158333333333335","3.25","2.7416666666666667","2025-04-28 17:00:00.0"
"SZKO?A PODSTAWOWA IM. STEFANA KARDYNA?A WYSZY?SKIEGO W PIERZCHNICY ","UL. KARDYNA?A STEFANA WYSZY?SKIEGO","26-015","PIERZCHNICA","20.74729757","50.6959636","23.05","989.375","23.650000000000002","2.283333333333333","1.95","2025-04-28 17:00:00.0"
"PUBLICZNA SZKO?A PODSTAWOWA IM. BATALION?W CH?OPSKICH W STARYCH ZAWADACH","","26-660","STARE ZAWADY","21.12815508","51.54597315","19.227272727272727","1006.8","24.61818181818182","3.4545454545454546","3.027272727272727","2025-04-28 17:00:00.0"
"SZKO?A PODSTAWOWA Z ODDZIA?AMI INTEGRACYJNYMI NR 6 IM. SZARYCH SZEREG?W W GRODZISKU MAZOWIECKIM","UL. SPORTOWA","05-825","GRODZISK MAZOWIECKI","20.6192335","52.0987683","29.266666666666666","1012.125","19.083333333333332","5.375","4.641666666666667","2025-04-28 17:00:00.0"
"SZKO?A PODSTAWOWA NR 6 IM. ELIZY ORZESZKOWEJ W ?YRARDOWIE","UL. J?ZEFA MIRECKIEGO","96-300","?YRARD?W","20.446088","52.057653","24.7","1010.8333333333334","19.833333333333332","3.3000000000000003","2.8666666666666667","2025-04-28 17:00:00.0"
"SZKO?A PODSTAWOWA IM. 11 LISTOPADA W ???WINIE","UL. SZKOLNA","05-807","???WIN","20.7249857","52.09761779588044","18.558333333333334","1009.6","24.349999999999998","3.783333333333333","3.5666666666666664","2025-04-28 17:00:00.0"
"SZKO?A PODSTAWOWA IM.ADAMA MICKIEWICZA W STRONIU","","34-604","STRONIE","20.52389925","49.61395897","28.166666666666668","972.4166666666666","25.041666666666668","3.375","3.0583333333333336","2025-04-28 17:00:00.0"
"SZKO?A PODSTAWOWA IM.WO?Y?SKIEJ BRYGADY KAWALERII W STARYM KOCINIE","UL. KR?TA","42-231","STARY KOCIN","19.1164555","50.9549101","29.49","996.8399999999999","21.19","3.38","3.38","2025-04-28 17:00:00.0"
"PUBLICZNA SZKO?A PODSTAWOWA IM. JANA PAW?A II W WOLI TACZOWSKIEJ","","26-652","WOLA TACZOWSKA","21.04512254","51.44935931","24.433333333333334","1001.3083333333334","19.458333333333332","4.4750000000000005","4.4750000000000005","2025-04-28 17:00:00.0"
"SZKO?A PODSTAWOWA NR 3 IM. MARII KONOPNICKIEJ W CHOJNOWIE","UL. W?ADYS?AWA REYMONTA","59-225","CHOJN?W","15.92934","51.27254","27.733333333333334","1005.1083333333332","22.525000000000002","8.158333333333333","6.966666666666666","2025-04-28 17:00:00.0"
"LICEUM OG?LNOKSZTA?C?CE IM. STEFANA ?EROMSKIEGO W ?YRARDOWIE","UL. JANINY JADWIGI KACPERSKIEJ","96-300","?YRARD?W","20.44495564","52.0675436","24.325","1012.4499999999999","20.816666666666666","3.3333333333333335","3.0749999999999997","2025-04-28 17:00:00.0"
"SZKO?A PODSTAWOWA W ?CINAWIE POLSKIEJ","","55-200","?CINAWA POLSKA","17.33660972","50.93346737","25.041666666666668","1006.85","20.158333333333335","4.266666666666667","3.725","2025-04-28 17:00:00.0"
"SZKO?A PODSTAWOWA W ?CINAWCE DOLNEJ","","57-410","?CINAWKA DOLNA","16.5360171","50.4966472","38.68333333333333","986.4083333333333","20.891666666666666","4.066666666666666","3.5583333333333336","2025-04-28 17:00:00.0"
"I LICEUM OG?LNOKSZTA?C?CE IM. ADAMA MICKIEWICZA W ?APACH","UL. BOHATER?W WESTERPLATTE","18-100","?APY","22.87657971","52.98984475","25.858333333333334","1008.0083333333333","18.125","7.8999999999999995","6.6000000000000005","2025-04-28 17:00:00.0"
"SZKO?A PODSTAWOWA W W?GRACH","UL. SZKOLNA","55-020","W?GRY","17.0374566","50.92746209","30.608333333333334","1006.1999999999999","20.858333333333334","7.45","6.541666666666667","2025-04-28 17:00:00.0"
"PUBLICZNA SZKO?A PODSTAWOWA IM. MIKO?AJA KOPERNIKA W BIENI?DZICACH","","26-625","BIENI?DZICE","20.92852467","51.41165831","17.6","1001.78","26.419999999999998","2.65","2.23","2025-04-28 17:00:00.0"
"SAMORZ?DOWA SZKO?A PODSTAWOWA IM. WOJSKA POLSKIEGO W WODZIS?AWIU","UL. SZKOLNA","28-330","WODZIS?AW","20.18925053","50.51810713","24.058333333333334","993.9916666666667","26.05","4.766666666666667","4.283333333333333","2025-04-28 17:00:00.0"
"LICEUM OG?LNOKSZTA?C?CE W ZESPOLE SZK?? DRZEWNYCH I LE?NYCH IM. JANA KOCHANOWSKIEGO W GARBATCE - LETNISKU","UL. HANKI LEWANDOWICZ","26-930","GARBATKA-LETNISKO","21.62967267","51.49346798","18.7","1005.0600000000001","20.5","3.28","2.7199999999999998","2025-04-28 17:00:00.0"
"PUBLICZNA SZKO?A PODSTAWOWA IM. JANA OLRYCHA SZANIECKIEGO W SZA?CU","","28-100","SZANIEC"," 20.691985097588677","50.51627384074623","26.808333333333334","992.5","19.741666666666667","3.158333333333333","2.9166666666666665","2025-04-28 17:00:00.0"
"SZKO?A PODSTAWOWA W ZBOROWIE","UL. ZWIERZYNIEC","28-131","ZBOR?W","20.711351","50.51339044","22.714285714285715","999.2142857142857","25.892857142857142","3.257142857142857","2.7214285714285715","2025-04-28 17:00:00.0"
"PUBLICZNA SZKO?A PODSTAWOWA IM. POR. J?ZEFA M?CZKI W ZALESZANACH","UL. SANDOMIERSKA","37-415","ZALESZANY","21.88785883","50.64803753","23.849999999999998","1005.3583333333332","20.566666666666666","3.6166666666666667","2.983333333333333","2025-04-28 17:00:00.0"
"SZKO?A PODSTAWOWA W SOLCU-ZDROJU","UL. 1 MAJA","28-131","SOLEC-ZDR?J","20.8893586","50.37082674","25.316666666666666","1003.1666666666666","22.650000000000002","3.8000000000000003","3.3166666666666664","2025-04-28 17:00:00.0"
"I LICEUM OG?LNOKSZTA?C?CE W NOWEJ SARZYNIE","UL. KOMISJI EDUKACJI NARODOWEJ","37-310","NOWA SARZYNA","22.34167945","50.31921557","26.758333333333336","1004.6666666666666","19.375","3.025","2.8083333333333336","2025-04-28 17:00:00.0"
"SZKO?A PODSTAWOWA IM. KORNELA MAKUSZY?SKIEGO W SKRZYDLOWIE","UL. G??WNA","42-270","SKRZYDL?W","19.3605871","50.8624858","32.7","994.5","20.4","10.5","7.9","2025-04-28 17:00:00.0"
"SZKO?A PODSTAWOWA W SZRENIAWIE","","32-075","SZRENIAWA","19.8690283","50.3768057","41.82","987.8","18.7","13.0","12.24","2025-04-28 17:00:00.0"
"SZKO?A PODSTAWOWA W PTASZKOWIE","","58-400","PTASZK?W","16.0415642","50.7927672","38.46666666666667","969.8499999999999","18.8","9.041666666666666","7.641666666666667","2025-04-28 17:00:00.0"
"SZKO?A PODSTAWOWA IM. ?W. WOJCIECHA WE W?ODOWICACH","","57-400","W?ODOWICE","16.4776033","50.575772","27.75","978.8666666666667","22.441666666666666","3.9333333333333336","3.35","2025-04-28 17:00:00.0"
"PUBLICZNA SZKO?A PODSTAWOWA W LEWINIE K?ODZKIM","UL. KO?CIELNA","57-343","LEWIN K?ODZKI","16.2909777","50.4056168","28.608333333333334","968.7583333333333","20.208333333333332","5.808333333333334","5.133333333333334","2025-04-28 17:00:00.0"
"SZKO?A PODSTAWOWA NR 3 IM. JANA PAW?A II W SYCOWIE","UL. KO?CIELNA","56-500","SYC?W","17.72017","51.3071","25.727272727272727","1002.3636363636364","19.827272727272728","3.9818181818181815","3.3909090909090907","2025-04-28 17:00:00.0"
"SZKO?A PODSTAWOWA IM. BOLES?AWA CHROBREGO W ?MIGRODZIE","UL. HENRYKA SIENKIEWICZA","55-140","?MIGR?D","16.9084728","51.4700924","24.308333333333334","1020.8333333333334","20.933333333333334","4.691666666666666","4.058333333333333","2025-04-28 17:00:00.0"
"SPO?ECZNA SZKO?A PODSTAWOWA W ?WIDNICY","UL. ADAMA MICKIEWICZA","58-100","?WIDNICA","16.677532","51.0740481","35.028571428571425","995.3142857142857","20.114285714285717","11.328571428571427","9.771428571428572","2025-04-28 17:00:00.0"
"SZKO?A PODSTAWOWA W KRZESZOWIE","UL. BETLEJEMSKA","58-400","KRZESZ?W","16.0646514","50.7333391","28.875","966.9250000000001","19.875","3.608333333333333","3.1333333333333333","2025-04-28 17:00:00.0"
"SZKO?A PODSTAWOWA W MOKRZESZOWIE","","58-160","MOKRZESZ?W","16.371249","50.8485349","44.833333333333336","987.6583333333333","17.941666666666666","13.683333333333332","11.625","2025-04-28 17:00:00.0"
