"NAME","STREET","POST_CODE","CITY","LONGITUDE","LATITUDE","HUMIDITY_AVG","PRESSURE_AVG","TEMPERATURE_AVG","PM10_AVG","PM25_AVG","TIMESTAMP"
"SZKO?A PODSTAWOWA IM. MARIANA FALSKIEGO W KRASZEWICACH","UL. SZKOLNA","63-522","KRASZEWICE","18.22403","51.51563","95.12","1015.11","8.61","32.86","20.2","2025-04-28 01:00:00.0"
"SZKO?A PODSTAWOWA WE WRZ?SOWICACH","UL. SZKOLNA","32-040","WRZ?SOWICE","19.94282","49.96103","57.4","988.8799999999999","7.640000000000001","7.76","6.840000000000001","2025-04-28 01:00:00.0"
"PUBLICZNA SZKO?A PODSTAWOWA NR 2 IM. KAZIMIERZA MALCZEWSKIEGO W STRZELCACH OPOLSKICH","UL. WAWRZY?CA ?WIERZEGO","47-100","STRZELCE OPOLSKIE","18.314889","50.503431","71.33333333333333","1044.2","5.433333333333334","1.0","0.61","2025-04-28 01:00:00.0"
"ZESP?? SZK?? NR 1 W PSZCZYNIE","UL. KAZIMIERZA WIELKIEGO","43-200","PSZCZYNA","18.9457058","49.965883","93.96666666666665","1005.6333333333333","5.7","11.333333333333334","6.136666666666667","2025-04-28 01:00:00.0"
"ZESP?? SZK?? IM. POWSTA?C?W WIELKOPOLSKICH W JANKOWIE PRZYGODZKIM","SZKOLNA","63-421","JANK?W PRZYGODZKI","17.7889069","51.596172","68.03333333333335","1013.1666666666666","7.266666666666667","20.2","10.67","2025-04-28 01:00:00.0"
"SZKO?A PODSTAWOWA NR 7 IM. ?O?NIERZY WRZE?NIA W ?WIKLICACH","UL. M?CZENNIK?W O?WI?CIMSKICH","43-229","?WIKLICE","18.989839","49.971937","84.8","997.2333333333332","7.2","15.799999999999999","9.583333333333334","2025-04-28 01:00:00.0"
"SZKO?A PODSTAWOWA NR 12 W STUDZIONCE","UL. JORDANA","43-245","STUDZIONKA","18.774985","49.9603559","74.33333333333333","1004.0333333333333","8.133333333333333","18.333333333333332","9.976666666666667","2025-04-28 01:00:00.0"
"ZESP?? SZKOLNO-PRZEDSZKOLNY W PIASKU","SZKOLNA","43-211","PIASEK","18.94634","50.00955","59.63333333333333","1005.1999999999999","5.666666666666667","15.4","9.806666666666667","2025-04-28 01:00:00.0"
"ZESP?? SZKOLNO-PRZEDSZKOLNY W ??CE","FITELBERGA","43-241","??KA","18.906757","49.9582444","66.89999999999999","1003.1","5.166666666666667","14.366666666666667","7.896666666666667","2025-04-28 01:00:00.0"
"SZKO?A PODSTAWOWA NR 3 W LUBONIU","ARMII POZNA?","62-030","LUBO?","16.8968","52.3481","97.83333333333333","1013.0","6.3999999999999995","26.433333333333334","14.416666666666666","2025-04-28 01:00:00.0"
"SPECJALNY O?RODEK WYCHOWAWCZY NR 1 W OSTROWCU ?WI?TOKRZYSKIM","SZKOLNA","27-400","OSTROWIEC ?WI?TOKRZYSKI","21.418144","50.9312","91.96999999999998","995.09","5.0","44.02","25.100000000000005","2025-04-28 01:00:00.0"
"ZESP?? SZK?? PONADGIMNAZJALNYCH CENTRUM KSZTA?CENIA USTAWICZNEGO W PRZYGODZICACH","PTR","63-421","PRZYGODZICE","17.822685","51.59023","58.06666666666666","1022.9","6.133333333333333","1.7333333333333334","1.0166666666666666","2025-04-28 01:00:00.0"
"LICEUM OG?LNOKSZTA?C?CE IM. W?ADYS?AWA JAGIE??Y W ODOLANOWIE","KROTOSZY?SKA","63-430","ODOLAN?W","17.66024","51.58063","64.86666666666667","1012.1999999999999","6.133333333333333","34.03333333333333","19.99","2025-04-28 01:00:00.0"
"ZESP?? SZK?? W PIOTROWIE","","62-814","PIOTR?W","18.05485","51.81570","61.23333333333333","1014.0666666666666","6.433333333333334","26.266666666666666","14.729999999999999","2025-04-28 01:00:00.0"
"SZKO?A PODSTAWOWA W CZARNYMLESIE","","63-421","CZARNYLAS","17.762604","51.508366","99.90000000000002","1009.5666666666666","4.8999999999999995","16.7","9.003333333333332","2025-04-28 01:00:00.0"
"SZKO?A PODSTAWOWA NR 2 IM. AUGUSTA HR. CIESZKOWSKIEGO W LUBONIU","?ABIKOWSKA","62-030","LUBO?","16.878431","52.346672","60.4","1021.6999999999999","7.033333333333334","27.433333333333334","17.993333333333336","2025-04-28 01:00:00.0"
"SZKO?A PODSTAWOWA IM. POWSTA?C?W WIELKOPOLSKICH W DORUCHOWIE","KALISKA","63-505","DORUCH?W","18.0786","51.4189","95.31","1015.31","8.56","32.76","18.92","2025-04-28 01:00:00.0"
"SZKO?A PODSTAWOWA IM. MIKO?AJA KOPERNIKA W BUKOWCU","SZKOLNA","95-006","BUKOWIEC","19.6757","51.6918","99.83333333333333","999.7000000000002","3.1666666666666665","24.666666666666668","14.073333333333332","2025-04-28 01:00:00.0"
"SZKO?A PODSTAWOWA IM. MARII KONOPNICKIEJ W KOTLINIE","MARII KONOPNICKIEJ","63-220","KOTLIN","17.645437","51.91866","67.2","1010.9333333333334","7.3999999999999995","1.8666666666666665","1.0633333333333332","2025-04-28 01:00:00.0"
"SZKO?A PODSTAWOWA NR 2 W OTMUCHOWIE","KALINOWA","48-385","OTMUCH?W","17.213","50.46535","99.86666666666667","1006.5","5.1000000000000005","14.9","8.659999999999998","2025-04-28 01:00:00.0"
"SZKO?A PODSTAWOWA IM. BOHATER?W POWSTA? ?L?SKICH W KA?KOWIE","","48-364","KA?K?W","17.185241","50.40420","96.33999999999999","1010.98","8.55","31.05","18.64","2025-04-28 01:00:00.0"
"SZKO?A PODSTAWOWA W MACIEJOWICACH","","48-385","MACIEJOWICE","17.13497","50.4998","61.73333333333333","992.5666666666666","8.200000000000001","9.233333333333334","4.83","2025-04-28 01:00:00.0"
"TEST SZKO?A","ul Testowa","00-000","TESTCITY","-157.52969778504766","1.8586845937815497","89.69","992.4699999999999","7.760000000000001","50.169999999999995","30.320000000000004","2025-04-28 01:00:00.0"
"ZESP?? EDUKACYJNY W KONOTOPIE","PL. POWSTA?C?W WIELKOPOLSKICH","67-416","KONOTOP","15.9031","51.93023","67.16666666666667","1020.5","8.466666666666667","53.0","26.28","2025-04-28 01:00:00.0"
"PRZEDSZKOLE NR 6 W BOCHNI","MUROWIANKA","32-700","BOCHNIA","20.4415","49.96533","96.43333333333334","1022.6999999999999","5.433333333333334","2.8333333333333335","1.5599999999999998","2025-04-28 01:00:00.0"
"PUBLICZNA SZKO?A PODSTAWOWA W SZYMISZOWIE","SZKOLNA","47-161","SZYMISZ?W","18.21983","50.53656","70.0","1004.9333333333334","5.0","37.300000000000004","20.69","2025-04-28 01:00:00.0"
"PUBLICZNA SZKO?A PODSTAWOWA W ROZMIERCE","SZKOLNA","47-171","ROZMIERKA","18.26905","50.560720","96.32","995.88","5.98","47.13","29.899999999999995","2025-04-28 01:00:00.0"
"PUBLICZNA SZKO?A PODSTAWOWA W DZIEWKOWICACH","STRZELECKA","47-100","DZIEWKOWICE","18.34475","50.51530","96.32","995.88","5.98","47.13","29.899999999999995","2025-04-28 01:00:00.0"
"SZKO?A PODSTAWOWA IM. OR?A BIA?EGO W KUROWICACH FILIA W WOLI RAKOWEJ","SZKOLNA","95-006","WOLA RAKOWA","19.61157","51.67447","66.0","1005.4333333333334","5.033333333333333","4.8","2.766666666666667","2025-04-28 01:00:00.0"
"SZKO?A PODSTAWOWA IM. KS. JANA TWARDOWSKIEGO WE W?ADYS?AWOWIE","KALISKA","62-610","W?ADYS?AW?W","18.4688","52.10134","92.51","1014.7000000000002","8.83","28.05","16.66","2025-04-28 01:00:00.0"
"SZKO?A PODSTAWOWA NR 8 IM. J?ZEFA WESZKI W RUDO?TOWICACH","KRZYWO?","43-220","RUDO?TOWICE","19.00171","49.95711","1.0","1000.4666666666667","5.8","12.466666666666667","6.276666666666666","2025-04-28 01:00:00.0"
"ZESP?? SZKOLNO-PRZEDSZKOLNY W WI?LE WIELKIEJ","HODOWC?W","43-243","WIS?A WIELKA","18.85320","49.95291","69.60000000000001","1001.4666666666667","6.7","8.700000000000001","4.89","2025-04-28 01:00:00.0"
"SZKO?A PODSTAWOWA IM. MARKA PRAWEGO W JEMIELNICY","SZKOLNA","47-133","JEMIELNICA","18.380122","50.548993","56.76666666666667","989.9","5.766666666666667","21.3","12.573333333333332","2025-04-28 01:00:00.0"
"SZKO?A PODSTAWOWA NR 2 IM. ?W. JADWIGI ?L?SKIEJ W PSZCZYNIE","KATOWICKA","43-200","PSZCZYNA","18.947994","49.992568","63.23333333333333","1005.0666666666666","8.766666666666666","6.366666666666667","3.5533333333333332","2025-04-28 01:00:00.0"
"ZESP?? SZK?? SPECJALNYCH W OSTROWCU ?WI?TOKRZYSKIM","I?ZECKA","27-400","OSTROWIEC ?WI?TOKRZYSKI","21.386931","50.942931","92.61","994.75","5.04","40.73","23.77","2025-04-28 01:00:00.0"
"SZKO?A PODSTAWOWA NR 6 IM. KORNELA MAKUSZY?SKIEGO W CZARKOWIE","POWSTA?C?W ?L?SKICH","43-211","CZARK?W","18.909560","50.011713","55.03333333333333","1002.8000000000001","6.266666666666667","5.933333333333334","3.3466666666666662","2025-04-28 01:00:00.0"
"ZESP?? SZKOLNO-PRZEDSZKOLNY W JANKOWICACH","BAZIOWA","43-215","JANKOWICE","18.989423","50.002529","71.1","992.12","0.24","68.37","39.28","2025-04-28 01:00:00.0"
"SZKO?A PODSTAWOWA NR 4 IM. J?ZEFA PUKOWCA W PSZCZYNIE","ZYGMUNTA KRASI?SKIEGO","43-200","PSZCZYNA","18.961125","49.971182","64.43333333333334","999.6","6.1000000000000005","5.033333333333334","3.0","2025-04-28 01:00:00.0"
"SZKO?A PODSTAWOWA IM. ARKADEGO FIEDLERA W RASZKOWIE Z SIEDZIB? W POGRZYBOWIE","POGRZYB?W","63-440","POGRZYB?W","17.723099","51.713966","48.70000000000001","1018.2000000000002","22.899999999999995","6.0","3.5","2025-04-28 01:00:00.0"
"ZESP?? SZK?? W OTMUCHOWIE","KRAKOWSKA","48-385","OTMUCH?W","17.167634","50.4705","96.33999999999999","1010.98","8.55","31.05","18.64","2025-04-28 01:00:00.0"
"SZKO?A PODSTAWOWA NR 6?IM. IGNACEGO ?UKASZEWICZA W CZECHOWICACH-DZIEDZICACH","UL. ?UKASIEWICZA","43-502","CZECHWICE-DZIEDZICE","19.016493","49.899404","72.56666666666666","972.9666666666667","6.166666666666667","8.666666666666666","4.783333333333334","2025-04-28 01:00:00.0"
"SZKO?A PODSTAWOWA NR 4 IM. GUSTAWA MORCINKA W S?UPSKU","UL. LESZCZY?SKIEGO","76-200","S?UPSK","17.005017","54.475286","64.39999999999999","1024.4666666666667","5.466666666666666","2.8000000000000003","1.4833333333333334","2025-04-28 01:00:00.0"
"SZKO?A PODSTAWOWA W KLESZCZOWIE","UL. SZKOLNA","44-164","KLESZCZ?W","18.527510","50.344057","66.86666666666666","999.7666666666668","8.266666666666667","9.6","5.583333333333333","2025-04-28 01:00:00.0"
"SZKO?A PODSTAWOWA NR 5 IM. GRYFIT?W W S?UPSKU","UL. HUBALCZYK?W","76-200","S?UPSK","17.062723","54.455744","58.06666666666666","1022.9","6.133333333333333","1.7333333333333334","1.0166666666666666","2025-04-28 01:00:00.0"
"ZESP?? SZKOLNO-PRZEDSZKOLNY W POT?PIE","UL. TARNOG?RSKA","42-693","POT?PA","18.662519","50.565309","97.16000000000001","997.19","5.87","39.37","22.63","2025-04-28 01:00:00.0"
"SZKO?A PODSTAWOWA NR 3 IM. JANA PAW?A II W PSZCZYNIE","UL. STAROMIEJSKA","43-200","PSZCZYNA","18.92452","49.98849","66.78333333333333","996.2666666666668","5.55","48.175000000000004","36.958333333333336","2025-04-28 01:00:00.0"
"SZKO?A PODSTAWOWA IM. MIKO?AJA REJA W GORZYCZKACH","UL. WIEJSKA","44-350","GORZYCZKI","18.399689","49.944774","74.33333333333333","996.8666666666667","8.166666666666666","10.133333333333333","6.026666666666666","2025-04-28 01:00:00.0"
"SZKO?A PODSTAWOWA NR 6 IM. LUDWIKA WARY?SKIEGO W S?UPSKU","UL. STARZY?SKIEGO","76-200","S?UPSK","17.023811","54.465980","55.93333333333334","1028.5333333333333","7.1000000000000005","0.6999999999999998","0.39999999999999997","2025-04-28 01:00:00.0"
"SZKO?A PODSTAWOWA IM. JANA BRZECHWY W KOBI?RZE","UL. TUWIMA","43-210","KOBI?R","18.930274","50.060752","99.90000000000002","1000.6666666666666","6.8","29.03333333333333","17.34","2025-04-28 01:00:00.0"
"SZKO?A PODSTAWOWA W PONISZOWICACH","UL. GLIWICKA","44-172","PONISZOWICE","18.458674","50.409220","78.7","998.0","7.466666666666666","3.0666666666666664","1.4133333333333333","2025-04-28 01:00:00.0"
"SZKO?A PODSTAWOWA IM. OR?A BIA?EGO W SOKO?OWICACH","SOKO?OWICE","56-400","SOKO?OWICE","17.4469","51.245","77.98","1009.18","9.68","10.979999999999999","6.150000000000001","2025-04-28 01:00:00.0"
"SZKO?A PODSTAWOWA W LIGOCIE POLSKIEJ","LIGOTA POLSKA","56-400","LIGOTA POLSKA","17.542356","51.239942","99.90000000000002","1007.6999999999999","6.3999999999999995","6.233333333333333","3.35","2025-04-28 01:00:00.0"
"SZKO?A PODSTAWOWA IM. UNICEF W LIGOCIE MA?EJ","LIGOTA MA?A","56-400","LIGOTA MA?A","17.365476","51.142467","88.03333333333335","985.2666666666668","2.1","32.03333333333333","19.346666666666668","2025-04-28 01:00:00.0"
"SZKO?A PODSTAWOWA WE WSZECH?WI?TEM","WSZECH?WI?TE","56-400","WSZECH?WI?TE","17.484968","51.191751","99.90000000000002","1008.4333333333334","10.6","4.833333333333333","2.6333333333333333","2025-04-28 01:00:00.0"
"SZKO?A PODSTAWOWA GMINY OLE?NICA W OLE?NICY","WILE?SKA","56-400","OLE?NICA","17.41034","51.2095","99.90000000000002","993.7000000000002","19.8","0.0","0.0","2025-04-28 01:00:00.0"
"SZKO?A PODSTAWOWA NR 19 W BRZE?CACH","POKOJU","43-200","BRZE?CE","18.832539","49.984943","61.9","1000.8333333333334","6.3","17.5","8.056666666666667","2025-04-28 01:00:00.0"
"ZESP?? SZKOLNO-PRZEDSZKOLNY W RADOSTOWIE ?REDNIM","RADOST?W ?REDNI","59-800","RADOST?W ?REDNI","15.36293","51.12153","99.90000000000002","999.6","8.6","0.26666666666666666","0.19333333333333333","2025-04-28 01:00:00.0"
"ZESP?? SZKOLNO-PRZEDSZKOLNY W KO?CIELNIKU","KO?CIELNIK","59-800","KO?CIELNIK","15.29682","51.08393","91.58","1020.33","11.1","28.070000000000004","14.81","2025-04-28 01:00:00.0"
"SZKO?A PODSTAWOWA NR 2 IM. BOLES?AWA CHROBREGO W MIASTKU","KUJAWSKA","77-200","MIASTKO","16.97385","53.99424","94.40000000000002","1015.89","7.64","15.39","8.33","2025-04-28 01:00:00.0"
"ZESP?? SZK?? OG?LNOKSZTA?C?CYCH I TECHNICZNYCH W MIASTKU","M?ODZIE?OWA","77-200","MIASTKO","16.97198","54.00061","93.3","1016.63","6.400000000000001","12.979999999999999","7.62","2025-04-28 01:00:00.0"
"SZKO?A PODSTAWOWA IM. POLSKICH ODKRYWC?W I PODR??NIK?W W KOBIERZYCACH","PARKOWA","55-040","KOBIERZYCE","16.933169","50.971851","79.93333333333334","1000.9","1.9333333333333333","19.4","10.37","2025-04-28 01:00:00.0"
"SZKO?A PODSTAWOWA W PUSTKOWIE WILCZKOWSKIM","K?ODZKA","55-040","PUSTK?W WILCZKOWSKI","16.881039","50.906166","99.90000000000002","1009.6999999999999","8.733333333333333","2.8333333333333335","1.7300000000000002","2025-04-28 01:00:00.0"
"SZKO?A PODSTAWOWA IM. UNICEF W BIELANACH WROC?AWSKICH","AKACJOWA","55-040","BIELANY WROC?AWSKIE","16.971022","51.038120","31.166666666666668","1014.6333333333333","9.633333333333333","10.266666666666667","5.81","2025-04-28 01:00:00.0"
"SZKO?A PODSTAWOWA IM. JANUSZA KORCZAKA W WYSOKIEJ","CHABROWA","52-200","WYSOKA","17.007729","51.047504","99.90000000000002","1008.3666666666667","9.4","15.366666666666667","8.386666666666665","2025-04-28 01:00:00.0"
"SZKO?A PODSTAWOWA IM. ROMUALDA TRAUGUTTA W PUSTKOWIE ?URAWSKIM","KOLEJOWA","55-040","PUSTK?W ?URAWSKI","16.859465","50.958878","99.90000000000002","1009.3000000000001","8.033333333333333","20.366666666666667","12.280000000000001","2025-04-28 01:00:00.0"
"SZKO?A PODSTAWOWA IM. ABP. ANTONIEGO JULIANA NOWOWIEJSKIEGO W S?UPNIE","KO?CIELNA","09-472","S?UPNO","19.84527","52.5041","82.51","1015.35","6.61","71.98","43.72","2025-04-28 01:00:00.0"
"SZKO?A PODSTAWOWA NR 1 IM. MARII KONOPNICKIEJ W ZESPOLE SZK?? OG?LNOKSZTA?C?CYCH NR 1 IM. MARII KONOPNICKIEJ W PRUSZCZU GDA?SKIM","NIEMCEWICZA","83-000","PRUSZCZ GDA?SKI","18.650575","54.261512","72.0","1038.7","2.4333333333333336","12.133333333333333","6.343333333333334","2025-04-28 01:00:00.0"
"SZKO?A PODSTAWOWA NR 2 IM. MIKO?AJA KOPERNIKA W PRUSZCZU GDA?SKIM","TYSI?CLECIA","83-000","PRUSZCZ GDA?SKI","18.628278","54.260787","74.43333333333334","1031.2","3.266666666666667","9.533333333333333","5.640000000000001","2025-04-28 01:00:00.0"
"SZKO?A PODSTAWOWA NR 3 IM. JANA MATEJKI W PRUSZCZU GDA?SKIM","MATEJKI","83-000","PRUSZCZ GDA?SKI","18.636981","54.255547","77.56666666666666","1033.3","3.866666666666667","18.3","10.753333333333336","2025-04-28 01:00:00.0"
"SZKO?A PODSTAWOWA NR 4 IM. IGNACEGO JANA PADEREWSKIEGO W PRUSZCZU GDA?SKIM","KASPROWICZA","83-000","PRUSZCZ GDA?SKI","18.670231","54.263405","76.43333333333334","1033.4666666666665","4.033333333333334","29.53333333333333","15.986666666666666","2025-04-28 01:00:00.0"
"SZKO?A PODSTAWOWA NR 13 W WI?LE MA?EJ","SOKOLA","43-243","WIS?A MA?A","18.793987","49.93368","98.83333333333333","1005.3333333333334","6.766666666666667","0.6","0.33666666666666667","2025-04-28 01:00:00.0"
"ZESP?? SZKOLNO-PRZEDSZKOLNY W STUDZIENICACH","?W. JANA PAW?A II 74","43-215","STUDZIENICE","18.983576","50.016514","59.86666666666667","1009.5333333333333","6.3999999999999995","4.466666666666667","2.53","2025-04-28 01:00:00.0"
"SZKO?A PODSTAWOWA IM. JANUSZA KORCZAKA W SUSZCU","SZKOLNA","43-267","SUSZEC","18.79149","50.03719","96.3","987.2599999999999","7.133333333333333","3.733333333333333","2.07","2025-04-28 01:00:00.0"
"SZKO?A PODSTAWOWA NR 11 W POR?BIE","SZKOLNA","43-200","POR?BA","18.876488","49.984417","58.26666666666667","999.2333333333332","6.8999999999999995","7.333333333333333","3.776666666666667","2025-04-28 01:00:00.0"
"SZKO?A PODSTAWOWA IM. MIKO?AJA KOPERNIKA W WYSOCKU MA?YM","KO?CIELNA","63-421","WYSOCKO MA?E","17.84109","51.61033","70.36666666666666","1007.5","7.133333333333333","20.833333333333332","11.433333333333332","2025-04-28 01:00:00.0"
"SZKO?A PODSTAWOWA NR 3 IM. JULIANA TUWIMA W NOWEJ SOLI","BOTANICZNA","67-100","NOWA S?L","15.71186","51.82115","86.7","1003.4","13.0","9.7","6.19","2025-04-28 01:00:00.0"
"ZESP?? SZK?? W JANKOWIE PIERWSZYM","JANK?W PIERWSZY","62-814","JANK?W PIERWSZY","17.987951","51.902107","76.56666666666666","1010.6333333333333","4.7","43.06666666666666","23.433333333333334","2025-04-28 01:00:00.0"
"ZESP?? SZKOLNO-PRZEDSZKOLNY W MESZNIE","MESZNO","48-385","MESZNO","17.15378","50.43684","96.83999999999999","1010.56","8.08","31.83","18.77","2025-04-28 01:00:00.0"
"SZKO?A PODSTAWOWA IM. 16. PU?KU U?AN?W WIELKOPOLSKICH W GRUPIE","SZKOLNA","86-134","GRUPA","18.643229","53.506348","97.5","1024.45","7.099999999999999","28.179999999999996","15.99","2025-04-28 01:00:00.0"
"SZKO?A PODSTAWOWA IM. OR?A BIA?EGO W KUROWICACH","SZKOLNA","95-006","KUROWICE","19.6897942","51.6648927","80.63333333333334","1006.5666666666666","5.366666666666667","14.166666666666666","7.609999999999999","2025-04-28 01:00:00.0"
"SZKO?A PODSTAWOWA IM. POWSTA?C?W WIELKOPOLSKICH W BUDZYNIU","ROGOZI?SKA","64-840","BUDZY?","16.983885","52.8847","95.43333333333334","1023.2333333333332","4.166666666666667","17.84","10.17","2025-04-28 01:00:00.0"
"SZKO?A PODSTAWOWA W SWORNEGACIACH","SZKOLNA","89-608","SWORNEGACIE","17.503073","53.86227","91.12","1026.63","8.15","38.25","22.929999999999996","2025-04-28 01:00:00.0"
"SZKO?A PODSTAWOWA IM. OR?A BIA?EGO W RASZ?WCE","1 MAJA","59-307","RASZ?WKA","16.18346","51.30514","72.06","1008.2800000000001","12.589999999999998","15.089999999999998","8.21","2025-04-28 01:00:00.0"
"SZKO?A PODSTAWOWA IM. TADEUSZA KO?CIUSZKI W MUNINIE","3-GO MAJA","37-514","MUNINA","22.725977","49.997936","99.90000000000002","1006.3000000000001","7.0","11.5","7.016666666666667","2025-04-28 01:00:00.0"
"SZKO?A PODSTAWOWA IM. ALEKSANDRA FREDRY W SUROCHOWIE","SUROCH?W","37-500","SUROCH?W","22.7635","50.02385","80.6","1003.64","4.61","32.46","19.26","2025-04-28 01:00:00.0"
"SZKO?A PODSTAWOWA IM. LOTNIK?W ALIANCKICH W I?OWEJ","PIASKOWA","68-120","I?OWA","15.20461","51.50227","79.35","1009.21","14.410000000000002","10.44","6.47","2025-04-28 01:00:00.0"
"ZESP?? SZKOLNO-PRZEDSZKOLNY W BRZE?NIKU","BRZE?NIK","59-700","BRZE?NIK","15.467881","51.243537","99.90000000000002","1007.6999999999999","7.8999999999999995","10.433333333333332","5.023333333333333","2025-04-28 01:00:00.0"
"SZKO?A PODSTAWOWA W D?BROWIE BOLES?AWIECKIEJ","D?BROWA BOLES?AWIECKA","59-700","D?BROWA BOLES?AWIECKA","15.57337","51.325929","87.26666666666667","1012.6666666666666","0.3333333333333333","11.566666666666668","6.81","2025-04-28 01:00:00.0"
"ZESP?? SZKOLNO-PRZEDSZKOLNY W KRA?NIKU DOLNYM","KRA?NIK DOLNY","59-700","KRA?NIK DOLNY","15.607869","51.307800","99.90000000000002","1008.5","7.833333333333333","19.26666666666667","10.840000000000002","2025-04-28 01:00:00.0"
"SZKO?A PODSTAWOWA IM. MARII SK?ODOWSKIEJ-CURIE W KAW?CZYNIE","KAW?CZYN","62-704","KAW?CZYN","18.53126","51.90873","91.88","1014.65","8.93","28.28","16.42","2025-04-28 01:00:00.0"
"PUBLICZNA SZKO?A PODSTAWOWA IM. MARII KONOPNICKIEJ W JORDANOWIE ?L?SKIM","WROC?AWSKA","55-065","JORDAN?W ?L?SKI","16.8656","50.8654","61.5","1024.2333333333333","4.233333333333333","31.666666666666668","17.790000000000003","2025-04-28 01:00:00.0"
"SZKO?A PODSTAWOWA IM. JANA PAW?A II W RUDNEJ","PIASKOWA","59-305","RUDNA","16.26114","51.51127","93.56666666666666","1019.3333333333334","2.4333333333333336","8.200000000000001","4.783333333333333","2025-04-28 01:00:00.0"
"SZKO?A PODSTAWOWA IM. BOHATER?W WESTERPLATTE W CHOBIENI","SZKOLNA","59-305","CHOBIENIA","16.44566","51.54124","86.93333333333334","1020.6333333333333","5.0","8.1","4.113333333333333","2025-04-28 01:00:00.0"
"SZKO?A PODSTAWOWA NR 3 IM. W?ADYS?AWA BRONIEWSKIEGO W ?WIEBODZICACH","?WIDNICKA","58-160","?WIEBODZICE","16.322191","50.859905","98.13333333333333","996.6","5.266666666666667","8.433333333333334","4.84","2025-04-28 01:00:00.0"
"PUBLICZNA SZKO?A PODSTAWOWA NR 5 IM. W?ADYS?AWA BRONIEWSKIEGO W NOWEJ SOLI","WALKI M?ODYCH","67-100","NOWA S?L","15.72476","51.78292","99.76666666666667","1019.3666666666667","7.3","11.799999999999999","7.3","2025-04-28 01:00:00.0"
"ZESP?? EDUKACYJNY W KOLSKU","PIASTOWSKA","67-415","KOLSKO","15.961961","51.960693","88.33999999999999","1020.57","9.94","37.83","22.350000000000005","2025-04-28 01:00:00.0"
"SZKO?A PODSTAWOWA NR 3 IM. MARII KONOPNICKIEJ W KOLE","TORU?SKA","62-600","KO?O","18.63092","52.201656","93.89","1013.89","6.34","27.41","15.15","2025-04-28 01:00:00.0"
"SZKO?A PODSTAWOWA IM. JANA PAW?A II W MIKORZYNIE","MIKORZYN","63-600","MIKORZYN","18.026148","51.36473","95.31","1015.31","8.56","32.76","18.92","2025-04-28 01:00:00.0"
"SZKO?A PODSTAWOWA NR 1 IM. BOHATER?W WESTERPLATTE W K?PNIE","HENRYKA SIENKIEWICZA","63-600","K?PNO","17.987194","51.27619","75.06666666666666","1016.1666666666666","9.1","13.033333333333333","7.316666666666666","2025-04-28 01:00:00.0"
"SZKO?A PODSTAWOWA IM. JANA PAW?A II W LIPNICY WIELKIEJ","LIPNICA WIELKA","33-323","LIPNICA WIELKA","20.86532","49.70755","94.0","985.0","16.9","28.3","15.62","2025-04-28 01:00:00.0"
"SZKO?A PODSTAWOWA IM. PREZYDENTA GABRIELA NARUTOWICZA W CZ?STKOWIE MAZOWIECKIM","CZ?STK?W MAZOWIECKI","05-152","CZ?STK?W MAZOWIECKI","20.746943","52.39131","75.06666666666668","1020.2666666666668","5.400000000000001","51.73333333333333","47.410000000000004","2025-04-28 01:00:00.0"
"SZKO?A PODSTAWOWA IM. PIERRE""A DE COUBERTINA W BUDACH SIENNICKICH","BUDY SIENNICKIE","05-190","BUDY SIENNICKIE","20.787657","52.544962","65.86","1019.44","7.57","71.71","43.4","2025-04-28 01:00:00.0"
"SZKO?A PODSTAWOWA IM. JANA BRZECHWY W SZKLARACH G?RNYCH","SZKLARY G?RNE","59-335","SZKLARY G?RNE","16.08945","51.44225","99.90000000000002","1010.8666666666667","9.066666666666666","3.4333333333333336","1.8766666666666667","2025-04-28 01:00:00.0"
"SAMORZ?DOWA SZKO?A PODSTAWOWA W G?RNYCH GR?DACH","G?RNE GR?DY","62-310","G?RNE GR?DY","17.74012","52.11447","99.90000000000002","1010.2800000000001","3.6333333333333333","17.766666666666666","9.863333333333333","2025-04-28 01:00:00.0"
"SZKO?A PODSTAWOWA IM. KRZYSZTOFA KAMILA BACZY?SKIEGO W CI??ENIU","WOLNO?CI","62-404","CI??E?","17.816093","52.21152","99.90000000000002","1017.6999999999999","6.2","21.733333333333334","11.273333333333333","2025-04-28 01:00:00.0"
"SZKO?A PODSTAWOWA NR 1 IM. STRAJKU DZIECI KO?MI?SKICH 1906/1907 W KO?MINIE WIELKOPOLSKIM","GLINKI","63-720","KO?MIN WIELKOPOLSKI","17.45651","51.82566","99.90000000000002","1016.7666666666668","9.866666666666667","18.8","11.410000000000002","2025-04-28 01:00:00.0"
"SZKO?A PODSTAWOWA NR 6 IM. JANA PAW?A II W STAROGARDZIE GDA?SKIM","BP. DOMINIKA","83-250","STAROGARD GDA?SKI","18.491356","53.98333","71.36666666666667","1020.3000000000001","3.1","8.1","4.626666666666667","2025-04-28 01:00:00.0"
"SZKO?A PODSTAWOWA NR 4 IM. JANUSZA KORCZAKA W CHOJNOWIE","JANA KILI?SKIEGO","59-225","CHOJN?W","15.9396","51.26856","99.90000000000002","1010.8666666666667","5.233333333333333","15.200000000000001","9.153333333333334","2025-04-28 01:00:00.0"
"ZESP?? SZK?? TECHNICZNYCH W KOLE","KOLEJOWA","62-600","KO?O","18.62956","52.2088","92.77","1013.1","8.54","28.83","16.58","2025-04-28 01:00:00.0"
"PUBLICZNA SZKO?A PODSTAWOWA NR 2 IM. KAZIMIERZA PU?ASKIEGO W WARCE","POLNA","05-660","WARKA","21.188357","51.78638","99.8","1016.9333333333334","5.966666666666666","19.066666666666666","10.89","2025-04-28 01:00:00.0"
"SZKO?A PODSTAWOWA NR 2 IM. STEFANA STARZY?SKIEGO W NASIELSKU","KO?CIUSZKI","05-190","NASIELSK","20.801001","52.589717","90.39999999999999","1018.6999999999999","3.1","44.4","27.906666666666666","2025-04-28 01:00:00.0"
"ZESP?? SZKOLNO-PRZEDSZKOLNY W KAZUNIU NOWYM","G??WNA","05-152","KAZU? NOWY","20.68265","52.419853","81.83333333333333","1029.2","4.266666666666667","19.333333333333332","10.753333333333332","2025-04-28 01:00:00.0"
"SZKO?A PODSTAWOWA IM. MIKO?AJA KOPERNIKA W CIEKSYNIE","MARSZ. J?ZEFA PI?SUDSKIEGO","05-192","CIEKSYN","20.666605","52.572132","66.26","1019.2400000000001","7.599999999999999","69.42","40.92","2025-04-28 01:00:00.0"
"SZKO?A PODSTAWOWA NR 5 IM MIKO?AJA KOPERNIKA W CZECHOWICACH-DZIEDZICACH","KLASZTORNA","43-502","CZECHOWICE-DZIEDZICE","19.003326","49.908154","29.8","997.7000000000002","31.8","23.0","11.76","2025-04-28 01:00:00.0"
"SZKO?A PODSTAWOWA IM. KS. J?ZEFA LONDZINA W ZABRZEGU","KAROLA PYTLA","43-516","ZABRZEG","18.9401","49.91564","96.96666666666665","988.3000000000001","-0.7000000000000001","10.333333333333334","5.319999999999999","2025-04-28 01:00:00.0"
"GMINNE PRZEDSZKOLE W NOWEJ WSI","UL. G??WNA","05-806","NOWA WIE?","20.793608032839607","52.14079879793492","72.43333333333334","1024.3333333333333","4.233333333333333","9.200000000000001","5.093333333333334","2025-04-28 01:00:00.0"
"SZKO?A PODSTAWOWA IM. JANA PAW?A II W MICHA?OWICACH","UL. SZKOLNA","05-816","MICHA?OWICE","20.8894743996203","52.16806240949327","61.06666666666666","1022.2333333333332","5.666666666666667","4.6","2.5066666666666664","2025-04-28 01:00:00.0"
"SZKO?A PODSTAWOWA IM. MARII D?BROWSKIEJ W KOMOROWIE","UL. M. D?BROWSKIEJ","05-806","KOMOR?W","20.814969926602924","52.14696671968943","74.39999999999999","1022.5666666666666","6.566666666666666","16.2","8.243333333333334","2025-04-28 01:00:00.0"
"SZKO?A PODSTAWOWA IM. MIKO?AJA KOPERNIKA W NOWEJ WSI","UL. G??WNA","05-806","NOWA WIE?","20.80065871311049","52.134787344746286","72.43333333333334","1024.3333333333333","4.233333333333333","9.200000000000001","5.093333333333334","2025-04-28 01:00:00.0"
"GMINNE PRZEDSZKOLE W MICHA?OWICACH","UL. SZKOLNA","05-816","MICHA?OWICE","20.8908240883606","52.16924425690457","61.06666666666666","1022.2333333333332","5.666666666666667","4.6","2.5066666666666664","2025-04-28 01:00:00.0"
"ZESP?? SZKOLNO-PRZEDSZKOLNY W SMO?DZINIE","BOHATER?W WARSZAWY","76-214","SMO?DZINO","17.217509899999996","54.66198055959346","99.90000000000002","1029.7","6.0","4.633333333333334","2.9933333333333336","2025-04-28 01:00:00.0"
"ZESP?? SZKOLNO- PRZEDSZKOLNY W?DOBRZYKOWICACH","UL. SUKCESU","55-002","DOBRZYKOWICE","17.185415","51.092059","96.63333333333333","1004.9333333333334","5.566666666666666","34.800000000000004","20.11","2025-04-28 01:00:00.0"
"SZKO?A PODSTAWOWA IM. PIAST?W ?L?SKICH W CHRZ?STAWIE WIELKIEJ","UL. WROC?AWSKA","55-003","CZERNICA","17.292154","51.092542","75.10000000000001","1011.5333333333333","3.1666666666666665","5.3","2.7566666666666664","2025-04-28 01:00:00.0"
"ZESP?? SZKOLNO-PRZEDSZKOLNY IM. PAPIE?A JANA PAW?A II W CZERNICY","UL. ?W. BRATA ALBERTA ADAMA CHMIELOWSKIEGO?","55-003","CZERNICA","17.248533"," 51.0473805","74.73333333333333","1020.3666666666667","3.4","9.666666666666666","5.776666666666666","2025-04-28 01:00:00.0"
"SZKO?A PODSTAWOWA IM. JANUSZA KORCZAKA W RATOWICACH","UL. WROC?AWSKA","55-003","CZERNICA","17.266850"," 51.033897","71.86666666666667","1001.3666666666667","5.3999999999999995","15.533333333333333","8.67","2025-04-28 01:00:00.0"
"SZKO?A PODSTAWOWA IM. BOLES?AW KRZYWOUSTEGO W KAMIE?CU WROC?AWSKIM","UL. KOLEJOWA","55-002","KAMIENIEC WROC?AWSKI","17.173628"," 51.077638","90.03333333333335","1004.4666666666667","5.766666666666667","18.733333333333334","10.59","2025-04-28 01:00:00.0"
"SZKO?A PODSTAWOWA NR 4 IM. JANA MEJSTERA W S?OMCZYNIE","WILANOWSKA","05-520","KONSTANCIN-JEZIORNA","21.15329336951058","52.060898677662806","57.70000000000001","1008.0","5.900000000000001","5.599999999999999","3.43","2025-04-28 01:00:00.0"
"PUBLICZNA SZKO?A PODSTAWOWA W TOMASZOWIE","LE?NA","68-114","TOMASZ?W","15.404658513741197","51.622513710796575","37.699999999999996","1007.5333333333333","8.766666666666667","7.133333333333333","4.113333333333333","2025-04-28 01:00:00.0"
"SZKO?A PODSTAWOWA NR 29 W LUBLINIE","WAJDELOTY","20-604","LUBLIN","22.5237824136724","51.2433286093504","49.85","1005.0","7.075","19.583333333333332","14.0","2025-04-28 01:00:00.0"
"SZKO?A PODSTAWOWA W SZKODNEJ","","39-126","SZKODNA","21.6475593266686","49.9841839576423","78.25","989.8416666666667","3.125","5.341666666666666","5.2749999999999995","2025-04-28 01:00:00.0"
"SZKO?A PODSTAWOWA IM. MARII KONOPNICKIEJ W BUDACH G?OGOWSKICH","BUDY G?OGOWSKIE","36-060","BUDY G?OGOWSKIE","21.9052064322315","50.1600258408686","50.94166666666666","1000.75","6.375","5.583333333333333","5.416666666666667","2025-04-28 01:00:00.0"
"SZKO?A PODSTAWOWA W KL?CZANACH","B?DZIEMY?L, KLECZANY","39-127","KL?CZANY","21.7805870168847","50.0725485846066","61.6","1002.0","1.7250000000000003","33.75","23.416666666666668","2025-04-28 01:00:00.0"
"SZKO?A PODSTAWOWA IM. ?W. JADWIGI KR?LOWEJ W SIETESZY","SIETESZ","37-206","SIETESZ","22.3548248494236","49.9901875306008","47.06666666666666","997.0","6.266666666666667","13.5","10.416666666666666","2025-04-28 01:00:00.0"
"PUBLICZNA SZKO?A PODSTAWOWA W BACH?RCU","BACH?RZEC","37-750","BACH?RZEC","22.334908846237","49.82477572297","68.97500000000001","999.0","1.5250000000000001","9.666666666666666","7.833333333333333","2025-04-28 01:00:00.0"
"SZKO?A PODSTAWOWA NR 3 IM. JANA PAW?A II W ROPCZYCACH","3 MAJA","39-100","ROPCZYCE","21.5832672438671","50.0389694490123","62.275000000000006","1003.0","1.625","13.0","10.75","2025-04-28 01:00:00.0"
"SZKO?A PODSTAWOWA NR 10 IM. OR?A BIA?EGO W SOSNOWCU","REYMONTA","41-200","SOSNOWIEC","19.1269172651723","50.2878010895257","45.90833333333333","996.0833333333334","8.083333333333334","7.833333333333333","7.083333333333333","2025-04-28 01:00:00.0"
"SZKO?A PODSTAWOWA NR 89 IM. KORNELA MAKUSZY?SKIEGO W KRAKOWIE","OS. PIAST?W","31-624","KRAK?W","20.0188257572655","50.1000269916206","52.48333333333333","999.0","6.833333333333333","5.833333333333333","4.916666666666667","2025-04-28 01:00:00.0"
"SZKO?A PODSTAWOWA NR 2 IM. B?. JANA PAW?A II W LIBI??U","PLAC ZWYCI?STWA","32-590","LIBI??","19.3064540609702","50.0995764389139","48.54","994.0","7.0","3.4","2.8","2025-04-28 01:00:00.0"
"SZKO?A PODSTAWOWA NR 2  IM. KAZIMIERZA BRODZI?SKIEGO W BOCHNI","ORACKA","32-700","BOCHNIA","20.4250867479996","49.9702658831946","75.2","996.0","7.7","24.0","18.0","2025-04-28 01:00:00.0"
"SZKO?A PODSTAWOWA NR 1 IM. W?ADYS?AWA JAGIE??Y W OSIEKU","G??WNA","32-608","OSIEK","19.2631410879493","49.9511789367323","60.60833333333333","998.0","5.283333333333334","7.166666666666667","5.166666666666667","2025-04-28 01:00:00.0"
"SZKO?A PODSTAWOWA IM. KAZIMIERZA G?RSKIEGO W ?OZINIE","MILICKA","55-095","?OZINA","17.180298682797538","51.23388117656271","85.16666666666667","1010.5","5.833333333333333","22.166666666666668","12.243333333333334","2025-04-28 01:00:00.0"
"PRZEDSZKOLE W KIE?CZOWIE","WROC?AWSKA","55-093","KIE?CZ?W","17.19065006929958","51.1371047031024","91.86666666666667","1008.7333333333332","4.866666666666667","18.733333333333334","10.466666666666667","2025-04-28 01:00:00.0"
"SZKO?A PODSTAWOWA W LISZYNIE","UL. WAWRZY?CA SIKORY","09-408","LISZYNO","19.817459454245913","52.49033616836436","82.51","1015.35","6.61","71.98","43.72","2025-04-28 01:00:00.0"
"PRZEDSZKOLE W BLIZNEM JASI?SKIEGO","UL. TADEUSZA KO?CIUSZKI","05-082","BLIZNE JASI?SKIEGO","20.881159640505192","52.2438730196329","69.86666666666666","1024.7333333333333","6.233333333333333","21.53333333333333","10.39","2025-04-28 01:00:00.0"
"ZESP?? SZK?? W PRUDNIKU","UL. D?BROWSKIEGO","48-200","PRUDNIK","17.571637628835184","50.32109542835716","77.93333333333334","999.6666666666666","9.0","6.3999999999999995","3.8333333333333335","2025-04-28 01:00:00.0"
"PRZEDSZKOLE ,,MI? USZATEK"" W OSTROROGU","UL. WRONIECKA","64-560","OSTROR?G","16.446531842328756","52.62862454862175","99.90000000000002","1017.9333333333334","3.8333333333333335","16.966666666666665","11.256666666666668","2025-04-28 01:00:00.0"
"SZKO?A PODSTAWOWA NR 2 IM. GUSTAWA MORCINKA W TOSZKU","UL. WILKOWICKA","44-180","TOSZEK","18.527405971163624","50.454108128948924","67.8","1002.2333333333332","7.066666666666666","20.266666666666666","12.303333333333333","2025-04-28 01:00:00.0"
"SZKO?A PODSTAWOWA IM. KAWALER?W ORDERU U?MIECHU W CZERSKU","UL. WARSZAWSKA","05-530","CZERSK","21.227091274384716","51.96063591615556 ","62.21","1013.22","6.75","16.22","16.03","2025-04-28 01:00:00.0"
"PUBLICZNA SZKO?A PODSTAWOWA IM. JANA PAW?A II W ROSZOWICKIM LESIE","UL. SZKOLNA","47-253","ROSZOWICKI LAS","18.21990066","50.26168468","66.16666666666667","1004.1666666666666","5.6499999999999995","24.208333333333332","18.025000000000002","2025-04-28 01:00:00.0"
"SZKO?A PODSTAWOWA IM. KS. JANA TWARDOWSKIEGO W RACIMIERZU","UL. NIEPODLEG?O?CI","72-111","RACIMIERZ","14.65747308","53.7423708","53.91818181818182","1024.6636363636362","7.372727272727272","5.7","4.763636363636364","2025-04-28 01:00:00.0"
"I KATOLICKIE SPO?ECZNE LICEUM OG?LNOKSZTA?CACE IM.?W.BRATA ALBERTA CHMIELOWSKIEGO W PU?AWACH","UL. STANIS?AWA EUSTACHIEWICZA","24-100","PU?AWY","21.95614207","51.41935824","70.19166666666666","1011.0916666666667","6.216666666666666","11.416666666666666","11.333333333333334","2025-04-28 01:00:00.0"
"TECHNIKUM NR 4 W ZESPOLE SZK?? TECHNICZNYCH IM.M. SK?ODOWSKIEJ-CURIE W PU?AWACH","UL. WOJSKA POLSKIEGO","24-100","PU?AWY","21.97667461","51.41823622","68.27499999999999","1010.3249999999999","6.141666666666667","29.733333333333334","23.53333333333333","2025-04-28 01:00:00.0"
"SZKO?A PODSTAWOWA NR 2 IM. KRZYSZTOFA KAMILA BACZY?SKIEGO W PU?AWACH","AL. MA?A","24-100","PU?AWY","21.96276919","51.41579363","70.49166666666666","1010.3416666666667","6.733333333333333","18.691666666666666","15.049999999999999","2025-04-28 01:00:00.0"
"SZKO?A PODSTAWOWA IM. HANSA CHRISTIANA ANDERSENA W JAWIDZU","","21-077","JAWIDZ","22.72203892","51.3706852","71.71666666666667","1012.4416666666666","3.9499999999999997","18.891666666666666","16.925","2025-04-28 01:00:00.0"
"SZKO?A PODSTAWOWA NR 4 IM. PAPIE?A JANA PAW?A II W ??CZNEJ","UL. JA?MINOWA","21-010","??CZNA","22.88259013","51.29206273","78.15","1007.45","4.0249999999999995","19.825","17.0625","2025-04-28 01:00:00.0"
"SZKO?A PODSTAWOWA IM.JOACHIMA LELEWELA W JAKUBOWICACH KONI?SKICH","UL. SZKOLNA","21-003","JAKUBOWICE KONI?SKIE","22.52628594","51.31010447","76.25","1004.9499999999999","3.8083333333333336","16.275000000000002","14.775","2025-04-28 01:00:00.0"
"SZKO?A PODSTAWOWA W K?ODNICY DOLNEJ","","24-224","K?ODNICA DOLNA","22.28477957","51.06632652","87.0","1003.1","3.483333333333333","32.708333333333336","24.983333333333334","2025-04-28 01:00:00.0"
"SZKO?A PODSTAWOWA NR 6 IM. IRENY SENDLEROWEJ W CHE?MIE","UL. POWSTA?C?W WARSZAWY","22-100","CHE?M","23.479142939944662","51.126339150220325 ","73.95833333333333","1002.9083333333333","5.041666666666667","27.59166666666667","22.5","2025-04-28 01:00:00.0"
"SZKO?A PODSTAWOWA NR 4 IM. KORNELA MAKUSZY?SKIEGO W BIA?EJ PODLASKIEJ","UL. STANIS?AWA MONIUSZKI","21-500","BIA?A PODLASKA","23.1240646","52.03658476","64.24166666666666","1009.9583333333334","5.458333333333333","142.26666666666668","113.34166666666665","2025-04-28 01:00:00.0"
"SZKO?A PODSTAWOWA IM.KSI?DZA JANA TWARDOWSKIEGO W CZACH?WKU","UL. G??WNA","05-530","CZACH?WEK","21.0884246","51.96101922","78.34166666666667","1015.0333333333333","1.7249999999999999","44.15833333333333","36.875","2025-04-28 01:00:00.0"
"SZKO?A PODSTAWOWA IM. KARDYNA?A STEFANA WYSZY?SKIEGO W DOBIESZU","UL. WOLSKA","05-530","DOBIESZ","21.10090802","51.99418033","74.96363636363637","1014.1272727272727","3.1181818181818177","67.34545454545454","55.18181818181818","2025-04-28 01:00:00.0"
"LICEUM OG?LNOKSZTA?C?CE W LIPSKU","UL. ZWOLE?SKA","27-300","LIPSKO","21.65162688","51.16209825","74.225","1007.025","5.0125","24.875","20.0875","2025-04-28 01:00:00.0"
"TECHNIKUM NR 2 W GARWOLINIE","UL. ?O?NIERZY II ARMII WOJSKA POLSKIEGO","08-400","GARWOLIN","21.5953052","51.89704263","64.55833333333334","1011.9416666666666","5.366666666666667","40.425000000000004","32.708333333333336","2025-04-28 01:00:00.0"
"PUBLICZNA SZKO?A PODSTAWOWA IM. O. STANIS?AWA PAPCZY?SKIEGO W MARIA?SKIM PORZECZU","","08-470","MARIA?SKIE PORZECZE","21.33261521","51.88402213","67.175","1015.3583333333332","2.625","22.150000000000002","18.883333333333333","2025-04-28 01:00:00.0"
"SZKO?A MUZYCZNA I ST. W GARWOLINIE","UL. JANA PAW?A II","08-400","GARWOLIN","21.61280145","51.89874672","62.7","1011.6","5.7","44.7","36.1","2025-04-28 01:00:00.0"
"SZKO?A PODSTAWOWA NR 2 W KONSTANCINIE-JEZIORNEJ","UL. STEFANA ?EROMSKIEGO","05-510","KONSTANCIN-JEZIORNA","21.12317779","52.07946519","71.84166666666667","1015.6666666666666","3.8166666666666664","17.216666666666665","14.799999999999999","2025-04-28 01:00:00.0"
"TECHNIKUM NR 2 IM. EMILII PLATER W PIASECZNIE","UL. ALEJA BRZ?Z","05-501","PIASECZNO","21.02070292","52.0540252","78.27499999999999","1016.125","4.2","37.49166666666667","32.84166666666666","2025-04-28 01:00:00.0"
"PUBLICZNA SZKO?A PODSTAWOWA IM.KORNELA MAKUSZY?SKIEGO W UGNIEWIE","UL. SZKOLNA","07-300","UGNIEWO","21.91017286","52.8032487","78.67999999999999","1012.8","1.1800000000000002","24.46","24.2","2025-04-28 01:00:00.0"
"SZKO?A PODSTAWOWA NR 2 IM. FRYDERYKA CHOPINA W MALKINI G?RNEJ","UL. LE?NA","07-320","MA?KINIA G?RNA","22.05928062","52.6945031","74.68333333333334","1015.7416666666667","3.891666666666667","61.11666666666667","59.26666666666667","2025-04-28 01:00:00.0"
"SZKO?A PODSTAWOWA IM. B?OGOS?AWIONEGO OJCA STANIS?AWA PAPCZY?SKIEGO W K?TACH","UL. PU?AWSKA","05-532","K?TY","21.17263735","52.00208981","74.35000000000001","1013.5749999999999","3.108333333333333","33.9","29.583333333333332","2025-04-28 01:00:00.0"
"SZKO?A PODSTAWOWA NR 3 IM. ADAMA MICKIEWICZA W OSTRO??CE","UL. IGNACEGO JERZEGO SKOWRO?SKIEGO","07-417","OSTRO??KA","21.60307406","53.05404225","69.03333333333333","1014.4","3.7416666666666667","56.1","48.28333333333333","2025-04-28 01:00:00.0"
"TECHNIKUM GASTRONOMICZNE W GDYNI","UL. MORSKA","81-222","GDYNIA","18.51581066","54.52508818","70.64166666666667","1025.5166666666667","4.833333333333333","2.2666666666666666","2.0","2025-04-28 01:00:00.0"
"SZKO?A PODSTAWOWA W Z?OTOK?OSIE","UL. TRAUGUTTA","05-504","Z?OTOK?OS","20.90784407","52.00962311","82.05454545454546","1014.0909090909091","2.036363636363636","36.0","30.4","2025-04-28 01:00:00.0"
"SZKO?A PODSTAWOWA IM. FELIKSA KAPACKIEGO W CENDROWICACH","UL. SZKOLNA","05-530","CENDROWICE","21.13239127","51.96755856","66.5","1011.5500000000001","4.433333333333334","14.508333333333333","12.475","2025-04-28 01:00:00.0"
"II LICEUM OG?LNOKSZTA?C?CE IM. EMILII PLATER W BIA?EJ PODLASKIEJ","UL. GABRIELA NARUTOWICZA","21-500","BIA?A PODLASKA","23.1217813","52.03188711","69.89166666666667","1012.7416666666667","3.9166666666666665","70.25","55.38333333333333","2025-04-28 01:00:00.0"
"SZKO?A PODSTAWOWA W BIA?USNYM LASKU","","07-430","BIA?USNY LASEK","21.30430342","53.35698702","67.75","1012.6833333333334","1.9166666666666667","14.9","12.083333333333334","2025-04-28 01:00:00.0"
"SZKO?A PODSTAWOWA IM. KS. JANA TWARDOWSKIEGO W GLINIE","","07-320","GLINA","21.95984362","52.6962338","72.75","1013.7166666666667","2.5333333333333337","12.758333333333333","12.583333333333334","2025-04-28 01:00:00.0"
"PUBLICZNE TECHNIKUM LE?NE ZESPO?U SZK?? W TU?OWICACH","UL. ZAMKOWA","49-130","TU?OWICE","17.65698382","50.59142765","77.18333333333334","1006.9","6.033333333333334","22.758333333333336","19.224999999999998","2025-04-28 01:00:00.0"
"SZKO?A PODSTAWOWA NR 1 IM.KAROLA MIARKI W RYDU?TOWACH","UL. ?W. MAKSYMILIANA KOLBE","44-280","RYDU?TOWY","18.41959735","50.05843382","53.510000000000005","994.25","8.78","29.01","23.34","2025-04-28 01:00:00.0"
"SZKO?A PODSTAWOWA ZESPO?U SZK?? IM. BOLES?AWA CHROBREGO W NIEMODLINIE","UL. OPOLSKA ","49-100","NIEMODLIN","17.63285173","50.64185007","74.65833333333333","1007.9","6.516666666666667","10.700000000000001","9.466666666666667","2025-04-28 01:00:00.0"
"TECHNIKUM W RYDU?TOWACH","UL. OBYWATELSKA","44-280","RYDU?TOWY","18.42658537","50.07171957","49.416666666666664","989.5416666666666","8.466666666666667","12.174999999999999","10.4","2025-04-28 01:00:00.0"
"SZKO?A PODSTAWOWA IM.KARDYNA?A STEFANA WYSZY?SKIEGO W TELATYNIE","UL. KARDYNA?A STEFANA WYSZY?SKIEGO","22-652","TELATYN","23.8446095","50.52250671","74.7","1000.0363636363636","3.2181818181818183","16.572727272727274","14.227272727272727","2025-04-28 01:00:00.0"
"TECHNIKUM NR 1 W ?WIDNIKU","UL. SZKOLNA","21-045","?WIDNIK","22.69752657","51.22672919","63.550000000000004","1002.1333333333333","6.316666666666666","16.141666666666666","14.391666666666666","2025-04-28 01:00:00.0"
"I LICEUM OG?LNOKSZTA?C?CE IM. STEFANA CZARNIECKIEGO W CHE?MIE","UL. STEFANA CZARNIECKIEGO","22-100","CHE?M","23.477739357670377","51.134834775533534","70.175","1004.3499999999999","6.641666666666667","71.97500000000001","58.50833333333333","2025-04-28 01:00:00.0"
"SZKO?A PODSTAWOWA W O?DAKACH","","07-411","O?DAKI","21.692978","53.095518","76.1","1016.5","2.6","22.8","17.9","2025-04-28 01:00:00.0"
"SZKO?A PODSTAWOWA IM.J.WYBICKIEGO W POLNICY","","77-300","POLNICA","17.40057712","53.75198216","65.95833333333333","1010.9499999999999","4.391666666666667","23.766666666666666","20.191666666666666","2025-04-28 01:00:00.0"
"SZKO?A PODSTAWOWA W RAJKOWACH W ZESPOLE KSZTA?CENIA I WYCHOWANIA W RAJKOWACH","UL. JESIONOWA","83-130","RAJKOWY","18.7092112","53.9610738","69.10000000000001","1020.8833333333333","3.1666666666666665","9.066666666666666","7.8999999999999995","2025-04-28 01:00:00.0"
"LICEUM OG?LNOKSZTA?C?CE W REDZIE","UL. ??KOWA","84-240","REDA","18.3577379","54.60185","72.68181818181819","1026.6000000000001","3.227272727272727","26.2","23.336363636363636","2025-04-28 01:00:00.0"
"SZKO?A PODSTAWOWA IM. MARYNARKI WOJENNEJ RP W OSTASZEWIE","UL. KO?CIUSZKI","82-112","OSTASZEWO","18.9507202","54.2131383","63.93333333333334","1027.6","5.633333333333333","39.6","33.71666666666667","2025-04-28 01:00:00.0"
"TECHNIKUM NR 2 W BYTOWIE","UL. HIERONIMA DERDOWSKIEGO","77-100","BYT?W","17.48812443","54.16585829","53.93333333333334","1011.7166666666667","5.733333333333333","5.008333333333334","4.416666666666667","2025-04-28 01:00:00.0"
"SZKO?A PODSTAWOWA W ZIELINIE","UL. PRUDNICKA","47-370","ZIELINA","17.7989291","50.4408404","65.325","1003.5749999999999","7.266666666666667","28.191666666666666","23.474999999999998","2025-04-28 01:00:00.0"
"SZKO?A PODSTAWOWA STOWARZYSZENIA ""Z?OTY POTOK"" W ??CE PRUDNICKIEJ","UL. G?UCHO?ASKA","48-200","??KA PRUDNICKA","17.528406","50.313494","69.89166666666667","991.5916666666667","6.416666666666667","26.125","21.78333333333333","2025-04-28 01:00:00.0"
"SZKO?A PODSTAWOWA W ?UBNIE","","77-140","?UBNO","17.22653098","54.15365707","66.7","1010.0749999999999","3.4","2.85","2.3666666666666667","2025-04-28 01:00:00.0"
"PUBLICZNA SZKO?A PODSTAWOWA IM. EDMUNDA DYWELSKIEGO W ZBLEWIE","UL. KASZTELA?SKA","83-210","BYTONIA","18.28590547","53.9203933","71.80833333333334","1011.8166666666666","3.0500000000000003","28.433333333333334","24.400000000000002","2025-04-28 01:00:00.0"
"LICEUM OG?LNOKSZTA?C?CE W CZ?UCHOWIE","UL. JANUSZA KUSOCI?SKIEGO","77-300","CZ?UCH?W","17.36617595","53.66292375","50.09166666666667","1007.8666666666667","6.516666666666667","3.75","3.1999999999999997","2025-04-28 01:00:00.0"
"SZKO?A PODSTAWOWA NR 3 IM. MARII KONOPNICKIEJ W BIA?EJ PODLASKIEJ","UL. SPORTOWA","21-500","BIA?A PODLASKA","23.119378","52.022177","68.45833333333333","1009.7666666666668","4.033333333333333","95.71666666666665","94.25833333333333","2025-04-28 01:00:00.0"
"PUBLICZNA SZKO?A PODSTAWOWA IM. KSI?DZA JANA TWARDOWSKIEGO W JANUSZKOWICACH","UL. LESIA?SKA","47-330","JANUSZKOWICE","18.1356599","50.3898439","62.475","1004.7375","6.5125","14.8875","12.625","2025-04-28 01:00:00.0"
"SZKO?A PODSTAWOWA IM. MARII SK?ODOWSKIEJ-CURIE W ALWERNI","UL. MARII SK?ODOWSKIEJ-CURIE","32-566","ALWERNIA","19.542471211821844","50.06505227372774","51.00833333333333","989.4916666666667","8.183333333333334","5.733333333333333","4.908333333333333","2025-04-28 01:00:00.0"
"SZKO?A PODSTAWOWA IM. MIKO?AJA KOPERNIKA W BALINIE","UL. JAWORZNICKA","32-500","BALIN","19.373681797572548","50.171073102747464 ","63.875","988.475","6.1625","29.2875","24.95","2025-04-28 01:00:00.0"
"TECHNIKUM NR 2 IM. BOHATER?W WESTERPLATTE W KLUCZBORKU","UL. BYCZY?SKA","46-200","KLUCZBORK","18.20597356","50.97669665","56.88333333333333","1003.6666666666666","7.391666666666667","13.141666666666666","13.025","2025-04-28 01:00:00.0"
"PUBLICZNA SZKO?A PODSTAWOWA IM.HALINY SEMENOWICZ W MOSZCZANCE","","48-200","MOSZCZANKA","17.483901","50.295686","77.41666666666667","988.5833333333334","4.616666666666666","9.491666666666667","9.450000000000001","2025-04-28 01:00:00.0"
"BRAN?OWA SZKO?A I STOPNIA W ?ASKARZEWIE","UL. KOLEJOWA","08-450","?ASKARZEW","21.599958","51.788404","78.1","1010.3","2.9","32.8","26.5","2025-04-28 01:00:00.0"
"SZKO?A PODSTAWOWA IM.?WIRKI I WIGURY W RADOCZY","UL. D?BOWA","34-100","RADOCZA","19.4703966","49.9176909","69.71666666666667","992.2999999999998","6.216666666666666","12.366666666666667","9.966666666666667","2025-04-28 01:00:00.0"
"SZKO?A PODSTAWOWA NR 5 IM. MARII KONOPNICKIEJ W CHE?MIE","UL. I PU?KU SZWOLE?ER?W","22-100","CHE?M","23.481093","51.134591","65.48333333333333","1003.7083333333334","6.633333333333333","34.074999999999996","28.275000000000002","2025-04-28 01:00:00.0"
"LICEUM OG?LNOKSZTA?C?CE IM. KS. J. ST. PASIERBA W PELPLINIE","UL. SAMBORA","83-130","PELPLIN","18.6979422","53.9283135","71.65","1022.375","3.3375","17.675","15.7375","2025-04-28 01:00:00.0"
"TECHNIKUM W G?OG?WKU","UL. POWSTA?C?W","48-250","G?OG?WEK","17.86435","50.35349","57.699999999999996","1000.8833333333333","8.908333333333333","17.75","14.608333333333334","2025-04-28 01:00:00.0"
"SZKO?A PODSTAWOWA NR 2 IM. KS. STANIS?AWA STASZICA W CHE?MIE","UL. OB?O?SKA","22-100","CHE?M","23.47575683","51.13815167","73.88333333333334","1004.8333333333334","4.858333333333333","119.60833333333333","83.925","2025-04-28 01:00:00.0"
"SZKO?A PODSTAWOWA NR 8 IM. BOLES?AWA ZYGMUNTA WIRSKIEGO W CHE?MIE","UL. PO?ANIECKA","22-100","CHE?M","23.477306","51.123224","72.52499999999999","1003.1416666666668","6.191666666666666","36.333333333333336","30.349999999999998","2025-04-28 01:00:00.0"
"PUBLICZNA SZKO?A PODSTAWOWA W DZIEP??CI","","97-500","DZIEP???","19.5287876","51.0531482","59.06363636363637","994.9909090909091","7.036363636363637","13.681818181818182","10.799999999999999","2025-04-28 01:00:00.0"
"SZKO?A PODSTAWOWA NR 10 Z ODDZIA?AMI INTEGRACYJNYMI IM. WALERIANA ?UKASI?SKIEGO W ZAMO?CIU","UL. PEOWIAK?W","22-400","ZAMO??","23.256959617892495","50.72103172968299 ","79.2","1000.75","4.5625","32.125","27.0625","2025-04-28 01:00:00.0"
"ZESP?? SZK?? GMINNYCH IM. HENRYKA SIENKIEWICZA W BOGUCICACH SZKO?A PODSTAWOWA W BOGUCICACH","","32-711","BOGUCICE","20.498337","50.057389","75.15833333333333","1005.5416666666666","4.875","5.733333333333333","4.866666666666666","2025-04-28 01:00:00.0"
"PUBLICZNA SZKO?A PODSTAWOWA W NIEDZIELISKACH","","32-820","NIEDZIELISKA","20.632091271164818","50.09115399071606","69.64166666666667","1004.025","4.75","7.55","6.633333333333333","2025-04-28 01:00:00.0"
"PUBLICZNA SZKO?A PODSTAWOWA IM. KAZIMIERZA RAS?AWSKIEGO W BORZECHOWIE ","","24-224","BORZECH?W-KOLONIA","22.2853918","51.09246552","78.08333333333333","1002.5583333333334","4.216666666666666","8.166666666666666","6.958333333333333","2025-04-28 01:00:00.0"
"SZKO?A PODSTAWOWA NR 117 IM. KRAKOWSKIEJ KONGREGACJI KUPIECKIEJ W KRAKOWIE","UL. JANA KURCZABA","30-868","KRAK?W-PODG?RZE","20.006872057670375","50.01317838097981","70.69166666666668","1000.7999999999998","6.258333333333334","9.758333333333333","9.533333333333333","2025-04-28 01:00:00.0"
"VI LICEUM OG?LNOKSZTA?C?CE IM. HUGONA KO???TAJA W LUBLINIE","UL. ADAMA MICKIEWICZA","20-466","LUBLIN","22.577994","51.216809","99.7","1007.1333333333333","5.575","43.025","39.56666666666667","2025-04-28 01:00:00.0"
"LICEUM OG?LNOKSZTA?C?CE IM. MIKO?AJA KOPERNIKA W NASIELSKU","UL. LIPOWA","05-190","NASIELSK","20.7955019","52.59533614","71.45","1015.9916666666667","4.408333333333333","22.925","18.883333333333333","2025-04-28 01:00:00.0"
"SZKO?A PODSTAWOWA IM. WINCENTEGO WITOSA W GROMNIKU","UL. WITOSA","33-180","GROMNIK","20.959304","49.840276","80.26666666666667","995.7000000000002","3.1666666666666665","14.966666666666667","12.9","2025-04-28 01:00:00.0"
"AKADEMIA NAJM?ODSZYCH KRZYSZTOF GO?A? NIEPUBLICZNA SZKO?A PODSTAWOWA W KADZIDLE","UL. BRZOZOWA","07-420","KADZID?O","21.450353","53.231522","59.083333333333336","1013.4416666666666","3.966666666666667","53.18333333333334","43.59166666666667","2025-04-28 01:00:00.0"
"SZKO?A PODSTAWOWA IM. ?W. STANIS?AWA KOSTKI W AMELINIE","","06-212","AMELIN","20.92818124","52.98166409","55.55833333333334","1013.9","4.433333333333334","7.633333333333334","6.516666666666667","2025-04-28 01:00:00.0"
"SZKO?A PODSTAWOWA SPECJALNA NR 44 IM. JANA BRZECHWY W KRAKOWIE","UL. ZAK?TEK","30-076","KRAK?W","19.916426","50.076299","57.68333333333334","1000.525","8.05","10.333333333333334","8.549999999999999","2025-04-28 01:00:00.0"
"SZKO?A PODSTAWOWA NR 1 IM. ?W. JADWIGI KR?LOWEJ W PODWILKU","","34-722","PODWILK","19.7397286","49.547978","75.84166666666667","945.375","1.8083333333333333","5.991666666666667","5.641666666666667","2025-04-28 01:00:00.0"
"LICEUM OG?LNOKSZTA?C?CE KADET?W RZECZYPOSPOLITEJ POLSKIEJ W LIPINACH","","26-425","LIPINY","20.511418","51.54591","74.54166666666667","1009.0916666666667","2.533333333333333","18.325","16.175","2025-04-28 01:00:00.0"
"SZKO?A PODSTAWOWA NR 12 IM. JANA PAW?A II W TOMASZOWIE MAZOWIECKIM","UL. WIEJSKA","97-200","TOMASZ?W MAZOWIECKI","20.0210344","51.5251204","58.65","1005.5","6.716666666666666","32.78333333333333","27.03333333333333","2025-04-28 01:00:00.0"
"SZKO?A PODSTAWOWA NR 1 W BIA?YM BORZE","UL. DWORCOWA","78-425","BIA?Y B?R","16.84535152","53.89895274","60.56666666666666","1005.1166666666667","4.3","4.791666666666667","4.033333333333333","2025-04-28 01:00:00.0"
"SZKO?A PODSTAWOWA IM.NOBLIST?W POLSKICH W SIEMY?LU","UL. SZKOLNA","78-123","SIEMY?L","15.53351351","54.02888072","68.21666666666667","1022.1666666666666","7.058333333333334","8.174999999999999","7.141666666666667","2025-04-28 01:00:00.0"
"SZKO?A PODSTAWOWA NR 1 IM. ADAMA MICKIEWICZA W PO?CZYNIE-ZDROJU","UL. GRUNWALDZKA","78-320","PO?CZYN-ZDR?J","16.095199000000004","53.767893339499636","65.63333333333334","1015.9250000000001","6.375","48.475","43.449999999999996","2025-04-28 01:00:00.0"
"ARCHIDIECEZJALNA SZKO?A MUZYCZNA II ST. IM. KS. KARD. FRANCISZKA MACHARSKIEGO W KRAKOWIE","UL. PROSTA","30-814","KRAK?W-PODG?RZE","19.988467","50.020869","48.010000000000005","999.26","11.25","9.870000000000001","8.18","2025-04-28 01:00:00.0"
"SZKO?A PODSTAWOWA Z ODDZIA?AMI INTEGRACYJNYMI NR 30 IM. KAZIMIERZA PU?ASKIEGO W KRAKOWIE","UL. KONFEDERACKA","30-306","KRAK?W-PODG?RZE","19.927626","50.048977","54.76666666666667","1001.2999999999998","9.174999999999999","13.283333333333333","10.700000000000001","2025-04-28 01:00:00.0"
"SPO?ECZNA SZKO?A PODSTAWOWA NR 2 SPO?ECZNEGO TOWARZYSTWA O?WIATOWEGO W TARNOWIE","UL. JANA MATEJKI","33-100","TARN?W","20.98127883","50.01473267","57.91428571428571","1002.157142857143","7.385714285714286","17.357142857142858","14.714285714285714","2025-04-28 01:00:00.0"
"XII LICEUM OG?LNOKSZTA?C?CE W ZESPOLE SZK?? MECHANICZNO-ELEKTRYCZNYCH W TARNOWIE","UL. J?ZEFA SZUJSKIEGO","33-100","TARN?W","20.975575","50.015268","55.925000000000004","1002.1999999999999","7.808333333333334","19.166666666666668","16.241666666666667","2025-04-28 01:00:00.0"
"TECHNIKUM NR 1 W ZESPOLE SZK?? TECHNICZNYCH IM.IGNACEGO MO?CICKIEGO W TARNOWIE","UL. EUGENIUSZA KWIATKOWSKIEGO","33-101","TARN?W","20.9172948","50.01387361","66.25","1002.75","6.358333333333333","17.541666666666668","15.108333333333334","2025-04-28 01:00:00.0"
"SZKO?A PODSTAWOWA IM. JANA TWARDOWSKIEGO W BAR?OMINIE","UL. SZKOLNA","84-242","BAR?OMINO","18.09937753","54.53266693","63.1","1013.9","4.9","6.3","5.4","2025-04-28 01:00:00.0"
"SZKO?A PODSTAWOWA W ZESPOLE SZK?? IM.M?CZENNIK?W MARSZU ?MIERCI KL STUTTHOF W GARCZEGORZU","","84-351","GARCZEGORZE","17.72784195","54.59420501","62.675000000000004","1020.1750000000001","4.516666666666667","10.975","9.358333333333333","2025-04-28 01:00:00.0"
"PUBLICZNA SZKO?A PODSTAWOWA NR 1 IM.BOHATER?W WESTERPLATTE W PRUDNIKU","UL. PODG?RNA","48-200","PRUDNIK","17.595989","50.32052","64.26363636363637","995.1090909090909","7.281818181818181","10.363636363636363","8.781818181818181","2025-04-28 01:00:00.0"
"ZESP?? SZK?? GMINNYCH IM. MIKO?AJA KOPERNIKA W GAW?OWIE SZKO?A PODSTAWOWA Z ODDZIA?AMI SPORTOWYMI W GAW?OWIE","","32-711","GAW??W","20.463199","50.026547","71.66666666666667","1003.225","5.366666666666667","7.608333333333333","6.841666666666666","2025-04-28 01:00:00.0"
"SZKO?A PODSTAWOWA SPECJALNA W GR?JCU","UL. POLNA","05-600","GR?JEC","20.863021","51.862928","68.76666666666667","1008.1833333333334","5.5249999999999995","35.40833333333333","29.016666666666666","2025-04-28 01:00:00.0"
"PUBLICZNA SZKO?A PODSTAWOWA W SUCHEJ","UL. SZLACHECKA","26-800","SUCHA","20.953664","51.617246","76.14999999999999","1011.25","1.8416666666666668","12.674999999999999","11.35","2025-04-28 01:00:00.0"
"TECHNIKUM W WARCE","UL. OBWODOWA","05-660","WARKA","21.182782","51.79066","68.125","1012.6916666666666","5.858333333333333","31.625","26.058333333333334","2025-04-28 01:00:00.0"
"SZKO?A PODSTAWOWA NR 4 W RYDU?TOWACH","UL. STRZELC?W BYTOMSKICH","44-280","RYDU?TOWY","18.417777","50.06633209","49.6","991.3249999999999","8.9","8.15","6.95","2025-04-28 01:00:00.0"
"PUBLICZNA SZKO?A PODSTAWOWA NR 1 IM. BOLES?AWA KRZYWOUSTEGO W KO?UCHOWIE","UL. CHOPINA","67-120","KO?UCH?W","15.5962077","51.7425702","59.21111111111111","1012.4555555555556","8.399999999999999","25.822222222222223","22.11111111111111","2025-04-28 01:00:00.0"
"PUBLICZNA SZKO?A PODSTAWOWA NR 1 IM. KOMISJI EDUKACJI NARODOWEJ W BIA?OBRZEGACH","UL. RZEMIE?LNICZA","26-800","BIA?OBRZEGI","20.9533613","51.64505952","61.38333333333333","1013.0416666666666","-40.0","14.816666666666668","13.924999999999999","2025-04-28 01:00:00.0"
"TECHNIKUM IM. ZES?A?C?W SYBIRU W BRODNICY","UL. KARBOWSKA","87-300","BRODNICA","19.4065091","53.2579165","66.40833333333333","1017.1416666666668","5.408333333333334","39.608333333333334","33.324999999999996","2025-04-28 01:00:00.0"
"PUBLICZNA SZKO?A PODSTAWOWA W GNIEWOSZOWIE","UL. KONOPNICKIEJ","26-920","GNIEWOSZ?W","21.8112","51.471874","81.3375","1011.2625","3.825","29.2375","23.450000000000003","2025-04-28 01:00:00.0"
"PUBLICZNA SZKO?A PODSTAWOWA W GOSZCZYNIE","UL. ARMII KRAJOWEJ","05-610","GOSZCZYN","20.85589777","51.73236675","73.85833333333333","1008.0666666666666","4.033333333333333","28.625","23.275000000000002","2025-04-28 01:00:00.0"
"LICEUM OG?LNOKSZTA?C?CE W TARCZYNIE","UL. KS. CZES?AWA OSZKIELA","05-555","TARCZYN","20.83477","51.98106","71.76666666666667","1010.4916666666667","5.408333333333334","25.166666666666668","21.641666666666666","2025-04-28 01:00:00.0"
"SZKO?A PODSTAWOWA IM. B?OGOS?AWIONEGO KS. JERZEGO POPIE?USZKI W NIECZAJNIE G?RNEJ","","33-205","NIECZAJNA G?RNA","21.052364","50.180347","77.09166666666667","1003.3000000000001","4.141666666666667","11.366666666666667","9.475","2025-04-28 01:00:00.0"
"SZKO?A PODSTAWOWA NR 86 IM. POWSTA?C?W ?L?SKICH W KRAKOWIE","OS. OSIEDLE JAGIELLO?SKIE","31-833","KRAK?W-NOWA HUTA","20.027067","50.084753","59.583333333333336","999.2916666666666","8.058333333333332","10.1","8.299999999999999","2025-04-28 01:00:00.0"
"SZKO?A PODSTAWOWA IM. BATALIONU ""BARBARA"" AK W PAW?ZOWIE","","33-103","PAW?Z?W","20.98588298","50.07066136","52.275","997.775","8.291666666666666","7.216666666666666","6.333333333333333","2025-04-28 01:00:00.0"
"PUBLICZNA SZKO?A PODSTAWOWA IM. JANA PAW?A II W RAJBROCIE","","32-725","RAJBROT","20.48706815","49.82154633","76.375","985.5749999999999","3.225","6.716666666666666","5.8","2025-04-28 01:00:00.0"
"SZKO?A PODSTAWOWA IM. POWSTA?C?W STYCZNIOWYCH W DALIKOWIE","UL. ??CZYCKA","99-205","DALIK?W","19.10104737","51.8835744","52.775","1009.0","7.016666666666667","12.075000000000001","10.091666666666667","2025-04-28 01:00:00.0"
"PUBLICZNA SZKO?A PODSTAWOWA W JAWORZU G?RNYM","","39-223","JAWORZE G?RNE","21.354123","49.94549","78.15833333333333","998.1750000000001","4.058333333333333","14.658333333333333","12.408333333333333","2025-04-28 01:00:00.0"
"SZKO?A PODSTAWOWA NR 234 IM. JULIANA TUWIMA W WARSZAWIE","UL. ESPERANTO","01-049","WARSZAWA","20.980951","52.244004","51.824999999999996","1013.5583333333334","8.941666666666666","9.458333333333334","9.316666666666666","2025-04-28 01:00:00.0"
"XI LICEUM OG?LNOKSZTA?C?CE IM. MIKO?AJA REJA W WARSZAWIE","PL. PLAC STANIS?AWA MA?ACHOWSKIEGO","00-063","WARSZAWA","21.01075177068874","52.238891020514885 ","42.38333333333333","1013.6416666666668","10.6","4.891666666666667","4.608333333333333","2025-04-28 01:00:00.0"
"SZKO?A PODSTAWOWA IM. ?W. JADWIGI KR?LOWEJ POLSKI W LISIEJ G?RZE","UL. SZKOLNA","33-140","LISIA G?RA","21.04434023989556","50.081408096695185 ","53.46666666666667","996.25","7.783333333333334","6.308333333333334","5.7","2025-04-28 01:00:00.0"
"SZKO?A PODSTAWOWA NR 89 IM. TADEUSZA MAZOWIECKIEGO W GDA?SKU","UL. SZYPR?W","80-335","GDA?SK","18.5764229","54.422398","76.14999999999999","1028.375","2.566666666666667","3.9250000000000003","3.15","2025-04-28 01:00:00.0"
"SZKO?A PODSTAWOWA NR 82 IM. PROF. JANA CZOCHRALSKIEGO W GDA?SKU","UL. RADAROWA","80-298","GDA?SK","18.4834117","54.3881906","68.31666666666666","1009.75","3.766666666666667","12.533333333333333","10.700000000000001","2025-04-28 01:00:00.0"
"SZKO?A TECHNICZNA BYDGOSKIEGO ZAK?ADU DOSKONALENIA ZAWODOWEGO W CHOJNICACH","UL. KO?CIERSKA","89-600","CHOJNICE","17.57105185","53.69729052","50.1","1006.0166666666668","6.075","5.816666666666666","5.166666666666667","2025-04-28 01:00:00.0"
"PRYWATNA SZKO?A PODSTAWOWA ""NAJA SZKO?A"" W WEJHEROWIE","UL. PRZEMYS?OWA","84-200","WEJHEROWO","18.21802095","54.61295281","75.30909090909091","1024.2636363636364","1.6181818181818182","12.009090909090908","10.609090909090908","2025-04-28 01:00:00.0"
"ZESP?? PLAC?WEK O?WIATOWYCH SZKO?A PODSTAWOWA IM. J?ZEFA BEMA W WOLI FILIPOWSKIEJ","UL. SZKOLNA","32-065","WOLA FILIPOWSKA","19.5849512","50.1324622","72.5","993.125","5.408333333333334","16.208333333333332","14.116666666666667","2025-04-28 01:00:00.0"
"SZKO?A PODSTAWOWA W NOWYCH ?UBKACH","","09-454","NOWE ?UBKI","20.0336032","52.5782308","69.60833333333333","1010.2083333333334","3.1833333333333336","17.291666666666668","12.649999999999999","2025-04-28 01:00:00.0"
"SZKO?A PODSTAWOWA IM. KPR. FELIKSA IGNACEGO GRABOWSKIEGO W ZESPOLE PLAC?WEK O?WIATOWYCH W BODZANOWIE","UL. WYSZOGRODZKA","09-470","CHODKOWO-DZIA?KI","20.0374191","52.4989335","0.0","990.0","0.5","133.1","117.15000000000002","2025-04-28 01:00:00.0"
"SZKO?A PODSTAWOWA NR 36 IM. JULIANA TUWIMA W ZABRZU","PL. PLAC WARSZAWSKI","41-800","ZABRZE","18.78893235","50.30422484","54.38333333333333","994.6166666666667","8.591666666666667","22.825","19.008333333333333","2025-04-28 01:00:00.0"
"III LICEUM OG?LNOKSZTA?C?CE Z ODDZIA?AMI DWUJ?ZYCZNYMI W ZABRZU","UL. HENRYKA SIENKIEWICZA","41-800","ZABRZE","18.7957049","50.29655227","49.075","992.3625","9.5","12.1625","10.0625","2025-04-28 01:00:00.0"
"SZKO?A PODSTAWOWA NR 48 W ZABRZU W CENTRUM KSZTA?CENIA OG?LNEGO I ZAWODOWEGO W ZABRZU","UL. ZWROTNICZA","41-807","ZABRZE","18.76624","50.343641","63.7","995.1500000000001","7.075","26.675","22.15","2025-04-28 01:00:00.0"
"BRAN?OWA SZKO?A I STOPNIA NR 6 W ZABRZU W ZABRZA?SKIM CENTRUM KSZTA?CENIA OG?LNEGO I ZAWODOWEGO W ZABRZU","UL. MARSZA?KA J?ZEFA PI?SUDSKIEGO","41-800","ZABRZE","18.76296398","50.29894695","49.958333333333336","996.1666666666666","9.35","14.133333333333333","11.416666666666666","2025-04-28 01:00:00.0"
"SZKO?A PODSTAWOWA NR 29 W ZABRZU","UL. BUDOWLANA","41-808","ZABRZE","18.791604","50.364381","57.40833333333333","992.4250000000001","8.008333333333333","14.108333333333334","11.716666666666667","2025-04-28 01:00:00.0"
"IV LICEUM OG?LNOKSZTA?C?CE IM. MIKO?AJA REJA W ZABRZU","UL. GEN. W?ADYS?AWA ANDERSA","41-808","ZABRZE","18.795194","50.369265","56.8875","992.3499999999999","7.95","14.375","11.875","2025-04-28 01:00:00.0"
"SZKO?A PODSTAWOWA NR 41 IM. W?ADYS?AWA BRONIEWSKIEGO W GLIWICACH","UL. KORMORAN?W","44-100","GLIWICE","18.6561","50.274791","65.08","995.74","6.26","24.619999999999997","20.4","2025-04-28 01:00:00.0"
"SZKO?A PODSTAWOWA NR 7 IM. ADAMA MICKIEWICZA W GLIWICACH","UL. TARNOG?RSKA","44-100","GLIWICE","18.684621","50.306626","53.38333333333333","995.6416666666668","8.75","22.491666666666664","18.408333333333335","2025-04-28 01:00:00.0"
"MIEJSKA SZKO?A PODSTAWOWA Z ODDZIA?AMI INTEGRACYJNYMI NR 2 IM. KAROLA MIARKI W KNUROWIE","UL. WILSONA","44-190","KNUR?W","18.664685","50.223275","58.425","996.4","7.625","22.9","18.975","2025-04-28 01:00:00.0"
"SZKO?A PODSTAWOWA IM. MARGARETHY KAMPRAD W JAROSTACH","UL. LE?NA","97-310","JAROSTY","19.68775849","51.45636536","68.375","1002.7416666666667","3.9166666666666665","11.6","11.533333333333333","2025-04-28 01:00:00.0"
"SZKO?A PODSTAWOWA IM. DR HENRYKA JORDANA W KSAWEROWIE","UL. ZACHODNIA","95-054","KSAWER?W","19.39486431","51.68227822","67.75","1003.4","5.9375","35.05","28.75","2025-04-28 01:00:00.0"
"BRAN?OWA SZKO?A I STOPNIA NR 1 W OPOCZNIE","UL. WOJCIECHA KOSSAKA","26-300","OPOCZNO","20.27237638","51.37764127","68.0375","1003.6375","5.1625","28.0375","22.8625","2025-04-28 01:00:00.0"
"SZKO?A PODSTAWOWA NR 157 IM. IGNACEGO JANA PADEREWSKIEGO W KRAKOWIE","UL. LUDWIKA RYDYGIERA","30-695","KRAK?W-PODG?RZE","20.00607","50.006338","59.26666666666667","997.2999999999998","8.825000000000001","9.533333333333333","7.841666666666666","2025-04-28 01:00:00.0"
"I LICEUM OG?LNOKSZTA?C?CE IM. J?DRZEJA ?NIADECKIEGO W PABIANICACH","UL. STANIS?AWA MONIUSZKI","95-200","PABIANICE","19.32977177","51.65677453","65.28333333333333","1002.8333333333334","5.7","38.28333333333333","31.016666666666666","2025-04-28 01:00:00.0"
"PUBLICZNA SZKO?A PODSTAWOWA W STOBIECKU SZLACHECKIM","","97-561","STOBIECKO SZLACHECKIE","19.38629184","51.10621326","59.475","998.5500000000001","6.25","11.549999999999999","11.333333333333334","2025-04-28 01:00:00.0"
"SZKO?A PODSTAWOWA IM. JANA PAW?A II W USTKOWIE","","98-290","USTK?W","18.600692","51.766123","55.45454545454545","1010.3","8.027272727272727","58.027272727272724","42.61818181818182","2025-04-28 01:00:00.0"
"SZKO?A PODSTAWOWA NR 60 IM. STANIS?AWA WYSPIA?SKIEGO W KRAKOWIE","UL. KAZIMIERZA ODNOWICIELA","31-481","KRAK?W-?R?DMIE?CIE","19.970521","50.088055","54.76666666666667","999.5500000000001","8.858333333333333","7.1000000000000005","6.0","2025-04-28 01:00:00.0"
"SZKO?A PODSTAWOWA IM. MARSZA?KA J?ZEFA PI?SUDSKIEGO W WARTKOWICACH","UL. LEGION?W POLSKICH","99-220","WARTKOWICE","19.00434298","51.97577194","70.64999999999999","1012.9416666666666","4.7749999999999995","29.400000000000002","24.366666666666664","2025-04-28 01:00:00.0"
"SZKO?A PODSTAWOWA NR 2 IM. KONSTYTUCJI 3-GO MAJA W M?CINIE","","34-654","M?CINA","20.5404381","49.7016283","62.23076923076923","968.3999999999999","4.976923076923077","116.43846153846154","80.13846153846154","2025-04-28 01:00:00.0"
"BRAN?OWA SZKO?A I STOPNIA NR 2 W GORLICACH","UL. J?ZEFA MICHALUSA","38-300","GORLICE","21.173963","49.66959","77.97272727272728","992.5636363636364","3.9909090909090907","5.790909090909091","5.0636363636363635","2025-04-28 01:00:00.0"
"SZKO?A PODSTAWOWA NR 2 IM HENRYKA SIENKIEWICZA W PRZYSZOWEJ","","34-604","PRZYSZOWA","20.4806341","49.6603381","83.03333333333333","970.0083333333333","2.1333333333333333","28.433333333333334","27.825","2025-04-28 01:00:00.0"
"SZKO?A PODSTAWOWA NR 1 Z ODDZIA?AMI INTEGRACYJNYMI W RACIBORZU","UL. CECYLII","47-400","RACIB?RZ","18.2321525","50.0999982","62.65","1002.8166666666666","7.5","15.183333333333332","12.783333333333333","2025-04-28 01:00:00.0"
"SZKO?A PODSTAWOWA IM. BOHATER?W WESTERPLATTE W BIE?KOWICACH","UL. SZKOLNA","47-451","BIE?KOWICE","18.2107215","50.0252972","54.583333333333336","999.7999999999998","8.6","15.25","12.866666666666667","2025-04-28 01:00:00.0"
"SZKO?A PODSTAWOWA IM. ?W. STANIS?AWA KOSTKI W NOWEJ WSI SZLACHECKIEJ","UL. SZKOLNA","32-060","NOWA WIE? SZLACHECKA","19.6970908","50.026212","61.51666666666667","995.3833333333333","6.641666666666667","10.725","9.841666666666667","2025-04-28 01:00:00.0"
"SZKO?A PODSTAWOWA NR 3 IM. MARII D?BROWSKIEJ W RESZLU","UL. MARII KONOPNICKIEJ","11-440","RESZEL","21.1486175","54.052554","71.70833333333333","1015.5916666666667","2.066666666666667","12.866666666666667","10.450000000000001","2025-04-28 01:00:00.0"
"SZKO?A PODSTAWOWA NR 1 IM. MIKO?AJA KOPERNIKA W W?GORZEWIE","UL. PIONIER?W","11-600","W?GORZEWO","21.7379192","54.2136049","62.275","1013.0666666666666","4.45","7.75","6.583333333333333","2025-04-28 01:00:00.0"
"ZESP?? SZK?? GMINNYCH IM. HENRYKA SIENKIEWICZA W STANIS?AWICACH SZKO?A PODSTAWOWA W STANIS?AWICACH","","32-015","STANIS?AWICE","20.350192","49.982029","77.075","1001.7916666666666","4.458333333333333","18.95","16.5","2025-04-28 01:00:00.0"
"TECHNIKUM NR 3 W ZESPOLE SZK?? NR 3 IM. KS. PROF. J?ZEFA TISCHNERA W BOCHNI","UL. KRAKOWSKA","32-700","BOCHNIA","20.421654","49.965508","68.3","999.1416666666668","5.941666666666666","9.174999999999999","7.683333333333334","2025-04-28 01:00:00.0"
"SZKO?A PODSTAWOWA NR 94 W ?ODZI","UL. ZACISZE","90-228","??D?-?R?DMIE?CIE","19.47642378","51.77789288","41.983333333333334","1000.3916666666665","9.516666666666667","9.4","7.866666666666667","2025-04-28 01:00:00.0"
"SZKO?A PODSTAWOWA NR 1 IM. STEFANA ?EROMSKIEGO W ?UROMINIE","UL. WYZWOLENIA","09-300","?UROMIN","19.911175","53.071036","56.583333333333336","1011.5666666666666","5.5","32.63333333333333","30.45","2025-04-28 01:00:00.0"
"TECHNIKUM IM. WINCENTEGO WITOSA W STUDZIE?CU","","09-200","STUDZIENIEC","19.640243","52.877888","75.01666666666667","1015.1416666666668","1.0250000000000001","10.5","9.166666666666666","2025-04-28 01:00:00.0"
"SZKO?A PODSTAWOWA W SYPITKACH","","19-314","SYPITKI","22.5643375","53.7876812","62.85","1012.1916666666667","4.575","5.858333333333333","5.3","2025-04-28 01:00:00.0"
"SZKO?A PODSTAWOWA IM. TADEUSZA KO?CIUSZKI W ZBROS?AWICACH","UL. WOLNO?CI","42-674","ZBROS?AWICE","18.74511","50.415455","64.59166666666667","994.7583333333333","6.4750000000000005","24.724999999999998","21.0","2025-04-28 01:00:00.0"
"SZKO?A PODSTAWOWA NR 4 Z ODDZIA?AMI SPORTOWYMI I MISTRZOSTWA SPORTOWEGO W ?ORACH","UL. BORY?SKA","44-240","?ORY","18.687221","50.039349","51.25833333333333","991.3083333333333","8.508333333333333","10.741666666666667","9.4","2025-04-28 01:00:00.0"
"SZKO?A PODSTAWOWA NR 10 IM. MARII SK?ODOWSKIEJ-CURIE W ZDU?SKIEJ WOLI","UL. ZIELONA","98-220","ZDU?SKA WOLA","18.95037552","51.60020179","59.25833333333333","1004.7000000000002","6.216666666666666","21.033333333333335","17.316666666666666","2025-04-28 01:00:00.0"
"SZKO?A PODSTAWOWA NR 4 IM.FRANCISZKA STUSKA W ORZESZU JA?KOWICACH","UL. STUSKA","43-180","ORZESZE","18.746978","50.145788","56.87777777777777","991.9555555555556","7.155555555555556","8.855555555555556","8.133333333333333","2025-04-28 01:00:00.0"
"SZKO?A PODSTAWOWA NR 2 IM. JANA WYPLERA W RUDZIE ?L?SKIEJ","UL. GWARECKA","41-705","RUDA ?L?SKA","18.89349369757705","50.267719400613906 ","52.166666666666664","996.8083333333333","9.033333333333333","9.858333333333334","8.85","2025-04-28 01:00:00.0"
"IV LICEUM OG?LNOKSZTA?C?CE IM. ORL?T LWOWSKICH W GLIWICACH","UL. KOZIELSKA","44-100","GLIWICE","18.654651","50.298038","52.03333333333333","998.6083333333335","9.450000000000001","25.208333333333332","20.158333333333335","2025-04-28 01:00:00.0"
"SZKO?A PODSTAWOWA NR 3 I. BOHATER?W POWSTANIA WARSZAWSKIEGO Z ODDZIA?AMI INTEGRACYJNYMI W PIASTOWIE","UL. ALEJA TYSI?CLECIA","05-820","PIAST?W","20.841563186509138","52.178313490439706","65.91666666666667","1016.7999999999998","6.433333333333334","12.508333333333333","11.058333333333332","2025-04-28 01:00:00.0"
"SZKO?A PODSTAWOWA NR 16 IM. JANUSZA KORCZAKA W RUDZIE ?L?SKIEJ","UL. KUKU?CZA","41-710","RUDA ?L?SKA","18.88033","50.268433","49.01666666666667","994.475","9.383333333333333","9.941666666666666","8.083333333333334","2025-04-28 01:00:00.0"
"SZKO?A PODSTAWOWA IM.STEFANA CZARNIECKIEGO W RAC?AWICACH","","38-323","RAC?AWICE","21.127689745801828","50.06979323518478","78.14999999999999","990.8333333333334","2.9916666666666667","11.516666666666666","10.516666666666667","2025-04-28 01:00:00.0"
"SZKO?A PODSTAWOWA IM. W?ADYS?AWA BRONIEWSKIEGO W SZCZEJKOWICACH","UL. WIEJSKA","44-246","SZCZEJKOWICE","18.679024","50.095496","54.98333333333333","992.5","7.675","30.616666666666664","23.974999999999998","2025-04-28 01:00:00.0"
"SZKO?A PODSTAWOWA IM. FRANCISZKA RDUCHA W BE?KU","UL. SZYMOCHY","44-237","BE?K","18.712687","50.134061","71.49166666666666","994.2916666666666","5.625","14.299999999999999","11.983333333333334","2025-04-28 01:00:00.0"
"SZKO?A PODSTAWOWA W ZBICZNIE","","87-305","ZBICZNO","19.374579","53.3339494","68.65833333333333","1018.3583333333332","6.758333333333333","11.166666666666666","8.033333333333333","2025-04-28 01:00:00.0"
"SZKO?A PODSTAWOWA W PONIATOWIE","UL. SZKOLNA","09-300","PONIATOWO","19.864252","53.041259","65.08333333333333","1011.9","3.6166666666666667","37.458333333333336","29.566666666666666","2025-04-28 01:00:00.0"
"SZKO?A PODSTAWOWA IM. ZIEMI WARMI?SKIEJ W PIENI??NIE","UL. ORNECKA","14-520","PIENI??NO","20.1287545","54.2359313","70.73333333333333","1017.9166666666666","1.9416666666666667","14.6","12.233333333333334","2025-04-28 01:00:00.0"
"SZKO?A PODSTAWOWA NR 5 IM. POLSKICH OLIMPIJCZYK?W W ?WIECIU","UL. WOJSKA POLSKIEGO","86-105","?WIECIE","18.404523109363243","53.4022885304552","67.05","1024.1083333333333","4.958333333333333","12.966666666666667","10.741666666666667","2025-04-28 01:00:00.0"
"TECHNIKUM NR 2 W K?TRZYNIE","UL. POZNA?SKA","11-400","K?TRZYN","21.3575617","54.0772049","74.08333333333333","1020.2916666666666","1.6583333333333332","16.183333333333334","14.450000000000001","2025-04-28 01:00:00.0"
"I LICEUM OG?LNOKSZTA?C?CE IM. WOJCIECHA K?TRZY?SKIEGO W K?TRZYNIE","UL. POWSTA?C?W WARSZAWY","11-400","K?TRZYN","21.3725281","54.0774004","59.15","1015.1666666666666","4.841666666666667","10.775","8.666666666666666","2025-04-28 01:00:00.0"
"SZKO?A PODSTAWOWA NR 3 IM. HENRYKA SIENKIEWICZA W E?KU","UL. GRODZIE?SKA","19-300","E?K","22.3468805","53.832444","60.375","1010.2833333333333","5.125","3.6916666666666664","3.3083333333333336","2025-04-28 01:00:00.0"
"SZKO?A PODSTAWOWA NR 13 Z ODDZIA?AMI SPORTOWYMI I MISTRZOSTWA SPORTOWEGO IM. POLSKICH OLIMPIJCZYK?W W ?ORACH","OS. OSIEDLE PAWLIKOWSKIEGO","44-240","?ORY","18.68289226","50.03250482","53.3","991.55","8.370000000000001","9.48","7.95","2025-04-28 01:00:00.0"
"PRYWATNA SZKO?A PODSTAWOWA W KRAKOWIE","UL. PODG?RKI TYNIECKIE","30-398","KRAK?W-PODG?RZE","19.84421916","50.01213341","66.2","999.4250000000001","6.158333333333334","6.3999999999999995","5.591666666666666","2025-04-28 01:00:00.0"
"PUBLICZNA SZKO?A PODSTAWOWA W D?UGOWOLI","","27-300","D?UGOWOLA PIERWSZA","21.621011","51.096311","99.7","1036.2749999999999","3.2583333333333333","8.883333333333333","7.341666666666666","2025-04-28 01:00:00.0"
"PUBLICZNA SZKO?A PODSTAWOWA IM KARDYNA?A STEFANA WYSZY?SKIEGO W G?OSKOWIE","","08-412","G?OSK?W","21.693825","51.932915","75.15833333333333","1009.2833333333333","2.6666666666666665","23.925","19.958333333333332","2025-04-28 01:00:00.0"
"SZKO?A PODSTAWOWA NR 5 IM I. J. PADEREWSKIEGO W PRUSZKOWIE","UL. JANA D?UGOSZA","05-804","PRUSZK?W","20.815629142327243","52.18859558069476","64.39166666666667","1015.4","5.55","20.683333333333334","17.491666666666667","2025-04-28 01:00:00.0"
"SZKO?A PODSTAWOWA IM. HENRYKA SIENKIEWICZA W STARYM K?B?OWIE","","08-430","STARY K?B??W","21.862929","51.791451","72.11666666666666","1006.5833333333334","3.1999999999999997","15.308333333333332","13.166666666666666","2025-04-28 01:00:00.0"
"TECHNIKUM W ?ELECHOWIE","UL. MARSZA?KA J?ZEFA PI?SUDSKIEGO","08-430","?ELECH?W","21.898786","51.812356","70.90833333333333","1006.5833333333334","4.408333333333333","32.483333333333334","27.34166666666667","2025-04-28 01:00:00.0"
"SZKO?A PODSTAWOWA W ZESPOLE SZK?? OG?LNOKSZTA?C?CYCH W MAZOWIECKIM CENTRUM NEUROPSYCHIATRII W J?ZEFOWIE ","UL. 3 MAJA","05-420","J?ZEF?W","21.234656","52.128054","70.94166666666666","1015.75","4.6000000000000005","33.891666666666666","29.183333333333334","2025-04-28 01:00:00.0"
"II LICEUM OG?LNOKSZTA?C?CE IM. GEN. GUSTAWA ORLICZ-DRESZERA W CHE?MIE","UL. SZPITALNA","22-100","CHE?M","23.45593021","51.14267385","70.81666666666666","1004.3666666666667","5.566666666666666","27.5","22.78333333333333","2025-04-28 01:00:00.0"
"SZKO?A PODSTAWOWA IM.J.CHE?MO?SKIEGO W KUKL?WCE RADZIEJOWICKIEJ","UL. SZKOLNA","96-325","KUKL?WKA RADZIEJOWICKA","20.59054414","52.04408065","77.8","1014.9499999999999","2.525","39.666666666666664","33.81666666666667","2025-04-28 01:00:00.0"
"SZKO?A PODSTAWOWA NR 3 IM. OR?A BIA?EGO W CIECHANOWIE","UL. POWSTA?C?W WIELKOPOLSKICH","06-400","CIECHAN?W","20.631842155818422","52.882394549980845","61.15","1012.0333333333333","5.25","37.4","31.400000000000002","2025-04-28 01:00:00.0"
"SALEZJA?SKA SZKO?A PODSTAWOWA Z ODDZIA?AMI INTEGRACYJNYMI W SALEZJA?SKIM O?RODKU SZKOLNO-WYCHOWAWCZYM W TARNOWSKICH G?RACH","UL. JANA ?NIADECKIEGO","42-604","TARNOWSKIE G?RY","18.80622755","50.43256357","52.574999999999996","954.1083333333332","8.316666666666666","14.399999999999999","11.625","2025-04-28 01:00:00.0"
"SZKO?A PODSTAWOWA NR 1 IM PIERWSZEGO MARSZA?KA POLSKI J?ZEFA PI?SUDSKIEGO W SULEJ?WKU","UL. IDZIKOWSKIEGO","05-070","SULEJ?WEK","21.26694575396344","52.24433487687851","70.15833333333333","1014.3916666666665","4.95","37.28333333333333","31.558333333333334","2025-04-28 01:00:00.0"
"NIEPUBLICZNA INTEGRACYJNA SZKO?A PODSTAWOWA W MYSIADLE","UL. KR?TKA","05-515","MYSIAD?O","21.005366","52.099954","73.81666666666666","1016.0","4.4750000000000005","24.266666666666666","20.733333333333334","2025-04-28 01:00:00.0"
"PUBLICZNA SZKO?A PODSTAWOWA IM. JANUSZA KORCZAKA W GO?DZIE","UL. STAROWIEJSKA","26-634","G?ZD","21.378914500000004","51.376315985021016","73.6","1005.3","4.5","40.3","33.3","2025-04-28 01:00:00.0"
"SZKO?A PODSTAWOWA NR 4 IM. JANA PAW?A II, Z ODDZIA?AMI PRZEDSZKOLNYMI I ODDZIA?AMI SPORTOWYMI W PRUSZKOWIE ","UL. HUBALA","05-800","PRUSZK?W","20.81122021534552","52.16432045510862","75.63333333333334","1017.5166666666668","6.141666666666667","33.025","29.21666666666667","2025-04-28 01:00:00.0"
"SZKO?A PODSTAWOWA W OTWOCKU WIELKIM","UL. ZAMKOWA","05-480","OTWOCK WIELKI","21.249772","52.054498","72.69166666666666","1015.9499999999999","3.1","25.116666666666664","21.55","2025-04-28 01:00:00.0"
"NIEPUBLICZNA SZKO?A PODSTAWOWA WIELICZKA MONTESSORI SCHOOL W WIELICKIEJ SZKOLE MONTESSORI","UL. JANA MIKO?AJA DANI?OWICZA","32-020","WIELICZKA","20.05646002","49.98203058","61.208333333333336","995.0","6.925","6.8999999999999995","6.858333333333333","2025-04-28 01:00:00.0"
"PUBLICZNA SZKO?A PODSTAWOWA W OBRAZOWIE","","27-641","OBRAZ?W","21.657963199999998","50.69068702480904","58.76666666666667","1001.5666666666666","7.3999999999999995","29.258333333333336","23.866666666666664","2025-04-28 01:00:00.0"
"SZKO?A PODSTAWOWA W BRZOZOWIE","UL. MIODOWA","86-200","BRZOZOWO","18.4238755","53.314175","64.7","1015.9375","4.9625","12.65","10.4625","2025-04-28 01:00:00.0"
"SZKO?A PODSTAWOWA NR 199 IM. JULIANA TUWIMA W ?ODZI","UL. J?ZEFA ELSNERA","92-504","??D?-WIDZEW","19.531114643683964","51.75675184434886 ","50.025","1000.6416666666668","7.55","14.908333333333333","12.283333333333333","2025-04-28 01:00:00.0"
"SZKO?A PODSTAWOWA IM. KS. KARD. STEFANA WYSZY?SKIEGO W BORZYMINIE","","87-500","BORZYMIN","19.3345342","53.0561291","51.24166666666667","1011.0749999999999","6.625","37.675000000000004","31.633333333333336","2025-04-28 01:00:00.0"
"SZKO?A PODSTAWOWA IM. TADEUSZA KO?CIUSZKI W ??TOWICACH","","33-121","??TOWICE","20.845262","49.994632","76.325","1004.6166666666667","4.466666666666667","16.566666666666666","14.566666666666668","2025-04-28 01:00:00.0"
"SZKO?A PODSTAWOWA IM. PIOTRA ?CIEGIENNEGO W B?CZKOWIE","UL. JANA PAW?A II","26-008","B?CZK?W","20.80287618","50.87879103","76.91666666666667","991.6166666666667","3.475","19.125","16.375","2025-04-28 01:00:00.0"
"SZKO?A PODSTAWOWA IM.KSI?CIA KARDYNA?A ADAMA STEFANA SAPIEHY W BYSINIE","","32-400","BYSINA","19.8876673","49.8279242","74.74166666666666","981.2833333333333","3.8833333333333333","3.7416666666666667","3.375","2025-04-28 01:00:00.0"
"SZKO?A PODSTAWOWA IM. JANA KOCHANOWSKIEGO W B?CZARCE","","32-444","B?CZARKA","19.8615647","49.8750803","71.89999999999999","986.1833333333334","5.483333333333333","7.758333333333333","6.875","2025-04-28 01:00:00.0"
"TECHNIKUM W NAKLE ?L?SKIM","UL. GUSTAWA MORCINKA","42-620","NAK?O ?L?SKIE","18.899961","50.436198","62.59166666666667","991.1999999999999","6.558333333333334","19.816666666666666","18.191666666666666","2025-04-28 01:00:00.0"
"ZESP?? SZK?? OG?LNOKSZTA?C?CYCH NR 5 - IV LICEUM OG?LNOKSZTA?C?CE Z ODDZIA?AMI MISTRZOSTWA SPORTOWEGO IM. MARYNARZY WOJSK OCHRONY POGRANICZA W GDA?SKU","UL. NA ZASP?","80-546","GDA?SK","18.662468","54.402127","66.325","1027.825","5.266666666666667","16.233333333333334","14.049999999999999","2025-04-28 01:00:00.0"
"SZKO?A PODSTAWOWA IM. JANA DUNIN-BRZEZI?SKIEGO W DROGINI ","","32-400","DROGINIA","20.008008","49.8469429","81.90833333333333","992.25","3.1333333333333333","14.683333333333332","13.075000000000001","2025-04-28 01:00:00.0"
"SZKO?A PODSTAWOWA NR 8 IM. KRZYSZTOFA KAMILA BACZY?SKIEGO W TARNOWIE","UL. BITWY POD STUDZIANKAMI","33-100","TARN?W","21.00415196","50.01968672","64.48333333333333","998.7416666666667","5.983333333333333","13.641666666666666","11.674999999999999","2025-04-28 01:00:00.0"
"SZKO?A PODSTAWOWA IM.TADEUSZA KO?CIUSZKI W G?OGOCZOWIE","","32-444","G?OGOCZ?W","19.8764713","49.8949648","80.35833333333333","996.4916666666667","3.0583333333333336","21.391666666666666","17.441666666666666","2025-04-28 01:00:00.0"
"SZKO?A PODSTAWOWA IM. POWSTA?C?W STYCZNIOWYCH W DWIKOZACH","UL. SP??DZIELCZA","27-620","DWIKOZY","21.78213112698172","50.737630724889875","77.29166666666667","1008.75","4.383333333333334","20.925","17.491666666666667","2025-04-28 01:00:00.0"
"SZKO?A PODSTAWOWA IM JANA KOCHANOWSKIEGO W RACIECHOWICACH","","32-415","RACIECHOWICE","20.1425376","49.8447436","66.11666666666666","989.6750000000001","6.916666666666667","13.15","11.508333333333333","2025-04-28 01:00:00.0"
"SZKO?A PODSTAWOWA NR 2 IM. 12 PU?KU PIECHOTY W SPYTKOWICACH","","34-745","SPYTKOWICE","19.8620555","49.5891356","72.13636363636364","965.4727272727273","3.6818181818181817","7.972727272727273","6.781818181818181","2025-04-28 01:00:00.0"
"SZKO?A PODSTAWOWA NR 2 IM. STANIS?AWA MARUSARZA W TOKARNI","","32-436","TOKARNIA","19.861399","49.742299","79.4","972.9","2.1","19.0","18.6","2025-04-28 01:00:00.0"
"NIEPUBLICZNA SZKO?A PODSTAWOWA MONTESSORI W WIELICZCE","UL. JASNA","32-020","WIELICZKA","20.04131557116481","49.98142573025661","73.25833333333334","997.2916666666666","4.508333333333334","9.883333333333333","7.991666666666667","2025-04-28 01:00:00.0"
"TECHNIKUM IM. KAROLA WOJTY?Y W SU?KOWICACH","UL. SZKOLNA","32-440","SU?KOWICE","19.79959","49.83879","82.02499999999999","992.4250000000001","2.975","15.391666666666666","13.975","2025-04-28 01:00:00.0"
"SZKO?A PODSTAWOWA NR 1 IM. ADAMA MICKIEWICZA W KRZESZOWICACH","UL. D?UGA","32-065","KRZESZOWICE","19.63231","50.14192","66.83333333333333","993.2000000000002","6.108333333333333","14.1","13.841666666666667","2025-04-28 01:00:00.0"
"SZKO?A PODSTAWOWA IM. KSI?CIA J?ZEFA PONIATOWSKIEGO W MNIKOWIE","","32-084","MNIK?W","19.7203981","50.0603945","65.51666666666667","997.9416666666666","6.25","8.083333333333334","7.0","2025-04-28 01:00:00.0"
"RZEMIE?LNICZA BRAN?OWA SZKO?A I STOPNIA W TARNOWIE","PL. DWORCOWY","33-100","TARN?W","20.97230288","50.00592873","69.99166666666666","1001.7416666666667","5.3999999999999995","20.541666666666668","17.716666666666665","2025-04-28 01:00:00.0"
"PUBLICZNA SZKO?A PODSTAWOWA NR4 IM. EUGENIUSZA KWIATKOWSKIEGO W STALOWEJ WOLI","UL. NIEZ?OMNYCH","37-450","STALOWA WOLA","22.049257","50.566117","69.58333333333333","1007.2666666666668","5.783333333333334","9.375","7.791666666666667","2025-04-28 01:00:00.0"
"PUBLICZNA SZKO?A PODSTAWOWA IM. 100. ROCZNICY ODZYSKANIA NIEPODLEG?O?CI PRZEZ POLSK? W KORZECKU","","26-060","KORZECKO","20.40868672","50.80193767","68.23636363636363","996.7","5.1000000000000005","16.572727272727274","13.927272727272726","2025-04-28 01:00:00.0"
"SZKO?A PODSTAWOWA IM. GENERA?A STANIS?AWA MACZKA W BLI?YNIE","UL. PIASKOWA","26-120","BLI?YN","20.7611656","51.10539138","80.14166666666667","994.6416666666668","1.6333333333333335","16.525000000000002","13.733333333333334","2025-04-28 01:00:00.0"
"SZKO?A PODSTAWOWA W OKSIE","UL. PL. M. REJA","28-363","OKSA","20.10227008","50.72821359","75.15833333333333","995.4916666666667","4.683333333333333","21.05","17.7","2025-04-28 01:00:00.0"
"III LICEUM OG?LNOKSZTA?C?CE W ZESPOLE SZK?? NR 1 W PSZCZYNIE ","UL. KAZIMIERZA WIELKIEGO","43-200","PSZCZYNA","18.945466","49.965741","61.8375","994.225","7.6375","14.2625","11.825","2025-04-28 01:00:00.0"
"SZKO?A PODSTAWOWA W JELENIOWIE","","26-006","JELENI?W","21.116233057672765","50.844493249563236","73.07272727272726","990.8181818181819","3.590909090909091","5.809090909090909","5.036363636363636","2025-04-28 01:00:00.0"
"SZKO?A PODSTAWOWA NR 4 W SKAR?YSKU-KAMIENNEJ","UL. KSI???CA","26-110","SKAR?YSKO-KAMIENNA","20.875901311108976","51.1416602921439 ","81.25","997.4","1.3166666666666667","26.25","22.59166666666667","2025-04-28 01:00:00.0"
"SPO?ECZNA SZKO?A PODSTAWOWA NR 1 IM. KS.PROF. J?ZEFA TISCHNERA W TARNOWIE","UL. GUMNISKA","33-100","TARN?W","21.00131621","50.00814381","74.00833333333334","1001.5083333333333","4.741666666666666","29.625","25.40833333333333","2025-04-28 01:00:00.0"
"SZKO?A PODSTAWOWA W ZAWIDZU KO?CIELNYM","UL. MAZOWIECKA","09-226","ZAWIDZ KO?CIELNY","19.870229928959297","52.82718910632357","54.324999999999996","1012.1","5.2250000000000005","30.666666666666668","25.833333333333332","2025-04-28 01:00:00.0"
"TECHNIKUM W RACI??U","UL. KILI?SKIEGO","09-140","RACI??","20.127731","52.778712","59.23333333333333","1014.1333333333333","3.6750000000000003","16.875","14.375","2025-04-28 01:00:00.0"
"PUBLICZNA SZKO?A PODSTAWOWA IM.HENRYKA SIENKIEWICZA W MY?LISZEWICACH","","26-630","MY?LISZEWICE","21.290531299999998","51.413341302261024","78.85833333333333","1009.2000000000002","2.841666666666667","95.55","91.61666666666667","2025-04-28 01:00:00.0"
"SZKO?A PODSTAWOWA NR 6 IM. DRA W?ADYS?AWA G?BIKA Z ODDZIA?AMI INTEGRACYJNYMI W KWIDZYNIE","UL. GRUNWALDZKA","82-500","KWIDZYN","18.932667","53.723949","56.65","1019.4250000000001","6.066666666666666","15.416666666666666","13.608333333333333","2025-04-28 01:00:00.0"
"SZKO?A PODSTAWOWA W BRZE?CIU","","28-400","BRZE?CIE","20.54586641","50.5470206","70.35833333333333","1001.4416666666666","4.841666666666667","8.258333333333333","7.25","2025-04-28 01:00:00.0"
"SZKO?A PODSTAWOWA W LUBOWIDZU","UL. JANA PAW?A II","09-304","LUBOWIDZ","19.842984","53.120566","75.5875","1012.3375","0.9125000000000001","14.0875","12.15","2025-04-28 01:00:00.0"
"KATOLICKA SZKO?A PODSTAWOWA MONTESSORI W KRAKOWIE","UL. KS. STEFANA PAWLICKIEGO","30-320","KRAK?W-PODG?RZE","19.917813","50.043104","59.85833333333333","1001.6916666666667","8.200000000000001","9.141666666666667","7.625","2025-04-28 01:00:00.0"
"SZKO?A PODSTAWOWA NR 2 IM. JANA PAW?A II W GORZYCACH","UL. EDUKACJI NARODOWEJ","39-432","GORZYCE","21.83097317","50.67218435","76.41666666666667","1011.2166666666667","5.541666666666667","24.03333333333333","23.0","2025-04-28 01:00:00.0"
"TECHNIKUM NR 2 W CZ?STOCHOWIE","UL. WARSZAWSKA","42-200","CZ?STOCHOWA","19.1485028","50.7931394","76.43333333333334","996.4916666666667","4.916666666666667","30.541666666666668","25.233333333333334","2025-04-28 01:00:00.0"
"SZKO?A PODSTAWOWA IM. OR?A BIA?EGO W SZCZYTNEJ","UL. KO?CIELNA","57-330","SZCZYTNA","16.44633002","50.41610314","75.20833333333333","969.3416666666667","3.4333333333333336","55.6","45.449999999999996","2025-04-28 01:00:00.0"
"PUBLICZNA SZKO?A PODSTAWOWA IM. JANA KOCHANOWSKIEGO W W?JCICACH","UL. G??WNA","55-220","W?JCICE","17.2122623","50.4609086","64.95454545454545","1008.7818181818183","6.4363636363636365","14.97272727272727","12.963636363636363","2025-04-28 01:00:00.0"
"PUBLICZNA SZKO?A PODSTAWOWA W BIERZWNICY","","78-324","BIERZWNICA","15.9112181","53.7221891","58.85833333333333","1009.975","8.25","7.091666666666666","5.858333333333333","2025-04-28 01:00:00.0"
"I LICEUM OG?LNOKSZTA?C?CE IM. BOLES?AWA CHROBREGO W K?ODZKU","UL. WOJSKA POLSKIEGO","57-300","K?ODZKO","16.651149","50.4373","68.3375","989.25","7.425","43.175","36.9","2025-04-28 01:00:00.0"
"SZKO?A PODSTAWOWA W BIENIOWICACH","","59-216","BIENIOWICE","16.256564","51.258614","71.38333333333334","1012.225","7.25","7.616666666666667","6.5","2025-04-28 01:00:00.0"
"SZKO?A PODSTAWOWA IM. ?W. JADWIGI ?L?SKIEJ W ?ERNIKACH WROC?AWSKICH","UL. KOLEJOWA","55-010","?ERNIKI WROC?AWSKIE","17.0609105","51.0305737","70.675","1009.7833333333333","6.591666666666666","22.233333333333334","18.616666666666667","2025-04-28 01:00:00.0"
"SZKO?A PODSTAWOWA NR 4 Z ODDZIA?AMI INTEGRACYJNYMI W BIELAWIE","UL. LUDWIKA WARY?SKIEGO","58-260","BIELAWA","16.6008348","50.6662832","57.800000000000004","980.4","7.791666666666667","6.491666666666667","5.283333333333333","2025-04-28 01:00:00.0"
"SZKO?A PODSTAWOWA IM. JANA PAW?A II W GRODZISZCZU","","58-112","GRODZISZCZE","16.560664","50.798212","81.27499999999999","996.3916666666665","4.95","34.69166666666667","28.816666666666666","2025-04-28 01:00:00.0"
"LICEUM OG?LNOKSZTA?C?CE W ?RODZIE ?L?SKIEJ","UL. WROC?AWSKA","55-300","?RODA ?L?SKA","16.5994053","51.158652","61.35","1009.1583333333333","7.941666666666666","8.35","8.233333333333333","2025-04-28 01:00:00.0"
"BRAN?OWA SZKO?A I STOPNIA NR 6 W ZESPOLE SZK?? PRZEMYS?U SPO?YWCZEGO IM. POWSTA?C?W WIELKOPOLSKICH W ?ODZI","UL. FRANCISZKA?SKA","91-845","??D?-BA?UTY","19.421884","51.7848081","49.66923076923077","1000.9461538461538","8.169230769230769","12.807692307692308","10.461538461538462","2025-04-28 01:00:00.0"
"TECHNIKUM NR 1 W ZESPOLE SZK?? NR 1 IM. STANIS?AWA STASZICA W BOCHNI","UL. EDWARDA WINDAKIEWICZA","32-700","BOCHNIA","20.416325","49.966639","70.45833333333333","996.7333333333332","5.916666666666667","12.049999999999999","10.408333333333333","2025-04-28 01:00:00.0"
"SZKO?A PODSTAWOWA IM. JANA PAW?A II W ?ASZEWIE","","09-135","?ASZEWO","20.090492","52.858682","44.75","1010.375","6.808333333333334","9.575000000000001","8.1","2025-04-28 01:00:00.0"
"SZKO?A PODSTAWOWA IM. MARII KONOPNICKIEJ W LIPINACH","","92-701","LIPINY","19.67220915","51.80665653","74.78333333333333","998.7833333333333","4.033333333333333","9.866666666666667","8.174999999999999","2025-04-28 01:00:00.0"
"I LICEUM OG?LNOKSZTA?C?CE IM. MARCINA KROMERA W GORLICACH","UL. MARCINA KROMERA","38-300","GORLICE","21.155748","49.659518","72.49166666666666","990.0666666666666","4.75","14.008333333333333","12.066666666666668","2025-04-28 01:00:00.0"
"SZKO?A PODSTAWOWA IM. IGNACEGO ?UKASIEWICZA W KOBYLANCE","","38-303","KOBYLANKA","21.222151","49.669007","78.49166666666666","992.0916666666667","2.783333333333333","16.816666666666666","13.866666666666667","2025-04-28 01:00:00.0"
"SZKO?A PODSTAWOWA IM.?WI?TEJ KINGI W KORCZYNIE","","38-340","KORCZYNA","21.255204","49.702509","73.5","988.2000000000002","4.588888888888889","48.077777777777776","38.388888888888886","2025-04-28 01:00:00.0"
"TECHNIKUM W GO?OTCZY?NIE","UL. CIECHANOWSKA","06-430","GO?OTCZYZNA","20.68880627301113","52.79264333773238","68.7","1013.6083333333335","4.083333333333333","32.575","27.45","2025-04-28 01:00:00.0"
"SZKO?A PODSTAWOWA IM. W?ADYS?AWA J??WICKIEGO W G?RZNIE ","UL. D?UGA","08-404","G?RZNO","21.705990699999997","51.84700102762625","66.81666666666666","1007.875","4.633333333333334","22.78333333333333","18.591666666666665","2025-04-28 01:00:00.0"
"SZKO?A PODSTAWOWA W RADZIKACH DU?YCH","","87-337","RADZIKI DU?E","19.278172","53.1659113","71.10833333333333","1014.2833333333333","3.5","7.7","7.558333333333334","2025-04-28 01:00:00.0"
"SZKO?A PODSTAWOWA NR 2 Z ODDZIA?AMI INTEGRACYJNYMI IM. ?O?NIERZY A.K. II REJONU CELK?W W MARKACH","UL. SZKOLNA","05-270","MARKI","	21.103744271164814","52.31729535665526","62.739999999999995","1016.54","6.1","31.98","27.840000000000003","2025-04-28 01:00:00.0"
"SZKO?A PODSTAWOWA IM.KAWALER?W ORDERU U?MIECHU W SIEROS?AWICACH","","32-120","SIEROS?AWICE","20.461954","50.141099","52.0","1003.1333333333333","8.841666666666667","7.675000000000001","6.733333333333333","2025-04-28 01:00:00.0"
"SZKO?A PODSTAWOWA IM.?W.JANA PAW?A II W ZAWADACH","UL. KO?CIUSZKI","16-075","ZAWADY","22.66793745","53.15651651","74.96666666666667","1016.8666666666667","1.4000000000000001","12.433333333333332","11.141666666666666","2025-04-28 01:00:00.0"
"SZKO?A PODSTAWOWA NR 2 IM. KR?LOWEJ JADWIGI W CZECHOWICACH-DZIEDZICACH","UL. W?GLOWA","43-502","CZECHOWICE-DZIEDZICE","19.0071238","49.9283149","63.916666666666664","994.8666666666667","8.15","16.183333333333334","13.291666666666666","2025-04-28 01:00:00.0"
"PUBLICZNA SZKO?A PODSTAWOWA NR 1 Z ODDZIA?AMI DWUJ?ZYCZNYMI W MOGIELNICY","UL. NOWOMIEJSKA","05-640","MOGIELNICA","20.72027","51.6909326","79.075","1008.7583333333333","2.558333333333333","24.65833333333333","20.675","2025-04-28 01:00:00.0"
"SZKO?A PODSTAWOWA IM. STANIS?AWA LUBOMIRSKIEGO W NOWYM WI?NICZU","UL. SZKOLNA","32-720","NOWY WI?NICZ","20.464022","49.911873","81.125","994.2333333333332","2.2583333333333333","7.716666666666666","7.258333333333333","2025-04-28 01:00:00.0"
"SZKO?A PODSTAWOWA NR 29 IM. TADEUSZA KO?CIUSZKI W RZESZOWIE","UL. PARTYZANT?W","35-234","RZESZ?W","22.00675633","50.04931405","69.81666666666666","1001.9416666666666","6.45","30.0","23.974999999999998","2025-04-28 01:00:00.0"
"PUBLICZNA SZKO?A PODSTAWOWA IM.T. KO?CIUSZKI W G?OWACZOWIE","UL. WARECKA","26-903","G?OWACZ?W","21.3187284","51.6220175","78.3375","1011.425","2.5875","26.0625","22.85","2025-04-28 01:00:00.0"
"SZKO?A PODSTAWOWA SPECJALNA NR 150 W KRAKOWIE","AL. ALEJA ADOLFA DYGASI?SKIEGO","30-820","KRAK?W-PODG?RZE","19.98983357116481","50.02147308570759","66.83636363636364","1000.3272727272728","6.945454545454546","8.645454545454545","7.236363636363635","2025-04-28 01:00:00.0"
"PUBLICZNA SZKO?A PODSTAWOWA IM. J?ZEFA BRANDTA W ORO?SKU","UL. SZKOLNA","26-505","ORO?SKO","20.98980054","51.315665","78.72500000000001","1004.1333333333333","4.1499999999999995","34.65","28.258333333333336","2025-04-28 01:00:00.0"
"PUBLICZNA SZKO?A PODSTAWOWA IM. BATALION?W CH?OPSKICH W KLECZANOWIE","","27-641","KLECZAN?W","21.57103098","50.71737244","56.74166666666667","996.5500000000001","7.158333333333334","5.133333333333334","4.558333333333334","2025-04-28 01:00:00.0"
"SZKO?A PODSTAWOWA IM. BOHATER?W WESTERPLATTE W ??KAWICY","","33-156","??KAWICA","19.6059700","49.8417200","80.13333333333334","996.6666666666666","2.5749999999999997","14.741666666666667","12.325000000000001","2025-04-28 01:00:00.0"
"SZKO?A PODSTAWOWA W STAROCH?CINACH","","26-060","STAROCH?CINY","20.48081695","50.77685204","73.18333333333334","998.8833333333333","3.7583333333333333","19.133333333333333","16.224999999999998","2025-04-28 01:00:00.0"
"SZKO?A PODSTAWOWA NR 6 IM. KS. JANA TWARDOWSKIEGO W PSZCZYNIE","UL. KSI??YCOWA","43-200","PSZCZYNA","18.936162","49.965097","64.01666666666667","996.9","6.941666666666666","12.549999999999999","11.183333333333332","2025-04-28 01:00:00.0"
"SZKO?A PODSTAWOWA IM.KAZIMIERZA PU?ASKIEGO W JADAMWOLI","","34-606","JADAMWOLA","20.51122243","49.58092142","67.78333333333333","977.1","4.716666666666667","5.008333333333334","4.3999999999999995","2025-04-28 01:00:00.0"
"SZKO?A PODSTAWOWA NR 2 IM. MARII KONOPNICKIEJ W ?YRARDOWIE","UL. GABRIELA NARUTOWICZA","96-300","?YRARD?W","20.43801027","52.05842119","57.43333333333334","1013.0583333333334","7.591666666666666","24.758333333333336","23.958333333333332","2025-04-28 01:00:00.0"
"I LICEUM OG?LNOKSZTA?C?CE IM. ZYGMUNTA KRASI?SKIEGO W CIECHANOWIE","UL. 17 STYCZNIA","06-400","CIECHAN?W","20.59878057","52.88501004","58.85","1012.1","5.591666666666666","34.71666666666667","29.741666666666664","2025-04-28 01:00:00.0"
"SZKO?A PODSTAWOWA W ?UKOWEJ","","26-060","?UKOWA","20.53811566","50.72732867","66.55","995.4583333333334","5.208333333333333","13.816666666666668","11.700000000000001","2025-04-28 01:00:00.0"
"SZKO?A PODSTAWOWA W WOLI KORYCKIEJ G?RNEJ","","08-455","WOLA KORYCKA G?RNA","	21.754932828835187","51.73577039586474","76.28181818181818","1008.1454545454545","2.772727272727273","10.190909090909091","8.681818181818182","2025-04-28 01:00:00.0"
"SZKO?A PODSTAWOWA W WOLICY","UL. SZKOLNA","26-060","WOLICA","20.47387736","50.75410087","76.14999999999999","998.375","3.516666666666667","40.9","33.791666666666664","2025-04-28 01:00:00.0"
"SZKO?A PODSTAWOWA IM. JANA PAW?A II W ZBUCZYNIE","UL. JANA PAW?A II","08-106","ZBUCZYN","22.44061361","52.08688669","69.1","1007.6","4.3","41.1","33.8","2025-04-28 01:00:00.0"
"TECHNIKUM NR 2 IM. EUGENIUSZA KWIATKOWSKIEGO W STARACHOWICACH","UL. 1 MAJA","27-200","STARACHOWICE","21.06313317","51.05452968","68.7","996.2","5.2","23.6","20.5","2025-04-28 01:00:00.0"
"PUBLICZNA SZKO?A PODSTAWOWA IM. JANA KOCHANOWSKIEGO W POLANACH","","26-680","POLANY","21.11465600","51.22610000","67.61666666666666","1002.1083333333335","4.433333333333334","9.591666666666667","9.508333333333333","2025-04-28 01:00:00.0"
"SZKO?A PODSTAWOWA W ZBELUTCE","","26-025","ZBELUTKA-STARA WIE?","21.0993345","50.7310922","53.31666666666666","983.3166666666666","7.7","6.791666666666667","5.7","2025-04-28 01:00:00.0"
"SZKO?A PODSTAWOWA IM. STEFANA KARDYNA?A WYSZY?SKIEGO W PIERZCHNICY ","UL. KARDYNA?A STEFANA WYSZY?SKIEGO","26-015","PIERZCHNICA","20.74729757","50.6959636","61.63333333333333","992.3333333333334","6.041666666666667","7.366666666666667","6.25","2025-04-28 01:00:00.0"
"PUBLICZNA SZKO?A PODSTAWOWA IM. BATALION?W CH?OPSKICH W STARYCH ZAWADACH","","26-660","STARE ZAWADY","21.12815508","51.54597315","72.01","1010.29","2.77","25.48","21.84","2025-04-28 01:00:00.0"
"SZKO?A PODSTAWOWA W BRDOWIE","UL. MICKIEWICZA","62-620","BRD?W","18.7293986","52.3533225","68.5","1013.2","5.3","12.8","11.1","2025-04-28 01:00:00.0"
"SZKO?A PODSTAWOWA Z ODDZIA?AMI INTEGRACYJNYMI NR 6 IM. SZARYCH SZEREG?W W GRODZISKU MAZOWIECKIM","UL. SPORTOWA","05-825","GRODZISK MAZOWIECKI","20.6192335","52.0987683","76.45","1015.8333333333334","4.208333333333333","45.50833333333333","38.775","2025-04-28 01:00:00.0"
"SZKO?A PODSTAWOWA NR 6 IM. ELIZY ORZESZKOWEJ W ?YRARDOWIE","UL. J?ZEFA MIRECKIEGO","96-300","?YRARD?W","20.446088","52.057653","72.29166666666667","1014.275","5.541666666666667","35.21666666666667","30.099999999999998","2025-04-28 01:00:00.0"
"SZKO?A PODSTAWOWA IM. 11 LISTOPADA W ???WINIE","UL. SZKOLNA","05-807","???WIN","20.7249857","52.09761779588044","71.06666666666666","1012.9916666666667","4.041666666666667","22.0","20.283333333333335","2025-04-28 01:00:00.0"
"SZKO?A PODSTAWOWA IM.ADAMA MICKIEWICZA W STRONIU","","34-604","STRONIE","20.52389925","49.61395897","72.0","975.2999999999998","3.716666666666667","9.966666666666667","8.450000000000001","2025-04-28 01:00:00.0"
"SZKO?A PODSTAWOWA IM.WO?Y?SKIEJ BRYGADY KAWALERII W STARYM KOCINIE","UL. KR?TA","42-231","STARY KOCIN","19.1164555","50.9549101","82.78571428571429","1000.3","2.5142857142857147","39.34285714285714","38.25714285714286","2025-04-28 01:00:00.0"
"PUBLICZNA SZKO?A PODSTAWOWA IM. JANA PAW?A II W WOLI TACZOWSKIEJ","","26-652","WOLA TACZOWSKA","21.04512254","51.44935931","65.95","1004.7000000000002","5.0249999999999995","15.933333333333332","15.808333333333332","2025-04-28 01:00:00.0"
"SZKO?A PODSTAWOWA NR 3 IM. MARII KONOPNICKIEJ W CHOJNOWIE","UL. W?ADYS?AWA REYMONTA","59-225","CHOJN?W","15.92934","51.27254","70.39999999999999","1007.5833333333334","6.925","63.01666666666667","52.59166666666667","2025-04-28 01:00:00.0"
"LICEUM OG?LNOKSZTA?C?CE IM. STEFANA ?EROMSKIEGO W ?YRARDOWIE","UL. JANINY JADWIGI KACPERSKIEJ","96-300","?YRARD?W","20.44495564","52.0675436","72.33636363636364","1015.9454545454545","4.918181818181818","41.62727272727273","36.64545454545455","2025-04-28 01:00:00.0"
"SZKO?A PODSTAWOWA W ?CINAWIE POLSKIEJ","","55-200","?CINAWA POLSKA","17.33660972","50.93346737","59.5","1009.5083333333333","8.216666666666667","15.1","12.825000000000001","2025-04-28 01:00:00.0"
"I LICEUM OG?LNOKSZTA?C?CE IM. ADAMA MICKIEWICZA W ?APACH","UL. BOHATER?W WESTERPLATTE","18-100","?APY","22.87657971","52.98984475","66.73333333333333","1012.2833333333333","4.45","113.75833333333333","87.24166666666667","2025-04-28 01:00:00.0"
"SZKO?A PODSTAWOWA W W?GRACH","UL. SZKOLNA","55-020","W?GRY","17.0374566","50.92746209","67.18333333333334","1008.6416666666668","7.591666666666666","13.066666666666668","11.174999999999999","2025-04-28 01:00:00.0"
"PUBLICZNA SZKO?A PODSTAWOWA IM. MIKO?AJA KOPERNIKA W BIENI?DZICACH","","26-625","BIENI?DZICE","20.92852467","51.41165831","76.08571428571429","1005.2857142857143","3.6714285714285713","28.071428571428573","23.3","2025-04-28 01:00:00.0"
"SAMORZ?DOWA SZKO?A PODSTAWOWA IM. WOJSKA POLSKIEGO W WODZIS?AWIU","UL. SZKOLNA","28-330","WODZIS?AW","20.18925053","50.51810713","82.30833333333334","996.8666666666667","2.8166666666666664","20.558333333333334","17.816666666666666","2025-04-28 01:00:00.0"
"TECHNIKUM W JASIE?CU","UL. CZERSKA","05-600","JASIENIEC","20.94031755","51.82104731","78.75","1011.5","4.0","23.0","19.083333333333332","2025-04-28 01:00:00.0"
"LICEUM OG?LNOKSZTA?C?CE W ZESPOLE SZK?? DRZEWNYCH I LE?NYCH IM. JANA KOCHANOWSKIEGO W GARBATCE - LETNISKU","UL. HANKI LEWANDOWICZ","26-930","GARBATKA-LETNISKO","21.62967267","51.49346798","80.9","1009.725","2.6875","75.5","62.1125","2025-04-28 01:00:00.0"
"PUBLICZNA SZKO?A PODSTAWOWA IM. JANA OLRYCHA SZANIECKIEGO W SZA?CU","","28-100","SZANIEC"," 20.691985097588677","50.51627384074623","57.416666666666664","995.6166666666667","6.933333333333334","7.8500000000000005","7.066666666666666","2025-04-28 01:00:00.0"
"SZKO?A PODSTAWOWA W ZBOROWIE","UL. ZWIERZYNIEC","28-131","ZBOR?W","20.711351","50.51339044","56.93636363636363","1002.3","7.636363636363637","7.636363636363637","6.3","2025-04-28 01:00:00.0"
"PUBLICZNA SZKO?A PODSTAWOWA IM. POR. J?ZEFA M?CZKI W ZALESZANACH","UL. SANDOMIERSKA","37-415","ZALESZANY","21.88785883","50.64803753","77.925","1008.8416666666667","4.7","33.81666666666667","27.625","2025-04-28 01:00:00.0"
"SZKO?A PODSTAWOWA W SOLCU-ZDROJU","UL. 1 MAJA","28-131","SOLEC-ZDR?J","20.8893586","50.37082674","63.0","1002.1","7.1","9.2","7.9","2025-04-28 01:00:00.0"
"I LICEUM OG?LNOKSZTA?C?CE W NOWEJ SARZYNIE","UL. KOMISJI EDUKACJI NARODOWEJ","37-310","NOWA SARZYNA","22.34167945","50.31921557","85.83333333333333","1008.1750000000001","2.6166666666666667","19.333333333333332","17.691666666666666","2025-04-28 01:00:00.0"
"SZKO?A PODSTAWOWA IM. KORNELA MAKUSZY?SKIEGO W SKRZYDLOWIE","UL. G??WNA","42-270","SKRZYDL?W","19.3605871","50.8624858","88.2375","998.0875","3.025","24.5","19.7375","2025-04-28 01:00:00.0"
"SZKO?A PODSTAWOWA W SZRENIAWIE","","32-075","SZRENIAWA","19.8690283","50.3768057","90.73333333333333","990.6166666666667","1.8833333333333335","46.53333333333333","38.475","2025-04-28 01:00:00.0"
"SZKO?A PODSTAWOWA W PTASZKOWIE","","58-400","PTASZK?W","16.0415642","50.7927672","81.48333333333333","971.8499999999999","2.3833333333333333","42.925000000000004","35.71666666666667","2025-04-28 01:00:00.0"
"SZKO?A PODSTAWOWA IM. ?W. WOJCIECHA WE W?ODOWICACH","","57-400","W?ODOWICE","16.4776033","50.575772","78.73333333333333","981.1916666666667","3.75","36.71666666666667","30.825","2025-04-28 01:00:00.0"
"PUBLICZNA SZKO?A PODSTAWOWA W LEWINIE K?ODZKIM","UL. KO?CIELNA","57-343","LEWIN K?ODZKI","16.2909777","50.4056168","70.71666666666667","970.3166666666666","5.1000000000000005","6.433333333333334","5.716666666666666","2025-04-28 01:00:00.0"
"SZKO?A PODSTAWOWA NR 3 IM. JANA PAW?A II W SYCOWIE","UL. KO?CIELNA","56-500","SYC?W","17.72017","51.3071","78.89166666666667","1005.2166666666667","4.958333333333333","22.708333333333332","19.150000000000002","2025-04-28 01:00:00.0"
"SZKO?A PODSTAWOWA IM. BOLES?AWA CHROBREGO W ?MIGRODZIE","UL. HENRYKA SIENKIEWICZA","55-140","?MIGR?D","16.9084728","51.4700924","69.21666666666667","1022.9","7.616666666666666","10.408333333333333","8.950000000000001","2025-04-28 01:00:00.0"
